, Time(), Date, Local Time, Latitude(deg), Longitude(deg), Altitude(m), Heading(deg), Pitch(deg), Roll(deg),TimestampGPS,TimestampHDF,x,y,z,heading,pitch,roll
0,2991940000,2023-12-21,10:49:51.940,41.22070744,1.73106178,60.224,336.67900000000003,-0.313,0.365,1703155791939999.0,1703155790941741,0.0,0.0,0.0,336.67900000000003,-0.313,0.365
1,2991950000,2023-12-21,10:49:51.950,41.22070746,1.73106177,60.224,336.67400000000004,-0.314,0.361,1703155791950000.0,1703155790951747,-0.0008058217354118824,0.0022325823083519936,0.0,336.67400000000004,-0.314,0.361
2,2991960000,2023-12-21,10:49:51.960,41.22070748,1.73106176,60.223,336.673,-0.316,0.358,1703155791960000.0,1703155790961762,-0.0016116434708237648,0.004465165548026562,-0.0009999999999976694,336.673,-0.316,0.358
3,2991970000,2023-12-21,10:49:51.970,41.22070749,1.73106175,60.224,336.67199999999997,-0.317,0.354,1703155791969999.0,1703155790971712,-0.002433669869787991,0.0055875759571790695,0.0,336.67199999999997,-0.317,0.354
4,2991980000,2023-12-21,10:49:51.980,41.22070751,1.73106174,60.224,336.667,-0.312,0.35100000000000003,1703155791979999.0,1703155790981748,-0.0032394916051998734,0.007820158265531063,0.0,336.667,-0.312,0.35100000000000003
5,2991990000,2023-12-21,10:49:51.990,41.22070753,1.73106173,60.223,336.665,-0.309,0.348,1703155791990000.0,1703155790991752,-0.004045313398819417,0.010052740573883057,-0.0009999999999976694,336.665,-0.309,0.348
6,2992000000,2023-12-21,10:49:52.000,41.22070754,1.73106172,60.223,336.664,-0.313,0.345,1703155792000000.0,1703155791001715,-0.004867339739575982,0.01117515005171299,-0.0009999999999976694,336.664,-0.313,0.345
7,2992010000,2023-12-21,10:49:52.010,41.22070756,1.73106171,60.223,336.658,-0.317,0.341,1703155792009999.0,1703155791012811,-0.0056731614749878645,0.013407732360064983,-0.0009999999999976694,336.658,-0.317,0.341
8,2992020000,2023-12-21,10:49:52.020,41.22070758,1.7310617,60.223,336.656,-0.316,0.33899999999999997,1703155792020000.0,1703155791022040,-0.006478983268607408,0.015640316531062126,-0.0009999999999976694,336.656,-0.316,0.33899999999999997
9,2992030000,2023-12-21,10:49:52.030,41.2207076,1.73106169,60.223,336.655,-0.317,0.335,1703155792030000.0,1703155791031962,-0.00728480500401929,0.017872899770736694,-0.0009999999999976694,336.655,-0.317,0.335
10,2992040000,2023-12-21,10:49:52.040,41.22070761,1.73106168,60.223,336.648,-0.317,0.332,1703155792039999.0,1703155791041851,-0.008106831461191177,0.01899530738592148,-0.0009999999999976694,336.648,-0.317,0.332
11,2992050000,2023-12-21,10:49:52.050,41.22070763,1.73106167,60.223,336.64599999999996,-0.314,0.33,1703155792049999.0,1703155791051855,-0.008912653138395399,0.02122789155691862,-0.0009999999999976694,336.64599999999996,-0.314,0.33
12,2992060000,2023-12-21,10:49:52.060,41.22070765,1.73106166,60.223,336.644,-0.313,0.32899999999999996,1703155792060000.0,1703155791061985,-0.009718474932014942,0.02346047479659319,-0.0009999999999976694,336.644,-0.313,0.32899999999999996
13,2992070000,2023-12-21,10:49:52.070,41.22070767,1.73106165,60.223,336.63800000000003,-0.315,0.325,1703155792070000.0,1703155791071887,-0.010524296667426825,0.025693057104945183,-0.0009999999999976694,336.63800000000003,-0.315,0.325
14,2992080000,2023-12-21,10:49:52.080,41.22070769,1.73106164,60.223,336.63599999999997,-0.315,0.322,1703155792079999.0,1703155791081788,-0.011330118402838707,0.02792564034461975,-0.0009999999999976694,336.63599999999997,-0.315,0.322
15,2992090000,2023-12-21,10:49:52.090,41.22070771,1.73106163,60.223,336.634,-0.311,0.321,1703155792090000.0,1703155791091840,-0.01213594013825059,0.03015822358429432,-0.0009999999999976694,336.634,-0.311,0.321
16,2992100000,2023-12-21,10:49:52.100,41.22070773,1.73106161,60.223,336.629,-0.307,0.319,1703155792100000.0,1703155791101803,-0.013779992936179042,0.032403042539954185,-0.0009999999999976694,336.629,-0.307,0.319
17,2992110000,2023-12-21,10:49:52.110,41.22070775,1.7310616,60.223,336.62800000000004,-0.304,0.317,1703155792109999.0,1703155791111828,-0.014585814671590924,0.034635625779628754,-0.0009999999999976694,336.62800000000004,-0.304,0.317
18,2992120000,2023-12-21,10:49:52.120,41.22070777,1.73106159,60.223,336.626,-0.301,0.315,1703155792119999.0,1703155791121768,-0.015391636465210468,0.03686820808798075,-0.0009999999999976694,336.626,-0.301,0.315
19,2992130000,2023-12-21,10:49:52.130,41.22070779,1.73106158,60.223,336.62199999999996,-0.299,0.313,1703155792130000.0,1703155791131758,-0.01619745814241469,0.039100791327655315,-0.0009999999999976694,336.62199999999996,-0.299,0.313
20,2992140000,2023-12-21,10:49:52.140,41.22070781,1.73106157,60.223,336.62,-0.299,0.311,1703155792140000.0,1703155791141809,-0.01700327987782657,0.04133337363600731,-0.0009999999999976694,336.62,-0.299,0.311
21,2992150000,2023-12-21,10:49:52.150,41.22070783,1.73106156,60.223,336.61800000000005,-0.298,0.309,1703155792149999.0,1703155791151777,-0.017809101555030793,0.04356595687568188,-0.0009999999999976694,336.61800000000005,-0.298,0.309
22,2992160000,2023-12-21,10:49:52.160,41.22070785,1.73106155,60.223,336.61300000000006,-0.295,0.308,1703155792159999.0,1703155791161748,-0.018614923406857997,0.045798540115356445,-0.0009999999999976694,336.61300000000006,-0.295,0.308
23,2992170000,2023-12-21,10:49:52.170,41.22070787,1.73106153,60.223,336.611,-0.292,0.307,1703155792170000.0,1703155791171751,-0.02025897614657879,0.04804335907101631,-0.0009999999999976694,336.611,-0.292,0.307
24,2992180000,2023-12-21,10:49:52.180,41.22070789,1.73106152,60.223,336.60900000000004,-0.289,0.306,1703155792179999.0,1703155791181715,-0.021064797940198332,0.05027594231069088,-0.0009999999999976694,336.60900000000004,-0.289,0.306
25,2992190000,2023-12-21,10:49:52.190,41.22070791,1.73106151,60.223,336.60400000000004,-0.28600000000000003,0.304,1703155792189999.0,1703155791191733,-0.021870619675610214,0.05250852461904287,-0.0009999999999976694,336.60400000000004,-0.28600000000000003,0.304
26,2992200000,2023-12-21,10:49:52.200,41.22070794,1.7310615,60.223,336.602,-0.28300000000000003,0.303,1703155792200000.0,1703155791201736,-0.022660236689262092,0.05585128162056208,-0.0009999999999976694,336.602,-0.28300000000000003,0.303
27,2992210000,2023-12-21,10:49:52.210,41.22070796,1.73106149,60.223,336.6,-0.28,0.302,1703155792210000.0,1703155791211719,-0.023466058424673975,0.05808386579155922,-0.0009999999999976694,336.6,-0.28,0.302
28,2992220000,2023-12-21,10:49:52.220,41.22070798,1.73106147,60.223,336.593,-0.27899999999999997,0.302,1703155792219999.0,1703155791221733,-0.025110111280810088,0.06032868195325136,-0.0009999999999976694,336.593,-0.27899999999999997,0.302
29,2992230000,2023-12-21,10:49:52.230,41.220708,1.73106146,60.223,336.59,-0.28,0.302,1703155792229999.0,1703155791231735,-0.02591593295801431,0.0625612661242485,-0.0009999999999976694,336.59,-0.28,0.302
30,2992240000,2023-12-21,10:49:52.240,41.22070803,1.73106145,60.223,336.585,-0.28,0.301,1703155792240000.0,1703155791241704,-0.02670555008808151,0.06590402312576771,-0.0009999999999976694,336.585,-0.28,0.301
31,2992250000,2023-12-21,10:49:52.250,41.22070805,1.73106143,60.223,336.57800000000003,-0.278,0.302,1703155792250000.0,1703155791251736,-0.02834960288600996,0.06814884208142757,-0.0009999999999976694,336.57800000000003,-0.278,0.302
32,2992260000,2023-12-21,10:49:52.260,41.22070807,1.73106142,60.223,336.57300000000004,-0.276,0.301,1703155792259999.0,1703155791261743,-0.029155424563214183,0.07038142438977957,-0.0009999999999976694,336.57300000000004,-0.276,0.301
33,2992270000,2023-12-21,10:49:52.270,41.2207081,1.73106141,60.223,336.569,-0.273,0.301,1703155792270000.0,1703155791271742,-0.02994504163507372,0.07372418232262135,-0.0009999999999976694,336.569,-0.273,0.301
34,2992280000,2023-12-21,10:49:52.280,41.22070812,1.73106139,60.223,336.56,-0.273,0.302,1703155792280000.0,1703155791281789,-0.031589094433002174,0.07596899941563606,-0.0009999999999976694,336.56,-0.273,0.302
35,2992290000,2023-12-21,10:49:52.290,41.22070815,1.73106138,60.223,336.555,-0.273,0.301,1703155792289999.0,1703155791291806,-0.03237871150486171,0.07931175827980042,-0.0009999999999976694,336.555,-0.273,0.301
36,2992300000,2023-12-21,10:49:52.300,41.22070817,1.73106137,60.223,336.54900000000004,-0.27,0.301,1703155792299999.0,1703155791301904,-0.033184533240273595,0.08154434058815241,-0.0009999999999976694,336.54900000000004,-0.27,0.301
37,2992310000,2023-12-21,10:49:52.310,41.22070819,1.73106135,60.223,336.54,-0.264,0.302,1703155792310000.0,1703155791311780,-0.03482858603820205,0.0837891586124897,-0.0009999999999976694,336.54,-0.264,0.302
38,2992320000,2023-12-21,10:49:52.320,41.22070822,1.73106134,60.223,336.535,-0.261,0.303,1703155792320000.0,1703155791321878,-0.035618203110061586,0.08713191468268633,-0.0009999999999976694,336.535,-0.261,0.303
39,2992330000,2023-12-21,10:49:52.330,41.22070825,1.73106132,60.223,336.529,-0.261,0.301,1703155792329999.0,1703155791331888,-0.037246051244437695,0.09048690740019083,-0.0009999999999976694,336.529,-0.261,0.301
40,2992340000,2023-12-21,10:49:52.340,41.22070827,1.73106131,60.223,336.519,-0.264,0.3,1703155792340000.0,1703155791341802,-0.038051872921641916,0.09271948970854282,-0.0009999999999976694,336.519,-0.264,0.3
41,2992350000,2023-12-21,10:49:52.350,41.2207083,1.73106129,60.223,336.514,-0.267,0.3,1703155792350000.0,1703155791351844,-0.039679721056018025,0.0960744833573699,-0.0009999999999976694,336.514,-0.267,0.3
42,2992360000,2023-12-21,10:49:52.360,41.22070833,1.73106128,60.223,336.509,-0.266,0.298,1703155792359999.0,1703155791361740,-0.0404693380696699,0.0994172403588891,-0.0009999999999976694,336.509,-0.266,0.298
43,2992370000,2023-12-21,10:49:52.370,41.22070835,1.73106126,60.223,336.49800000000005,-0.262,0.29600000000000004,1703155792369999.0,1703155791371756,-0.042113390867598355,0.1016620583832264,-0.0009999999999976694,336.49800000000005,-0.262,0.29600000000000004
44,2992380000,2023-12-21,10:49:52.380,41.22070838,1.73106125,60.223,336.49300000000005,-0.259,0.295,1703155792380000.0,1703155791381746,-0.04290300793945789,0.10500481352210045,-0.0009999999999976694,336.49300000000005,-0.259,0.295
45,2992390000,2023-12-21,10:49:52.390,41.22070841,1.73106123,60.223,336.48699999999997,-0.257,0.292,1703155792390000.0,1703155791391760,-0.044530856073834,0.10835980717092752,-0.0009999999999976694,336.48699999999997,-0.257,0.292
46,2992400000,2023-12-21,10:49:52.400,41.22070843,1.73106121,60.223,336.478,-0.256,0.289,1703155792399999.0,1703155791401753,-0.046174908813554794,0.11060462519526482,-0.0009999999999976694,336.478,-0.256,0.289
47,2991410000,2023-12-21,10:49:51.410,41.22070846,1.7310612,60.223,336.474,-0.257,0.28800000000000003,1703155791409999.0,1703155791411745,-0.04696452588541433,0.1139473831281066,-0.0009999999999976694,336.474,-0.257,0.28800000000000003
48,2991420000,2023-12-21,10:49:51.420,41.22070849,1.73106118,60.223,336.469,-0.257,0.287,1703155791420000.0,1703155791421786,-0.04859237401979044,0.11730237491428852,-0.0009999999999976694,336.469,-0.257,0.287
49,2991430000,2023-12-21,10:49:51.430,41.22070851,1.73106117,60.223,336.46,-0.254,0.285,1703155791429999.0,1703155791431742,-0.04939819569699466,0.11953495815396309,-0.0009999999999976694,336.46,-0.254,0.285
50,2991440000,2023-12-21,10:49:51.440,41.22070854,1.73106115,60.223,336.454,-0.252,0.284,1703155791439999.0,1703155791441731,-0.05102604383137077,0.12288994994014502,-0.0009999999999976694,336.454,-0.252,0.284
51,2991450000,2023-12-21,10:49:51.450,41.22070857,1.73106113,60.223,336.45099999999996,-0.253,0.28300000000000003,1703155791450000.0,1703155791451704,-0.05265389196574688,0.12624494265764952,-0.0009999999999976694,336.45099999999996,-0.253,0.28300000000000003
52,2991460000,2023-12-21,10:49:51.460,41.2207086,1.73106112,60.223,336.44199999999995,-0.253,0.282,1703155791460000.0,1703155791461715,-0.05344350897939876,0.12958769965916872,-0.0009999999999976694,336.44199999999995,-0.253,0.282
53,2991470000,2023-12-21,10:49:51.470,41.22070863,1.7310611,60.223,336.43699999999995,-0.254,0.28300000000000003,1703155791469999.0,1703155791471738,-0.055071357055567205,0.13294269144535065,-0.0009999999999976694,336.43699999999995,-0.254,0.28300000000000003
54,2991480000,2023-12-21,10:49:51.480,41.22070866,1.73106108,60.222,336.43199999999996,-0.255,0.284,1703155791479999.0,1703155791481712,-0.056699205189943314,0.13629768323153257,-0.001999999999995339,336.43199999999996,-0.255,0.284
55,2991490000,2023-12-21,10:49:51.490,41.22070869,1.73106107,60.222,336.42400000000004,-0.252,0.287,1703155791490000.0,1703155791491720,-0.05748882220359519,0.13964044023305178,-0.001999999999995339,336.42400000000004,-0.252,0.287
56,2991500000,2023-12-21,10:49:51.500,41.22070872,1.73106105,60.222,336.417,-0.249,0.289,1703155791500000.0,1703155791501717,-0.0591166703379713,0.14299543388187885,-0.001999999999995339,336.417,-0.249,0.289
57,2991510000,2023-12-21,10:49:51.510,41.22070875,1.73106103,60.222,336.412,-0.248,0.293,1703155791509999.0,1703155791511709,-0.06074451847234741,0.14635042566806078,-0.001999999999995339,336.412,-0.248,0.293
58,2991520000,2023-12-21,10:49:51.520,41.22070878,1.73106101,60.222,336.403,-0.248,0.29600000000000004,1703155791520000.0,1703155791521593,-0.062372366548515856,0.14970541838556528,-0.001999999999995339,336.403,-0.248,0.29600000000000004
59,2991530000,2023-12-21,10:49:51.530,41.22070881,1.731061,60.222,336.39599999999996,-0.25,0.3,1703155791530000.0,1703155791531613,-0.06316198350396007,0.15304817352443933,-0.001999999999995339,336.39599999999996,-0.25,0.3
60,2991540000,2023-12-21,10:49:51.540,41.22070884,1.73106098,60.222,336.389,-0.25,0.303,1703155791539999.0,1703155791541820,-0.06478983163833618,0.15640316531062126,-0.001999999999995339,336.389,-0.25,0.303
61,2991550000,2023-12-21,10:49:51.550,41.22070887,1.73106096,60.222,336.37699999999995,-0.248,0.304,1703155791549999.0,1703155791551675,-0.06641767977271229,0.1597581598907709,-0.001999999999995339,336.37699999999995,-0.248,0.304
62,2991560000,2023-12-21,10:49:51.560,41.22070891,1.73106094,60.222,336.36800000000005,-0.24600000000000002,0.306,1703155791560000.0,1703155791561829,-0.06802932312712073,0.16422332543879747,-0.001999999999995339,336.36800000000005,-0.24600000000000002,0.306
63,2991570000,2023-12-21,10:49:51.570,41.22070894,1.73106092,60.222,336.35900000000004,-0.245,0.308,1703155791570000.0,1703155791571903,-0.06965717126149684,0.1675783172249794,-0.001999999999995339,336.35900000000004,-0.245,0.308
64,2991580000,2023-12-21,10:49:51.580,41.22070897,1.7310609,60.222,336.345,-0.244,0.309,1703155791579999.0,1703155791581859,-0.07128501933766529,0.17093330807983875,-0.001999999999995339,336.345,-0.244,0.309
65,2991590000,2023-12-21,10:49:51.590,41.220709,1.73106088,60.222,336.335,-0.243,0.309,1703155791590000.0,1703155791591866,-0.07291286741383374,0.17428830172866583,-0.001999999999995339,336.335,-0.243,0.309
66,2991600000,2023-12-21,10:49:51.600,41.22070904,1.73106087,60.222,336.325,-0.24100000000000002,0.31,1703155791600000.0,1703155791601852,-0.07368627976393327,0.17874123342335224,-0.001999999999995339,336.325,-0.24100000000000002,0.31
67,2991610000,2023-12-21,10:49:51.610,41.22070907,1.73106084,60.222,336.31,-0.23600000000000002,0.31,1703155791609999.0,1703155791611789,-0.07615235890261829,0.1821084599941969,-0.001999999999995339,336.31,-0.23600000000000002,0.31
68,2991620000,2023-12-21,10:49:51.620,41.2207091,1.73106083,60.222,336.298,-0.23399999999999999,0.311,1703155791619999.0,1703155791621771,-0.07694197591627017,0.1854512169957161,-0.001999999999995339,336.298,-0.23399999999999999,0.311
69,2991630000,2023-12-21,10:49:51.630,41.22070914,1.73106081,60.222,336.286,-0.23600000000000002,0.312,1703155791630000.0,1703155791631740,-0.07855361932888627,0.1899163844063878,-0.001999999999995339,336.286,-0.23600000000000002,0.312
70,2991640000,2023-12-21,10:49:51.640,41.22070917,1.73106078,60.222,336.27,-0.23600000000000002,0.312,1703155791640000.0,1703155791641763,-0.08101969852577895,0.19328361097723246,-0.001999999999995339,336.27,-0.23600000000000002,0.312
71,2991650000,2023-12-21,10:49:51.650,41.22070921,1.73106076,60.222,336.25699999999995,-0.23600000000000002,0.312,1703155791649999.0,1703155791651760,-0.08263134188018739,0.19774877652525902,-0.001999999999995339,336.25699999999995,-0.23600000000000002,0.312
72,2991660000,2023-12-21,10:49:51.660,41.22070924,1.73106074,60.222,336.245,-0.23600000000000002,0.314,1703155791659999.0,1703155791661968,-0.08425918995635584,0.20110376924276352,-0.001999999999995339,336.245,-0.23600000000000002,0.314
73,2991670000,2023-12-21,10:49:51.670,41.22070927,1.73106072,60.222,336.22900000000004,-0.235,0.315,1703155791670000.0,1703155791671748,-0.08588703797431663,0.20445876102894545,-0.001999999999995339,336.22900000000004,-0.235,0.315
74,2991680000,2023-12-21,10:49:51.680,41.22070931,1.7310607,60.222,336.217,-0.235,0.315,1703155791679999.0,1703155791681833,-0.08749868138693273,0.208923926576972,-0.001999999999995339,336.217,-0.235,0.315
75,2991690000,2023-12-21,10:49:51.690,41.22070935,1.73106068,60.221000000000004,336.205,-0.23600000000000002,0.317,1703155791689999.0,1703155791691778,-0.0891103248577565,0.21338909398764372,-0.0029999999999930083,336.205,-0.23600000000000002,0.317
76,2991700000,2023-12-21,10:49:51.700,41.22070938,1.73106065,60.221000000000004,336.189,-0.23399999999999999,0.318,1703155791700000.0,1703155791701783,-0.09157640388002619,0.21675632242113352,-0.0029999999999930083,336.189,-0.23399999999999999,0.318
77,2991710000,2023-12-21,10:49:51.710,41.22070942,1.73106063,60.221000000000004,336.17699999999996,-0.233,0.318,1703155791710000.0,1703155791711739,-0.0931880472926423,0.2212214870378375,-0.0029999999999930083,336.17699999999996,-0.233,0.318
78,2991720000,2023-12-21,10:49:51.720,41.22070946,1.73106061,60.221000000000004,336.165,-0.233,0.317,1703155791719999.0,1703155791721724,-0.09479969064705074,0.22568665444850922,-0.0029999999999930083,336.165,-0.233,0.317
79,2991730000,2023-12-21,10:49:51.730,41.22070949,1.73106058,60.221000000000004,336.15,-0.23199999999999998,0.316,1703155791729999.0,1703155791731725,-0.09726576984394342,0.2290538800880313,-0.0029999999999930083,336.15,-0.23199999999999998,0.316
80,2991740000,2023-12-21,10:49:51.740,41.22070953,1.73106056,60.221000000000004,336.13599999999997,-0.235,0.316,1703155791740000.0,1703155791741732,-0.09887741319835186,0.233519047498703,-0.0029999999999930083,336.13599999999997,-0.235,0.316
81,2991750000,2023-12-21,10:49:51.750,41.22070957,1.73106054,60.221000000000004,336.124,-0.239,0.315,1703155791750000.0,1703155791751650,-0.1004890565527603,0.23798421304672956,-0.0029999999999930083,336.124,-0.239,0.315
82,2991760000,2023-12-21,10:49:51.760,41.22070961,1.73106051,60.221000000000004,336.108,-0.24,0.314,1703155791759999.0,1703155791761635,-0.10293893102789298,0.24246161431074142,-0.0029999999999930083,336.108,-0.24,0.314
83,2991770000,2023-12-21,10:49:51.770,41.22070965,1.73106048,60.221000000000004,336.094,-0.24,0.314,1703155791770000.0,1703155791771916,-0.10538880544481799,0.24693901557475328,-0.0029999999999930083,336.094,-0.24,0.314
84,2991780000,2023-12-21,10:49:51.780,41.22070969,1.73106046,60.221000000000004,336.08,-0.24,0.314,1703155791780000.0,1703155791781936,-0.10700044879922643,0.2514041820541024,-0.0029999999999930083,336.08,-0.24,0.314
85,2991790000,2023-12-21,10:49:51.790,41.22070972,1.73106043,60.221000000000004,336.06199999999995,-0.235,0.313,1703155791789999.0,1703155791791872,-0.10946652793791145,0.25477140862494707,-0.0029999999999930083,336.06199999999995,-0.235,0.313
86,2991800000,2023-12-21,10:49:51.800,41.22070976,1.7310604,60.221000000000004,336.04699999999997,-0.235,0.313,1703155791799999.0,1703155791801799,-0.11191640235483646,0.2592488117516041,-0.0029999999999930083,336.04699999999997,-0.235,0.313
87,2991810000,2023-12-21,10:49:51.810,41.2207098,1.73106038,60.22,336.031,-0.23600000000000002,0.311,1703155791810000.0,1703155791812020,-0.1135280457092449,0.2637139782309532,-0.003999999999997783,336.031,-0.23600000000000002,0.311
88,2991820000,2023-12-21,10:49:51.820,41.22070984,1.73106035,60.22,336.01199999999994,-0.235,0.308,1703155791820000.0,1703155791821943,-0.11597792012616992,0.2681913785636425,-0.003999999999997783,336.01199999999994,-0.235,0.308
89,2991830000,2023-12-21,10:49:51.830,41.22070988,1.73106032,60.22,335.994,-0.23399999999999999,0.304,1703155791829999.0,1703155791831848,-0.11842779454309493,0.27266877982765436,-0.003999999999997783,335.994,-0.23399999999999999,0.304
90,2991840000,2023-12-21,10:49:51.840,41.22070992,1.7310603,60.22,335.977,-0.23199999999999998,0.299,1703155791840000.0,1703155791841848,-0.12003943795571104,0.2771339463070035,-0.003999999999997783,335.977,-0.23199999999999998,0.299
91,2991850000,2023-12-21,10:49:51.850,41.22070996,1.73106027,60.22,335.95599999999996,-0.23,0.294,1703155791850000.0,1703155791851808,-0.12248931231442839,0.28161134850233793,-0.003999999999997783,335.95599999999996,-0.23,0.294
92,2991860000,2023-12-21,10:49:51.860,41.22071,1.73106024,60.22,335.93699999999995,-0.233,0.287,1703155791859999.0,1703155791861793,-0.1249391867313534,0.28608874790370464,-0.003999999999997783,335.93699999999995,-0.233,0.287
93,2991870000,2023-12-21,10:49:51.870,41.22071004,1.73106021,60.22,335.918,-0.231,0.28,1703155791869999.0,1703155791871749,-0.12738906114827842,0.2905661500990391,-0.003999999999997783,335.918,-0.231,0.28
94,2991880000,2023-12-21,10:49:51.880,41.22071008,1.73106018,60.22,335.895,-0.22699999999999998,0.273,1703155791880000.0,1703155791881771,-0.1298389354487881,0.2950435522943735,-0.003999999999997783,335.895,-0.22699999999999998,0.273
95,2991890000,2023-12-21,10:49:51.890,41.22071012,1.73106015,60.22,335.874,-0.225,0.264,1703155791890000.0,1703155791891770,-0.13228880992392078,0.2995209526270628,-0.003999999999997783,335.874,-0.225,0.264
96,2991900000,2023-12-21,10:49:51.900,41.22071017,1.73106012,60.22,335.853,-0.221,0.256,1703155791899999.0,1703155791901785,-0.1347224796190858,0.30510852858424187,-0.003999999999997783,335.853,-0.221,0.256
97,2991910000,2023-12-21,10:49:51.910,41.22071021,1.73106009,60.218999999999994,335.82800000000003,-0.221,0.249,1703155791909999.0,1703155791911756,-0.1371723540360108,0.3095859298482537,-0.005000000000002558,335.82800000000003,-0.221,0.249
98,2991920000,2023-12-21,10:49:51.920,41.22071025,1.73106006,60.218999999999994,335.806,-0.223,0.24100000000000002,1703155791920000.0,1703155791921759,-0.13962222839472815,0.31406333204358816,-0.005000000000002558,335.806,-0.223,0.24100000000000002
99,2991930000,2023-12-21,10:49:51.930,41.2207103,1.73106003,60.218999999999994,335.783,-0.22,0.23399999999999999,1703155791929999.0,1703155791931734,-0.14205589808989316,0.31965090800076723,-0.005000000000002558,335.783,-0.22,0.23399999999999999
100,2991940000,2023-12-21,10:49:51.940,41.22071034,1.73105999,60.218999999999994,335.756,-0.21899999999999997,0.228,1703155791939999.0,1703155791941740,-0.14534400351112708,0.3241405440494418,-0.005000000000002558,335.756,-0.21899999999999997,0.228
101,2991950000,2023-12-21,10:49:51.950,41.22071039,1.73105996,60.218999999999994,335.733,-0.217,0.222,1703155791950000.0,1703155791951751,-0.1477776732062921,0.32972811814397573,-0.005000000000002558,335.733,-0.217,0.222
102,2991960000,2023-12-21,10:49:51.960,41.22071043,1.73105993,60.218999999999994,335.709,-0.21600000000000003,0.218,1703155791960000.0,1703155791961739,-0.15022754756500944,0.3342055194079876,-0.005000000000002558,335.709,-0.21600000000000003,0.218
103,2991970000,2023-12-21,10:49:51.970,41.22071047,1.73105989,60.218999999999994,335.681,-0.221,0.213,1703155791969999.0,1703155791971737,-0.15351565298624337,0.33869515638798475,-0.005000000000002558,335.681,-0.221,0.213
104,2991980000,2023-12-21,10:49:51.980,41.22071052,1.73105986,60.218999999999994,335.656,-0.221,0.20800000000000002,1703155791979999.0,1703155791981743,-0.15594932262320071,0.34428273141384125,-0.005000000000002558,335.656,-0.221,0.20800000000000002
105,2991990000,2023-12-21,10:49:51.990,41.22071057,1.73105983,60.218999999999994,335.63,-0.21600000000000003,0.204,1703155791990000.0,1703155791991715,-0.15838299226015806,0.34987030923366547,-0.005000000000002558,335.63,-0.21600000000000003,0.204
106,2992000000,2023-12-21,10:49:52.000,41.22071061,1.73105979,60.218999999999994,335.602,-0.214,0.198,1703155792000000.0,1703155792001730,-0.16167109773959965,0.3543599434196949,-0.005000000000002558,335.602,-0.214,0.198
107,2992010000,2023-12-21,10:49:52.010,41.22071066,1.73105976,60.218999999999994,335.57599999999996,-0.20800000000000002,0.193,1703155792009999.0,1703155792012836,-0.164104767376557,0.35994751937687397,-0.005000000000002558,335.57599999999996,-0.20800000000000002,0.193
108,2992020000,2023-12-21,10:49:52.020,41.22071071,1.73105973,60.218999999999994,335.54900000000004,-0.205,0.188,1703155792020000.0,1703155792022037,-0.166538437071722,0.36553509533405304,-0.005000000000002558,335.54900000000004,-0.205,0.188
109,2992030000,2023-12-21,10:49:52.030,41.22071075,1.73105969,60.218999999999994,335.52,-0.20600000000000002,0.18,1703155792030000.0,1703155792031836,-0.16982654243474826,0.3700247313827276,-0.005000000000002558,335.52,-0.20600000000000002,0.18
110,2992040000,2023-12-21,10:49:52.040,41.2207108,1.73105966,60.218999999999994,335.49199999999996,-0.204,0.174,1703155792039999.0,1703155792041999,-0.17226021212991327,0.3756123064085841,-0.005000000000002558,335.49199999999996,-0.204,0.174
111,2992050000,2023-12-21,10:49:52.050,41.22071085,1.73105962,60.218999999999994,335.463,-0.203,0.16899999999999998,1703155792049999.0,1703155792051868,-0.17553211277117953,0.3812121180817485,-0.005000000000002558,335.463,-0.203,0.16899999999999998
112,2992060000,2023-12-21,10:49:52.060,41.2207109,1.73105959,60.218999999999994,335.43300000000005,-0.196,0.16,1703155792060000.0,1703155792061767,-0.17796578240813687,0.386799693107605,-0.005000000000002558,335.43300000000005,-0.196,0.16
113,2992070000,2023-12-21,10:49:52.070,41.22071095,1.73105955,60.218999999999994,335.404,-0.18600000000000003,0.154,1703155792070000.0,1703155792071988,-0.18123768304940313,0.3923995038494468,-0.005000000000002558,335.404,-0.18600000000000003,0.154
114,2992080000,2023-12-21,10:49:52.080,41.220711,1.73105952,60.218999999999994,335.375,-0.184,0.149,1703155792079999.0,1703155792081860,-0.18367135268636048,0.39798707887530327,-0.005000000000002558,335.375,-0.184,0.149
115,2992090000,2023-12-21,10:49:52.090,41.22071105,1.73105948,60.218999999999994,335.344,-0.18100000000000002,0.14400000000000002,1703155792090000.0,1703155792091762,-0.1869432533858344,0.40358688961714506,-0.005000000000002558,335.344,-0.18100000000000002,0.14400000000000002
116,2992100000,2023-12-21,10:49:52.100,41.2207111,1.73105944,60.218999999999994,335.314,-0.174,0.141,1703155792100000.0,1703155792101817,-0.19021515402710065,0.40918670035898685,-0.005000000000002558,335.314,-0.174,0.141
117,2992110000,2023-12-21,10:49:52.110,41.22071115,1.73105941,60.218999999999994,335.284,-0.168,0.13699999999999998,1703155792109999.0,1703155792111840,-0.192648823664058,0.4147742763161659,-0.005000000000002558,335.284,-0.168,0.13699999999999998
118,2992120000,2023-12-21,10:49:52.120,41.2207112,1.73105937,60.218999999999994,335.251,-0.157,0.134,1703155792119999.0,1703155792121848,-0.19592072430532426,0.42037408519536257,-0.005000000000002558,335.251,-0.157,0.134
119,2992130000,2023-12-21,10:49:52.130,41.22071126,1.73105933,60.218,335.22,-0.153,0.133,1703155792130000.0,1703155792131807,-0.1991764202248305,0.427084069699049,-0.005999999999993122,335.22,-0.153,0.133
120,2992140000,2023-12-21,10:49:52.140,41.22071131,1.7310593,60.218,335.18800000000005,-0.154,0.129,1703155792140000.0,1703155792141798,-0.20161008986178786,0.43267164658755064,-0.005999999999993122,335.18800000000005,-0.154,0.129
121,2992150000,2023-12-21,10:49:52.150,41.22071136,1.73105926,60.218,335.152,-0.149,0.129,1703155792149999.0,1703155792151760,-0.2048819905030541,0.438271458260715,-0.005999999999993122,335.152,-0.149,0.129
122,2992160000,2023-12-21,10:49:52.160,41.22071142,1.73105922,60.218,335.119,-0.145,0.13,1703155792159999.0,1703155792161766,-0.20813768642256036,0.44498144183307886,-0.005999999999993122,335.119,-0.145,0.13
123,2992170000,2023-12-21,10:49:52.170,41.22071147,1.73105919,60.218,335.085,-0.138,0.13,1703155792170000.0,1703155792171735,-0.21057135600131005,0.45056901685893536,-0.005999999999993122,335.085,-0.138,0.13
124,2992180000,2023-12-21,10:49:52.180,41.22071153,1.73105915,60.218,335.048,-0.129,0.132,1703155792179999.0,1703155792181738,-0.2138270519208163,0.4572790013626218,-0.005999999999993122,335.048,-0.129,0.132
125,2992190000,2023-12-21,10:49:52.190,41.22071158,1.73105911,60.218,335.01099999999997,-0.127,0.134,1703155792189999.0,1703155792191750,-0.2170989525038749,0.46287881303578615,-0.005999999999993122,335.01099999999997,-0.127,0.134
126,2992200000,2023-12-21,10:49:52.200,41.22071164,1.73105907,60.218,334.975,-0.124,0.136,1703155792200000.0,1703155792201716,-0.22035464842338115,0.46958879567682743,-0.005999999999993122,334.975,-0.124,0.136
127,2992210000,2023-12-21,10:49:52.210,41.2207117,1.73105903,60.218,334.935,-0.121,0.14,1703155792210000.0,1703155792211746,-0.2236103443428874,0.476298782043159,-0.005999999999993122,334.935,-0.121,0.14
128,2992220000,2023-12-21,10:49:52.220,41.22071176,1.731059,60.218,334.898,-0.11900000000000001,0.14300000000000002,1703155792219999.0,1703155792221769,-0.22602780919987708,0.48299653083086014,-0.005999999999993122,334.898,-0.11900000000000001,0.14300000000000002
129,2992230000,2023-12-21,10:49:52.230,41.22071181,1.73105896,60.218,334.86,-0.11199999999999999,0.146,1703155792229999.0,1703155792231711,-0.22929970978293568,0.48859634064137936,-0.005999999999993122,334.86,-0.11199999999999999,0.146
130,2992240000,2023-12-21,10:49:52.240,41.22071187,1.73105892,60.218,334.819,-0.10400000000000001,0.14800000000000002,1703155792240000.0,1703155792241744,-0.23255540564423427,0.4953063251450658,-0.005999999999993122,334.819,-0.10400000000000001,0.14800000000000002
131,2992250000,2023-12-21,10:49:52.250,41.22071193,1.73105888,60.218,334.781,-0.1,0.149,1703155792250000.0,1703155792251665,-0.23581110150553286,0.5020163096487522,-0.005999999999993122,334.781,-0.1,0.149
132,2992260000,2023-12-21,10:49:52.260,41.22071199,1.73105884,60.218,334.74199999999996,-0.1,0.151,1703155792259999.0,1703155792261755,-0.2390667974250391,0.5087262941524386,-0.005999999999993122,334.74199999999996,-0.1,0.151
133,2992270000,2023-12-21,10:49:52.270,41.22071205,1.73105879,60.218,334.702,-0.105,0.153,1703155792270000.0,1703155792271751,-0.24316072423243895,0.5154485153034329,-0.005999999999993122,334.702,-0.105,0.153
134,2992280000,2023-12-21,10:49:52.280,41.22071211,1.73105875,60.218,334.663,-0.10300000000000001,0.154,1703155792280000.0,1703155792281841,-0.24641642009373754,0.5221584988757968,-0.005999999999993122,334.663,-0.10300000000000001,0.154
135,2992290000,2023-12-21,10:49:52.290,41.22071218,1.73105871,60.217,334.624,-0.09300000000000001,0.157,1703155792289999.0,1703155792291818,-0.24965591123327613,0.5299786571413279,-0.006999999999997897,334.624,-0.09300000000000001,0.157
136,2992300000,2023-12-21,10:49:52.300,41.22071223,1.73105866,60.218,334.583,-0.085,0.158,1703155792299999.0,1703155792301834,-0.2537660428788513,0.5355907026678324,-0.005999999999993122,334.583,-0.085,0.158
137,2992310000,2023-12-21,10:49:52.310,41.2207123,1.73105862,60.218,334.54400000000004,-0.083,0.157,1703155792310000.0,1703155792311860,-0.2570055339601822,0.5434108627960086,-0.005999999999993122,334.54400000000004,-0.083,0.157
138,2992320000,2023-12-21,10:49:52.320,41.22071236,1.73105858,60.218,334.505,-0.08900000000000001,0.159,1703155792320000.0,1703155792321894,-0.2602612298214808,0.550120847299695,-0.005999999999993122,334.505,-0.08900000000000001,0.159
139,2992330000,2023-12-21,10:49:52.330,41.22071242,1.73105853,60.218,334.462,-0.091,0.156,1703155792329999.0,1703155792331724,-0.2643551566870883,0.5568430665880442,-0.005999999999993122,334.462,-0.091,0.156
140,2992340000,2023-12-21,10:49:52.340,41.22071249,1.73105848,60.218,334.42199999999997,-0.083,0.155,1703155792340000.0,1703155792341787,-0.2684328788309358,0.564675459638238,-0.005999999999993122,334.42199999999997,-0.083,0.155
141,2992350000,2023-12-21,10:49:52.350,41.22071256,1.73105844,60.218,334.38199999999995,-0.076,0.151,1703155792350000.0,1703155792351853,-0.27167236985405907,0.5724956188350916,-0.005999999999993122,334.38199999999995,-0.076,0.151
142,2992360000,2023-12-21,10:49:52.360,41.22071262,1.73105839,60.218,334.338,-0.075,0.14400000000000002,1703155792359999.0,1703155792361795,-0.27576629671966657,0.5792178381234407,-0.005999999999993122,334.338,-0.075,0.14400000000000002
143,2992370000,2023-12-21,10:49:52.370,41.22071269,1.73105834,60.218,334.29699999999997,-0.081,0.14,1703155792369999.0,1703155792371861,-0.2798440188053064,0.5870502330362797,-0.005999999999993122,334.29699999999997,-0.081,0.14
144,2992380000,2023-12-21,10:49:52.380,41.22071275,1.73105829,60.218,334.255,-0.086,0.134,1703155792380000.0,1703155792381724,-0.28393794561270624,0.5937724513933063,-0.005999999999993122,334.255,-0.086,0.134
145,2992390000,2023-12-21,10:49:52.390,41.22071282,1.73105824,60.218,334.21,-0.079,0.128,1703155792390000.0,1703155792391748,-0.2880156676401384,0.6016048453748226,-0.005999999999993122,334.21,-0.079,0.128
146,2992400000,2023-12-21,10:49:52.400,41.22071289,1.73105819,60.218,334.167,-0.07,0.124,1703155792399999.0,1703155792401752,-0.2920933897839859,0.609437239356339,-0.005999999999993122,334.167,-0.07,0.124
147,2992410000,2023-12-21,10:49:52.410,41.22071296,1.73105814,60.218,334.126,-0.068,0.11900000000000001,1703155792409999.0,1703155792411776,-0.2961711117532104,0.6172696333378553,-0.005999999999993122,334.126,-0.068,0.11900000000000001
148,2992420000,2023-12-21,10:49:52.420,41.22071302,1.73105809,60.218999999999994,334.079,-0.07,0.11699999999999999,1703155792420000.0,1703155792421766,-0.3002650386188179,0.6239918516948819,-0.005000000000002558,334.079,-0.07,0.11699999999999999
149,2992430000,2023-12-21,10:49:52.430,41.2207131,1.73105804,60.218999999999994,334.035,-0.075,0.11800000000000001,1703155792429999.0,1703155792431761,-0.3043265559244901,0.6329344213008881,-0.005000000000002558,334.035,-0.075,0.11800000000000001
150,2992440000,2023-12-21,10:49:52.440,41.22071317,1.73105799,60.218,333.99,-0.07200000000000001,0.115,1703155792439999.0,1703155792441728,-0.30840427795192227,0.6407668152824044,-0.005999999999993122,333.99,-0.07200000000000001,0.115
151,2992450000,2023-12-21,10:49:52.450,41.22071323,1.73105794,60.218999999999994,333.941,-0.065,0.115,1703155792450000.0,1703155792451750,-0.3124982047593221,0.647489033639431,-0.005000000000002558,333.941,-0.065,0.115
152,2992460000,2023-12-21,10:49:52.460,41.22071331,1.73105788,60.218999999999994,333.89599999999996,-0.063,0.114,1703155792460000.0,1703155792461754,-0.3173979530110955,0.6564438380300999,-0.005000000000002558,333.89599999999996,-0.063,0.114
153,2992470000,2023-12-21,10:49:52.470,41.22071338,1.73105783,60.218999999999994,333.849,-0.061,0.11199999999999999,1703155792469999.0,1703155792471715,-0.3214756750385277,0.6642762310802937,-0.005000000000002558,333.849,-0.061,0.11199999999999999
154,2992480000,2023-12-21,10:49:52.480,41.22071345,1.73105778,60.218999999999994,333.8,-0.063,0.11,1703155792479999.0,1703155792481735,-0.3255533970077522,0.6721086259931326,-0.005000000000002558,333.8,-0.063,0.11
155,2992490000,2023-12-21,10:49:52.490,41.22071353,1.73105772,60.218999999999994,333.75300000000004,-0.065,0.107,1703155792490000.0,1703155792491739,-0.3304531453177333,0.6810634285211563,-0.005000000000002558,333.75300000000004,-0.065,0.107
156,2992500000,2023-12-21,10:49:52.500,41.2207136,1.73105767,60.218999999999994,333.704,-0.057999999999999996,0.102,1703155792500000.0,1703155792501713,-0.3345308672869578,0.6888958215713501,-0.005000000000002558,333.704,-0.057999999999999996,0.102
157,2992510000,2023-12-21,10:49:52.510,41.22071367,1.73105761,60.218999999999994,333.653,-0.051,0.099,1703155792509999.0,1703155792511746,-0.3394468202604912,0.6967404512688518,-0.005000000000002558,333.653,-0.051,0.099
158,2992520000,2023-12-21,10:49:52.520,41.22071375,1.73105756,60.218999999999994,333.605,-0.047,0.095,1703155792520000.0,1703155792521717,-0.34350833750795573,0.7056830180808902,-0.005000000000002558,333.605,-0.047,0.095
159,2992530000,2023-12-21,10:49:52.530,41.22071382,1.7310575,60.218999999999994,333.55699999999996,-0.046,0.091,1703155792530000.0,1703155792531925,-0.34842429048148915,0.7135276477783918,-0.005000000000002558,333.55699999999996,-0.046,0.091
160,2992540000,2023-12-21,10:49:52.540,41.2207139,1.73105744,60.22,333.505,-0.047,0.087,1703155792539999.0,1703155792541819,-0.3533240386750549,0.7224824512377381,-0.003999999999997783,333.505,-0.047,0.087
161,2992550000,2023-12-21,10:49:52.550,41.22071398,1.73105739,60.22,333.457,-0.040999999999999995,0.081,1703155792549999.0,1703155792551982,-0.35738555586431175,0.7314250180497766,-0.003999999999997783,333.457,-0.040999999999999995,0.081
162,2992560000,2023-12-21,10:49:52.560,41.22071405,1.73105733,60.22,333.407,-0.032,0.078,1703155792560000.0,1703155792561986,-0.3623015087796375,0.7392696468159556,-0.003999999999997783,333.407,-0.032,0.078
163,2992570000,2023-12-21,10:49:52.570,41.22071413,1.73105727,60.22,333.355,-0.024,0.07400000000000001,1703155792570000.0,1703155792571957,-0.36720125703141093,0.7482244512066245,-0.003999999999997783,333.355,-0.024,0.07400000000000001
164,2992580000,2023-12-21,10:49:52.580,41.22071421,1.73105721,60.22,333.306,-0.015,0.07,1703155792579999.0,1703155792581897,-0.372101005166769,0.7571792528033257,-0.003999999999997783,333.306,-0.015,0.07
165,2992590000,2023-12-21,10:49:52.590,41.22071429,1.73105716,60.22,333.256,-0.011000000000000001,0.069,1703155792590000.0,1703155792591770,-0.3761625222978182,0.7661218205466866,-0.003999999999997783,333.256,-0.011000000000000001,0.069
166,2992600000,2023-12-21,10:49:52.600,41.22071436,1.73105709,60.22,333.205,-0.006,0.068,1703155792600000.0,1703155792601780,-0.3819167062174529,0.7739786859601736,-0.003999999999997783,333.205,-0.006,0.068
167,2992610000,2023-12-21,10:49:52.610,41.22071445,1.73105704,60.22,333.154,0.005,0.067,1703155792609999.0,1703155792611778,-0.38596201862674206,0.7840314283967018,-0.003999999999997783,333.154,0.005,0.067
168,2992620000,2023-12-21,10:49:52.620,41.22071453,1.73105698,60.22,333.101,0.013999999999999999,0.069,1703155792619999.0,1703155792621752,-0.39086176676210016,0.792986229993403,-0.003999999999997783,333.101,0.013999999999999999,0.069
169,2992630000,2023-12-21,10:49:52.630,41.2207146,1.73105691,60.221000000000004,333.04699999999997,0.024,0.068,1703155792630000.0,1703155792631778,-0.3966159505653195,0.8008430954068899,-0.0029999999999930083,333.04699999999997,0.024,0.068
170,2992640000,2023-12-21,10:49:52.640,41.22071469,1.73105685,60.22,332.994,0.034,0.069,1703155792640000.0,1703155792641773,-0.40149949392070994,0.8109080716967583,-0.003999999999997783,332.994,0.034,0.069
171,2992650000,2023-12-21,10:49:52.650,41.22071477,1.73105679,60.22,332.94199999999995,0.038,0.069,1703155792649999.0,1703155792651779,-0.40639924199786037,0.8198628751561046,-0.003999999999997783,332.94199999999995,0.038,0.069
172,2992660000,2023-12-21,10:49:52.660,41.22071486,1.73105672,60.221000000000004,332.88699999999994,0.049,0.067,1703155792659999.0,1703155792661892,-0.4121210163575597,0.8299400880932808,-0.0029999999999930083,332.88699999999994,0.049,0.067
173,2992670000,2023-12-21,10:49:52.670,41.22071494,1.73105666,60.22,332.832,0.067,0.066,1703155792670000.0,1703155792671814,-0.4170207643765025,0.8388948896899819,-0.003999999999997783,332.832,0.067,0.066
174,2992680000,2023-12-21,10:49:52.680,41.22071503,1.7310566,60.22,332.777,0.083,0.066,1703155792679999.0,1703155792681826,-0.4219043077318929,0.8489598669111729,-0.003999999999997783,332.777,0.083,0.066
175,2992690000,2023-12-21,10:49:52.690,41.22071511,1.73105653,60.221000000000004,332.721,0.095,0.064,1703155792689999.0,1703155792691823,-0.4276422867551446,0.8579269051551819,-0.0029999999999930083,332.721,0.095,0.064
176,2992700000,2023-12-21,10:49:52.700,41.2207152,1.73105646,60.22,332.664,0.10099999999999999,0.065,1703155792700000.0,1703155792701758,-0.4333640609984286,0.8680041180923581,-0.003999999999997783,332.664,0.10099999999999999,0.065
177,2992710000,2023-12-21,10:49:52.710,41.22071529,1.7310564,60.22,332.60900000000004,0.11,0.063,1703155792710000.0,1703155792711745,-0.4382476042374037,0.878069095313549,-0.003999999999997783,332.60900000000004,0.11,0.063
178,2992720000,2023-12-21,10:49:52.720,41.22071538,1.73105632,60.22,332.551,0.127,0.064,1703155792719999.0,1703155792721752,-0.44480760948499665,0.888158543035388,-0.003999999999997783,332.551,0.127,0.064
179,2992730000,2023-12-21,10:49:52.730,41.22071547,1.73105626,60.22,332.49300000000005,0.141,0.066,1703155792729999.0,1703155792731749,-0.4496911527821794,0.8982235193252563,-0.003999999999997783,332.49300000000005,0.141,0.066
180,2992740000,2023-12-21,10:49:52.740,41.22071556,1.73105619,60.22,332.436,0.146,0.066,1703155792740000.0,1703155792741724,-0.4554129269090481,0.9083007322624326,-0.003999999999997783,332.436,0.146,0.066
181,2992750000,2023-12-21,10:49:52.750,41.22071565,1.73105612,60.22,332.374,0.147,0.067,1703155792750000.0,1703155792751785,-0.4611347011523321,0.9183779442682862,-0.003999999999997783,332.374,0.147,0.067
182,2992760000,2023-12-21,10:49:52.760,41.22071574,1.73105605,60.22,332.314,0.157,0.069,1703155792759999.0,1703155792761753,-0.4668564752792008,0.9284551562741399,-0.003999999999997783,332.314,0.157,0.069
183,2992770000,2023-12-21,10:49:52.770,41.22071583,1.73105598,60.22,332.254,0.18,0.07,1703155792770000.0,1703155792771958,-0.4725782494642772,0.9385323682799935,-0.003999999999997783,332.254,0.18,0.07
184,2992780000,2023-12-21,10:49:52.780,41.22071593,1.7310559,60.22,332.191,0.196,0.071,1703155792780000.0,1703155792781869,-0.4791220498736948,0.9497319906949997,-0.003999999999997783,332.191,0.196,0.071
185,2992790000,2023-12-21,10:49:52.790,41.22071602,1.73105583,60.22,332.13,0.196,0.073,1703155792789999.0,1703155792792011,-0.4848438239423558,0.9598092027008533,-0.003999999999997783,332.13,0.196,0.073
186,2992800000,2023-12-21,10:49:52.800,41.22071612,1.73105576,60.22,332.06800000000004,0.191,0.076,1703155792799999.0,1703155792801888,-0.49054939328925684,0.9709965884685516,-0.003999999999997783,332.06800000000004,0.191,0.076
187,2992810000,2023-12-21,10:49:52.810,41.22071622,1.73105568,60.221000000000004,332.004,0.19,0.08,1703155792810000.0,1703155792811794,-0.4970931935822591,0.9821962099522352,-0.0029999999999930083,332.004,0.19,0.08
188,2992820000,2023-12-21,10:49:52.820,41.22071632,1.73105561,60.221000000000004,331.94199999999995,0.204,0.084,1703155792820000.0,1703155792822050,-0.5027987629291601,0.9933835966512561,-0.0029999999999930083,331.94199999999995,0.204,0.084
189,2992830000,2023-12-21,10:49:52.830,41.22071641,1.73105554,60.221000000000004,331.88,0.217,0.08800000000000001,1703155792829999.0,1703155792831877,-0.5085205369396135,1.0034608095884323,-0.0029999999999930083,331.88,0.217,0.08800000000000001
190,2992840000,2023-12-21,10:49:52.840,41.22071651,1.73105545,60.221000000000004,331.816,0.212,0.092,1703155792840000.0,1703155792841838,-0.515902568178717,1.0146726667881012,-0.0029999999999930083,331.816,0.212,0.092
191,2992850000,2023-12-21,10:49:52.850,41.22071661,1.73105537,60.221000000000004,331.754,0.196,0.094,1703155792850000.0,1703155792851803,-0.5224463684717193,1.0258722864091396,-0.0029999999999930083,331.754,0.196,0.094
192,2992860000,2023-12-21,10:49:52.860,41.22071671,1.7310553,60.221000000000004,331.69300000000004,0.188,0.09300000000000001,1703155792859999.0,1703155792861785,-0.528151937702205,1.0370596731081605,-0.0029999999999930083,331.69300000000004,0.188,0.09300000000000001
193,2992870000,2023-12-21,10:49:52.870,41.22071681,1.73105521,60.222,331.631,0.18600000000000003,0.092,1703155792869999.0,1703155792871775,-0.5355339688248932,1.048271531239152,-0.001999999999995339,331.631,0.18600000000000003,0.092
194,2992880000,2023-12-21,10:49:52.880,41.22071691,1.73105513,60.222,331.57199999999995,0.18899999999999997,0.08800000000000001,1703155792880000.0,1703155792881772,-0.5420777690014802,1.0594711527228355,-0.001999999999995339,331.57199999999995,0.18899999999999997,0.08800000000000001
195,2992890000,2023-12-21,10:49:52.890,41.22071701,1.73105506,60.222,331.51199999999994,0.18899999999999997,0.085,1703155792890000.0,1703155792891810,-0.5477833381737582,1.0706585384905338,-0.001999999999995339,331.51199999999994,0.18899999999999997,0.085
196,2992900000,2023-12-21,10:49:52.900,41.22071712,1.73105497,60.223,331.45,0.174,0.08199999999999999,1703155792899999.0,1703155792901768,-0.5551491645746864,1.08298057038337,-0.0009999999999976694,331.45,0.174,0.08199999999999999
197,2992910000,2023-12-21,10:49:52.910,41.22071722,1.73105489,60.223,331.39,0.158,0.078,1703155792909999.0,1703155792911773,-0.5616929646348581,1.0941801890730858,-0.0009999999999976694,331.39,0.158,0.078
198,2992920000,2023-12-21,10:49:52.920,41.22071732,1.73105481,60.224,331.33099999999996,0.147,0.073,1703155792920000.0,1703155792921767,-0.5682367646950297,1.105379811488092,0.0,331.33099999999996,0.147,0.073
199,2992930000,2023-12-21,10:49:52.930,41.22071742,1.73105471,60.224,331.269,0.14,0.065,1703155792929999.0,1703155792931754,-0.5764570267638192,1.1166039044037461,0.0,331.269,0.14,0.065
200,2992940000,2023-12-21,10:49:52.940,41.22071753,1.73105463,60.225,331.208,0.135,0.055999999999999994,1703155792939999.0,1703155792941767,-0.5829846219858155,1.1289136996492743,0.0010000000000047748,331.208,0.135,0.055999999999999994
201,2992950000,2023-12-21,10:49:52.950,41.22071763,1.73105455,60.225,331.145,0.121,0.047,1703155792950000.0,1703155792951749,-0.5895284219877794,1.1401133220642805,0.0010000000000047748,331.145,0.121,0.047
202,2992960000,2023-12-21,10:49:52.960,41.22071774,1.73105445,60.226000000000006,331.08099999999996,0.098,0.036000000000000004,1703155792960000.0,1703155792961743,-0.5977324791601859,1.1524475868791342,0.0020000000000095497,331.08099999999996,0.098,0.036000000000000004
203,2992970000,2023-12-21,10:49:52.970,41.22071784,1.73105437,60.226000000000006,331.019,0.086,0.027999999999999997,1703155792969999.0,1703155792971782,-0.6042762791621499,1.1636472092941403,0.0020000000000095497,331.019,0.086,0.027999999999999997
204,2992980000,2023-12-21,10:49:52.980,41.22071795,1.73105428,60.226000000000006,330.955,0.085,0.02,1703155792979999.0,1703155792981732,-0.6116421052720398,1.1759692411869764,0.0020000000000095497,330.955,0.085,0.02
205,2992990000,2023-12-21,10:49:52.990,41.22071805,1.73105419,60.227,330.889,0.08199999999999999,0.013000000000000001,1703155792990000.0,1703155792991774,-0.6190241361618973,1.1871810974553227,0.0030000000000001137,330.889,0.08199999999999999,0.013000000000000001
206,2993000000,2023-12-21,10:49:53.000,41.22071816,1.7310541,60.227,330.82300000000004,0.075,0.006,1703155793000000.0,1703155793001759,-0.6263899622717872,1.1995031274855137,0.0030000000000001137,330.82300000000004,0.075,0.006
207,2993010000,2023-12-21,10:49:53.010,41.22071827,1.73105401,60.228,330.756,0.057999999999999996,0.003,1703155793009999.0,1703155793012799,-0.6337557883234695,1.2118251584470272,0.0040000000000048885,330.756,0.057999999999999996,0.003
208,2993020000,2023-12-21,10:49:53.020,41.22071837,1.73105392,60.228,330.686,0.045,-0.001,1703155793020000.0,1703155793021836,-0.6411378191551194,1.2230370165780187,0.0040000000000048885,330.686,0.045,-0.001
209,2993030000,2023-12-21,10:49:53.030,41.22071848,1.73105383,60.228,330.61800000000005,0.040999999999999995,-0.003,1703155793030000.0,1703155793032087,-0.6485036451485939,1.2353590466082096,0.0040000000000048885,330.61800000000005,0.040999999999999995,-0.003
210,2993040000,2023-12-21,10:49:53.040,41.22071859,1.73105374,60.229,330.548,0.043,-0.005,1703155793039999.0,1703155793041869,-0.6558694711420685,1.2476810785010457,0.005000000000002558,330.548,0.043,-0.005
211,2993050000,2023-12-21,10:49:53.050,41.2207187,1.73105364,60.23,330.476,0.037000000000000005,-0.006999999999999999,1703155793049999.0,1703155793051899,-0.6640735280234367,1.2600153451785445,0.006000000000000227,330.476,0.037000000000000005,-0.006999999999999999
212,2993060000,2023-12-21,10:49:53.060,41.22071881,1.73105355,60.23,330.404,0.026000000000000002,-0.006999999999999999,1703155793060000.0,1703155793061780,-0.6714393540169112,1.272337376140058,0.006000000000000227,330.404,0.026000000000000002,-0.006999999999999999
213,2993070000,2023-12-21,10:49:53.070,41.22071892,1.73105346,60.23,330.33099999999996,0.016,-0.006999999999999999,1703155793070000.0,1703155793071792,-0.6788051798939705,1.284659406170249,0.006000000000000227,330.33099999999996,0.016,-0.006999999999999999
214,2993080000,2023-12-21,10:49:53.080,41.22071904,1.73105336,60.23,330.25800000000004,0.011000000000000001,-0.008,1703155793079999.0,1703155793081831,-0.6869930319371633,1.298103847540915,0.006000000000000227,330.25800000000004,0.011000000000000001,-0.008
215,2993090000,2023-12-21,10:49:53.090,41.22071915,1.73105327,60.23,330.18699999999995,0.019,-0.011000000000000001,1703155793090000.0,1703155793091898,-0.6943588578142226,1.3104258785024285,0.006000000000000227,330.18699999999995,0.019,-0.011000000000000001
216,2993100000,2023-12-21,10:49:53.100,41.22071926,1.73105318,60.231,330.115,0.027000000000000003,-0.015,1703155793100000.0,1703155793101846,-0.7017246836330742,1.322747909463942,0.007000000000005002,330.115,0.027000000000000003,-0.015
217,2993110000,2023-12-21,10:49:53.110,41.22071938,1.73105308,60.231,330.042,0.023,-0.018000000000000002,1703155793109999.0,1703155793111752,-0.7099125356180593,1.336192348971963,0.007000000000005002,330.042,0.023,-0.018000000000000002
218,2993120000,2023-12-21,10:49:53.120,41.22071949,1.73105298,60.231,329.97,0.01,-0.021,1703155793119999.0,1703155793121868,-0.7181165923248045,1.3485266156494617,0.007000000000005002,329.97,0.01,-0.021
219,2993130000,2023-12-21,10:49:53.130,41.2207196,1.73105289,60.231,329.898,0.003,-0.023,1703155793130000.0,1703155793131785,-0.7254824180854484,1.3608486466109753,0.007000000000005002,329.898,0.003,-0.023
220,2993140000,2023-12-21,10:49:53.140,41.22071972,1.73105279,60.232,329.82599999999996,0.009000000000000001,-0.024,1703155793140000.0,1703155793141788,-0.7336702699540183,1.3742930861189961,0.008000000000002672,329.82599999999996,0.009000000000000001,-0.024
221,2993150000,2023-12-21,10:49:53.150,41.22071983,1.73105269,60.232,329.75699999999995,0.018000000000000002,-0.022000000000000002,1703155793149999.0,1703155793151796,-0.7418743265443482,1.386627352796495,0.008000000000002672,329.75699999999995,0.018000000000000002,-0.022000000000000002
222,2993160000,2023-12-21,10:49:53.160,41.22071995,1.7310526,60.232,329.68699999999995,0.015,-0.021,1703155793159999.0,1703155793161808,-0.7492239474086091,1.4000595584511757,0.008000000000002672,329.68699999999995,0.015,-0.021
223,2993170000,2023-12-21,10:49:53.170,41.22072006,1.73105249,60.233000000000004,329.616,0.001,-0.018000000000000002,1703155793170000.0,1703155793171766,-0.7582662350032479,1.4124060599133372,0.009000000000007446,329.616,0.001,-0.018000000000000002
224,2993180000,2023-12-21,10:49:53.180,41.22072018,1.7310524,60.232,329.54699999999997,-0.01,-0.011000000000000001,1703155793179999.0,1703155793181770,-0.7656158558093011,1.4258382646366954,0.008000000000002672,329.54699999999997,-0.01,-0.011000000000000001
225,2993190000,2023-12-21,10:49:53.190,41.2207203,1.7310523,60.232,329.477,-0.005,-0.004,1703155793189999.0,1703155793191751,-0.773803707503248,1.4392827060073614,0.008000000000002672,329.477,-0.005,-0.004
226,2993200000,2023-12-21,10:49:53.200,41.22072042,1.73105219,60.233000000000004,329.406,0.009000000000000001,0.004,1703155793200000.0,1703155793201751,-0.7828297900850885,1.452739380300045,0.009000000000007446,329.406,0.009000000000000001,0.004
227,2993210000,2023-12-21,10:49:53.210,41.22072053,1.7310521,60.233000000000004,329.337,0.016,0.013000000000000001,1703155793210000.0,1703155793211766,-0.7901956156129017,1.4650614112615585,0.009000000000007446,329.337,0.016,0.013000000000000001
228,2993220000,2023-12-21,10:49:53.220,41.22072065,1.731052,60.233000000000004,329.267,0.015,0.021,1703155793219999.0,1703155793221746,-0.7983834673068486,1.478505851700902,0.009000000000007446,329.267,0.015,0.021
229,2993230000,2023-12-21,10:49:53.230,41.22072077,1.73105189,60.233000000000004,329.195,0.011000000000000001,0.03,1703155793229999.0,1703155793231734,-0.8074095497722737,1.4919625287875533,0.009000000000007446,329.195,0.011000000000000001,0.03
230,2993240000,2023-12-21,10:49:53.240,41.22072089,1.7310518,60.233000000000004,329.125,0.006,0.043,1703155793240000.0,1703155793241754,-0.814759170403704,1.505394732579589,0.009000000000007446,329.125,0.006,0.043
231,2993250000,2023-12-21,10:49:53.250,41.22072101,1.7310517,60.233000000000004,329.05400000000003,0.006999999999999999,0.055,1703155793250000.0,1703155793251720,-0.8229470219230279,1.5188391730189323,0.009000000000007446,329.05400000000003,0.006999999999999999,0.055
232,2993260000,2023-12-21,10:49:53.260,41.22072113,1.73105159,60.233000000000004,328.98199999999997,0.015,0.067,1703155793259999.0,1703155793261737,-0.8319731043884531,1.532295849174261,0.009000000000007446,328.98199999999997,0.015,0.067
233,2993270000,2023-12-21,10:49:53.270,41.22072125,1.73105149,60.233000000000004,328.912,0.025,0.08,1703155793270000.0,1703155793271714,-0.8401609558495693,1.545740288682282,0.009000000000007446,328.912,0.025,0.08
234,2993280000,2023-12-21,10:49:53.280,41.22072137,1.7310514,60.233000000000004,328.842,0.036000000000000004,0.09,1703155793280000.0,1703155793281813,-0.8475105763645843,1.5591724943369627,0.009000000000007446,328.842,0.036000000000000004,0.09
235,2993290000,2023-12-21,10:49:53.290,41.2207215,1.73105128,60.233999999999995,328.769,0.04,0.1,1703155793289999.0,1703155793291684,-0.8573586847633123,1.5737515799701214,0.00999999999999801,328.769,0.04,0.1
236,2993300000,2023-12-21,10:49:53.300,41.22072162,1.73105118,60.233999999999995,328.69800000000004,0.033,0.113,1703155793299999.0,1703155793301925,-0.8655465361662209,1.5871960204094648,0.00999999999999801,328.69800000000004,0.033,0.113
237,2993310000,2023-12-21,10:49:53.310,41.22072174,1.73105108,60.233000000000004,328.625,0.03,0.125,1703155793310000.0,1703155793311755,-0.8737343874527141,1.6006404608488083,0.009000000000007446,328.625,0.03,0.125
238,2993320000,2023-12-21,10:49:53.320,41.22072187,1.73105097,60.235,328.55,0.036000000000000004,0.141,1703155793320000.0,1703155793321757,-0.882744264905341,1.615207309834659,0.011000000000002785,328.55,0.036000000000000004,0.141
239,2993330000,2023-12-21,10:49:53.330,41.22072199,1.73105087,60.233999999999995,328.477,0.05,0.159,1703155793329999.0,1703155793331804,-0.8909321161918342,1.6286517512053251,0.00999999999999801,328.477,0.05,0.159
240,2993340000,2023-12-21,10:49:53.340,41.22072212,1.73105077,60.233999999999995,328.405,0.062,0.17800000000000002,1703155793340000.0,1703155793341867,-0.8991037625819445,1.6432063644751906,0.00999999999999801,328.405,0.062,0.17800000000000002
241,2993350000,2023-12-21,10:49:53.350,41.22072225,1.73105065,60.235,328.33,0.059000000000000004,0.19399999999999998,1703155793350000.0,1703155793351796,-0.9089518708060496,1.6577854501083493,0.011000000000002785,328.33,0.059000000000000004,0.19399999999999998
242,2993360000,2023-12-21,10:49:53.360,41.22072237,1.73105055,60.235,328.255,0.045,0.214,1703155793359999.0,1703155793361794,-0.9171397219761275,1.6712298914790154,0.011000000000002785,328.255,0.045,0.214
243,2993370000,2023-12-21,10:49:53.370,41.2207225,1.73105045,60.235,328.18199999999996,0.040999999999999995,0.237,1703155793369999.0,1703155793371756,-0.9253113683080301,1.6857845056802034,0.011000000000002785,328.18199999999996,0.040999999999999995,0.237
244,2993380000,2023-12-21,10:49:53.380,41.22072263,1.73105034,60.236000000000004,328.108,0.057,0.26,1703155793380000.0,1703155793381754,-0.9343212455278262,1.7003513546660542,0.01200000000000756,328.108,0.057,0.26
245,2993390000,2023-12-21,10:49:53.390,41.22072275,1.73105023,60.235,328.034,0.078,0.284,1703155793390000.0,1703155793391770,-0.9433473275275901,1.713808030821383,0.011000000000002785,328.034,0.078,0.284
246,2993400000,2023-12-21,10:49:53.400,41.22072288,1.73105013,60.235,327.961,0.078,0.31,1703155793399999.0,1703155793401773,-0.9515189737430774,1.728362645022571,0.011000000000002785,327.961,0.078,0.31
247,2993410000,2023-12-21,10:49:53.410,41.22072301,1.73105001,60.236000000000004,327.88599999999997,0.057999999999999996,0.33399999999999996,1703155793409999.0,1703155793411750,-0.9613670816761442,1.7429417306557298,0.01200000000000756,327.88599999999997,0.057999999999999996,0.33399999999999996
248,2993420000,2023-12-21,10:49:53.420,41.22072314,1.73104991,60.236000000000004,327.81300000000005,0.044000000000000004,0.358,1703155793420000.0,1703155793421802,-0.9695387277752161,1.7574963448569179,0.01200000000000756,327.81300000000005,0.044000000000000004,0.358
249,2993430000,2023-12-21,10:49:53.430,41.22072327,1.7310498,60.236000000000004,327.74199999999996,0.052000000000000005,0.382,1703155793429999.0,1703155793431724,-0.9785486048203893,1.7720631947740912,0.01200000000000756,327.74199999999996,0.052000000000000005,0.382
250,2993440000,2023-12-21,10:49:53.440,41.2207234,1.73104969,60.236999999999995,327.671,0.07200000000000001,0.40299999999999997,1703155793439999.0,1703155793441743,-0.9875584817491472,1.7866300446912646,0.012999999999998124,327.671,0.07200000000000001,0.40299999999999997
251,2993450000,2023-12-21,10:49:53.450,41.22072353,1.73104958,60.236999999999995,327.6,0.081,0.42700000000000005,1703155793450000.0,1703155793451749,-0.9965683587361127,1.8011968936771154,0.012999999999998124,327.6,0.081,0.42700000000000005
252,2993460000,2023-12-21,10:49:53.460,41.22072365,1.73104947,60.236000000000004,327.53,0.065,0.44799999999999995,1703155793460000.0,1703155793461730,-1.005594440503046,1.8146535698324442,0.01200000000000756,327.53,0.065,0.44799999999999995
253,2993470000,2023-12-21,10:49:53.470,41.22072379,1.73104935,60.236999999999995,327.459,0.039,0.469,1703155793469999.0,1703155793471740,-1.0154263433651067,1.8303428292274475,0.012999999999998124,327.459,0.039,0.469
254,2993480000,2023-12-21,10:49:53.480,41.22072391,1.73104924,60.236999999999995,327.39,0.036000000000000004,0.486,1703155793479999.0,1703155793481753,-1.0244524250156246,1.8437995053827763,0.012999999999998124,327.39,0.036000000000000004,0.486
255,2993490000,2023-12-21,10:49:53.490,41.22072404,1.73104913,60.236999999999995,327.322,0.054000000000000006,0.504,1703155793490000.0,1703155793491716,-1.0334623018279672,1.8583663571625948,0.012999999999998124,327.322,0.054000000000000006,0.504
256,2993500000,2023-12-21,10:49:53.500,41.22072418,1.73104901,60.238,327.255,0.07200000000000001,0.516,1703155793500000.0,1703155793501743,-1.0432942045736127,1.874055614694953,0.014000000000002899,327.255,0.07200000000000001,0.516
257,2993510000,2023-12-21,10:49:53.510,41.2207243,1.73104889,60.238,327.188,0.064,0.529,1703155793509999.0,1703155793511773,-1.0531585169956088,1.887524526566267,0.014000000000002899,327.188,0.064,0.529
258,2993520000,2023-12-21,10:49:53.520,41.22072443,1.73104878,60.238,327.122,0.040999999999999995,0.54,1703155793520000.0,1703155793521846,-1.062168393691536,1.9020913755521178,0.014000000000002899,327.122,0.040999999999999995,0.54
259,2993530000,2023-12-21,10:49:53.530,41.22072457,1.73104865,60.239,327.055,0.027000000000000003,0.546,1703155793530000.0,1703155793531908,-1.0728385272668675,1.917792871594429,0.015000000000000568,327.055,0.027000000000000003,0.546
260,2993540000,2023-12-21,10:49:53.540,41.22072469,1.73104854,60.239,326.98900000000003,0.03,0.552,1703155793539999.0,1703155793541891,-1.0818646087427624,1.9312495468184352,0.015000000000000568,326.98900000000003,0.03,0.552
