, Time(), Date, Local Time, Latitude(deg), Longitude(deg), Altitude(m), Heading(deg), Pitch(deg), Roll(deg),TimestampGPS,TimestampHDF,x,y,z,heading,pitch,roll
0,2753540000,2023-12-21,10:45:53.540,41.22049594,1.73085125,60.36600000000001,248.545,0.042,-1.107,1703155553539999.0,1703155552538950,0.0,0.0,0.0,248.545,0.042,-1.107
1,2753550000,2023-12-21,10:45:53.550,41.22049594,1.73085125,60.36600000000001,248.545,0.040999999999999995,-1.1079999999999999,1703155553549999.0,1703155552548905,0.0,0.0,0.0,248.545,0.040999999999999995,-1.1079999999999999
2,2753560000,2023-12-21,10:45:53.560,41.22049594,1.73085125,60.36600000000001,248.545,0.037000000000000005,-1.107,1703155553560000.0,1703155552558965,0.0,0.0,0.0,248.545,0.037000000000000005,-1.107
3,2753570000,2023-12-21,10:45:53.570,41.22049594,1.73085125,60.36600000000001,248.545,0.036000000000000004,-1.105,1703155553570000.0,1703155552568901,0.0,0.0,0.0,248.545,0.036000000000000004,-1.105
4,2753580000,2023-12-21,10:45:53.580,41.22049594,1.73085125,60.36600000000001,248.545,0.039,-1.103,1703155553579999.0,1703155552578941,0.0,0.0,0.0,248.545,0.039,-1.103
5,2753590000,2023-12-21,10:45:53.590,41.22049594,1.73085125,60.36600000000001,248.545,0.040999999999999995,-1.101,1703155553590000.0,1703155552588822,0.0,0.0,0.0,248.545,0.040999999999999995,-1.101
6,2753600000,2023-12-21,10:45:53.600,41.22049594,1.73085125,60.36600000000001,248.545,0.038,-1.099,1703155553600000.0,1703155552598805,0.0,0.0,0.0,248.545,0.038,-1.099
7,2753610000,2023-12-21,10:45:53.610,41.22049594,1.73085125,60.36600000000001,248.545,0.034,-1.097,1703155553609999.0,1703155552608821,0.0,0.0,0.0,248.545,0.034,-1.097
8,2753620000,2023-12-21,10:45:53.620,41.22049594,1.73085125,60.36600000000001,248.545,0.034,-1.097,1703155553619999.0,1703155552618790,0.0,0.0,0.0,248.545,0.034,-1.097
9,2753630000,2023-12-21,10:45:53.630,41.22049594,1.73085125,60.36600000000001,248.545,0.038,-1.0959999999999999,1703155553630000.0,1703155552628790,0.0,0.0,0.0,248.545,0.038,-1.0959999999999999
10,2753640000,2023-12-21,10:45:53.640,41.22049594,1.73085125,60.36600000000001,248.546,0.038,-1.0959999999999999,1703155553640000.0,1703155552638796,0.0,0.0,0.0,248.546,0.038,-1.0959999999999999
11,2753650000,2023-12-21,10:45:53.650,41.22049594,1.73085125,60.36600000000001,248.546,0.034,-1.0959999999999999,1703155553649999.0,1703155552648822,0.0,0.0,0.0,248.546,0.034,-1.0959999999999999
12,2753660000,2023-12-21,10:45:53.660,41.22049594,1.73085125,60.36600000000001,248.546,0.033,-1.0959999999999999,1703155553659999.0,1703155552658793,0.0,0.0,0.0,248.546,0.033,-1.0959999999999999
13,2753670000,2023-12-21,10:45:53.670,41.22049594,1.73085125,60.36600000000001,248.547,0.036000000000000004,-1.097,1703155553670000.0,1703155552668899,0.0,0.0,0.0,248.547,0.036000000000000004,-1.097
14,2753680000,2023-12-21,10:45:53.680,41.22049593,1.73085125,60.36600000000001,248.547,0.039,-1.0979999999999999,1703155553679999.0,1703155552678819,-1.620728289708495e-05,-0.0011101728305220604,0.0,248.547,0.039,-1.0979999999999999
15,2753690000,2023-12-21,10:45:53.690,41.22049594,1.73085125,60.36600000000001,248.547,0.037000000000000005,-1.099,1703155553689999.0,1703155552688781,0.0,0.0,0.0,248.547,0.037000000000000005,-1.099
16,2753700000,2023-12-21,10:45:53.700,41.22049594,1.73085125,60.36600000000001,248.547,0.035,-1.1,1703155553700000.0,1703155552698780,0.0,0.0,0.0,248.547,0.035,-1.1
17,2753710000,2023-12-21,10:45:53.710,41.22049593,1.73085125,60.36600000000001,248.546,0.037000000000000005,-1.1,1703155553710000.0,1703155552708784,-1.620728289708495e-05,-0.0011101728305220604,0.0,248.546,0.037000000000000005,-1.1
18,2753720000,2023-12-21,10:45:53.720,41.22049594,1.73085125,60.367,248.546,0.040999999999999995,-1.1,1703155553719999.0,1703155552718767,0.0,0.0,0.000999999999990564,248.546,0.040999999999999995,-1.1
19,2753730000,2023-12-21,10:45:53.730,41.22049593,1.73085125,60.367,248.546,0.04,-1.102,1703155553729999.0,1703155552728779,-1.620728289708495e-05,-0.0011101728305220604,0.000999999999990564,248.546,0.04,-1.102
20,2753740000,2023-12-21,10:45:53.740,41.22049593,1.73085125,60.367,248.545,0.036000000000000004,-1.102,1703155553740000.0,1703155552738767,-1.620728289708495e-05,-0.0011101728305220604,0.000999999999990564,248.545,0.036000000000000004,-1.102
21,2753750000,2023-12-21,10:45:53.750,41.22049594,1.73085125,60.367,248.545,0.035,-1.102,1703155553750000.0,1703155552748783,0.0,0.0,0.000999999999990564,248.545,0.035,-1.102
22,2753760000,2023-12-21,10:45:53.760,41.22049593,1.73085125,60.367,248.545,0.037000000000000005,-1.101,1703155553759999.0,1703155552758796,-1.620728289708495e-05,-0.0011101728305220604,0.000999999999990564,248.545,0.037000000000000005,-1.101
23,2753770000,2023-12-21,10:45:53.770,41.22049593,1.73085125,60.367,248.545,0.036000000000000004,-1.102,1703155553770000.0,1703155552768839,-1.620728289708495e-05,-0.0011101728305220604,0.000999999999990564,248.545,0.036000000000000004,-1.102
24,2753780000,2023-12-21,10:45:53.780,41.22049593,1.73085125,60.367,248.545,0.033,-1.103,1703155553780000.0,1703155552778829,-1.620728289708495e-05,-0.0011101728305220604,0.000999999999990564,248.545,0.033,-1.103
25,2753790000,2023-12-21,10:45:53.790,41.22049593,1.73085125,60.367,248.545,0.033,-1.102,1703155553789999.0,1703155552789035,-1.620728289708495e-05,-0.0011101728305220604,0.000999999999990564,248.545,0.033,-1.102
26,2753800000,2023-12-21,10:45:53.800,41.22049593,1.73085125,60.367,248.544,0.037000000000000005,-1.102,1703155553799999.0,1703155552798770,-1.620728289708495e-05,-0.0011101728305220604,0.000999999999990564,248.544,0.037000000000000005,-1.102
27,2753810000,2023-12-21,10:45:53.810,41.22049593,1.73085125,60.367,248.544,0.040999999999999995,-1.102,1703155553810000.0,1703155552808802,-1.620728289708495e-05,-0.0011101728305220604,0.000999999999990564,248.544,0.040999999999999995,-1.102
28,2753820000,2023-12-21,10:45:53.820,41.22049593,1.73085125,60.367,248.545,0.038,-1.103,1703155553820000.0,1703155552818830,-1.620728289708495e-05,-0.0011101728305220604,0.000999999999990564,248.545,0.038,-1.103
29,2753830000,2023-12-21,10:45:53.830,41.22049593,1.73085125,60.367,248.546,0.035,-1.103,1703155553829999.0,1703155552828899,-1.620728289708495e-05,-0.0011101728305220604,0.000999999999990564,248.546,0.035,-1.103
30,2753840000,2023-12-21,10:45:53.840,41.22049593,1.73085125,60.367,248.546,0.035,-1.103,1703155553840000.0,1703155552838845,-1.620728289708495e-05,-0.0011101728305220604,0.000999999999990564,248.546,0.035,-1.103
31,2753850000,2023-12-21,10:45:53.850,41.22049593,1.73085125,60.367,248.545,0.038,-1.104,1703155553850000.0,1703155552848824,-1.620728289708495e-05,-0.0011101728305220604,0.000999999999990564,248.545,0.038,-1.104
32,2753860000,2023-12-21,10:45:53.860,41.22049593,1.73085125,60.367,248.545,0.036000000000000004,-1.105,1703155553859999.0,1703155552858793,-1.620728289708495e-05,-0.0011101728305220604,0.000999999999990564,248.545,0.036000000000000004,-1.105
33,2753870000,2023-12-21,10:45:53.870,41.22049593,1.73085125,60.368,248.545,0.031,-1.105,1703155553869999.0,1703155552868793,-1.620728289708495e-05,-0.0011101728305220604,0.001999999999995339,248.545,0.031,-1.105
34,2753880000,2023-12-21,10:45:53.880,41.22049593,1.73085125,60.367,248.546,0.03,-1.104,1703155553880000.0,1703155552878820,-1.620728289708495e-05,-0.0011101728305220604,0.000999999999990564,248.546,0.03,-1.104
35,2753890000,2023-12-21,10:45:53.890,41.22049593,1.73085125,60.367,248.547,0.035,-1.104,1703155553890000.0,1703155552888825,-1.620728289708495e-05,-0.0011101728305220604,0.000999999999990564,248.547,0.035,-1.104
36,2753900000,2023-12-21,10:45:53.900,41.22049593,1.73085125,60.368,248.546,0.038,-1.104,1703155553899999.0,1703155552898777,-1.620728289708495e-05,-0.0011101728305220604,0.001999999999995339,248.546,0.038,-1.104
37,2753910000,2023-12-21,10:45:53.910,41.22049593,1.73085125,60.368,248.547,0.035,-1.104,1703155553909999.0,1703155552908795,-1.620728289708495e-05,-0.0011101728305220604,0.001999999999995339,248.547,0.035,-1.104
38,2753920000,2023-12-21,10:45:53.920,41.22049593,1.73085125,60.368,248.547,0.034,-1.103,1703155553920000.0,1703155552918770,-1.620728289708495e-05,-0.0011101728305220604,0.001999999999995339,248.547,0.034,-1.103
39,2753930000,2023-12-21,10:45:53.930,41.22049593,1.73085125,60.368,248.548,0.035,-1.104,1703155553929999.0,1703155552928769,-1.620728289708495e-05,-0.0011101728305220604,0.001999999999995339,248.548,0.035,-1.104
40,2753940000,2023-12-21,10:45:53.940,41.22049593,1.73085125,60.368,248.547,0.035,-1.103,1703155553939999.0,1703155552938787,-1.620728289708495e-05,-0.0011101728305220604,0.001999999999995339,248.547,0.035,-1.103
41,2753950000,2023-12-21,10:45:53.950,41.22049593,1.73085125,60.368,248.547,0.032,-1.104,1703155553950000.0,1703155552948818,-1.620728289708495e-05,-0.0011101728305220604,0.001999999999995339,248.547,0.032,-1.104
42,2753960000,2023-12-21,10:45:53.960,41.22049593,1.73085124,60.368,248.547,0.028999999999999998,-1.103,1703155553960000.0,1703155552958778,-0.000854441081173718,-0.0010979371145367622,0.001999999999995339,248.547,0.028999999999999998,-1.103
43,2753970000,2023-12-21,10:45:53.970,41.22049593,1.73085124,60.368,248.548,0.03,-1.102,1703155553969999.0,1703155552968805,-0.000854441081173718,-0.0010979371145367622,0.001999999999995339,248.548,0.03,-1.102
44,2753980000,2023-12-21,10:45:53.980,41.22049593,1.73085124,60.368,248.547,0.033,-1.101,1703155553979999.0,1703155552978767,-0.000854441081173718,-0.0010979371145367622,0.001999999999995339,248.547,0.033,-1.101
45,2753990000,2023-12-21,10:45:53.990,41.22049593,1.73085124,60.368,248.546,0.033,-1.101,1703155553990000.0,1703155552988765,-0.000854441081173718,-0.0010979371145367622,0.001999999999995339,248.546,0.033,-1.101
46,2754000000,2023-12-21,10:45:54.000,41.22049593,1.73085124,60.368,248.547,0.032,-1.1,1703155554000000.0,1703155552998785,-0.000854441081173718,-0.0010979371145367622,0.001999999999995339,248.547,0.032,-1.1
47,2754010000,2023-12-21,10:45:54.010,41.22049593,1.73085124,60.368,248.546,0.033,-1.1,1703155554009999.0,1703155553009859,-0.000854441081173718,-0.0010979371145367622,0.001999999999995339,248.546,0.033,-1.1
48,2754020000,2023-12-21,10:45:54.020,41.22049593,1.73085124,60.368,248.546,0.037000000000000005,-1.1,1703155554020000.0,1703155553018850,-0.000854441081173718,-0.0010979371145367622,0.001999999999995339,248.546,0.037000000000000005,-1.1
49,2754030000,2023-12-21,10:45:54.030,41.22049593,1.73085124,60.368,248.546,0.038,-1.1,1703155554030000.0,1703155553028850,-0.000854441081173718,-0.0010979371145367622,0.001999999999995339,248.546,0.038,-1.1
50,2754040000,2023-12-21,10:45:54.040,41.22049593,1.73085124,60.368,248.546,0.033,-1.1,1703155554039999.0,1703155553038865,-0.000854441081173718,-0.0010979371145367622,0.001999999999995339,248.546,0.033,-1.1
51,2754050000,2023-12-21,10:45:54.050,41.22049593,1.73085124,60.368,248.546,0.031,-1.099,1703155554049999.0,1703155553048897,-0.000854441081173718,-0.0010979371145367622,0.001999999999995339,248.546,0.031,-1.099
52,2754060000,2023-12-21,10:45:54.060,41.22049593,1.73085124,60.368,248.547,0.034,-1.099,1703155554060000.0,1703155553059031,-0.000854441081173718,-0.0010979371145367622,0.001999999999995339,248.547,0.034,-1.099
53,2754070000,2023-12-21,10:45:54.070,41.22049593,1.73085124,60.368,248.547,0.038,-1.099,1703155554070000.0,1703155553068962,-0.000854441081173718,-0.0010979371145367622,0.001999999999995339,248.547,0.038,-1.099
54,2754080000,2023-12-21,10:45:54.080,41.22049593,1.73085124,60.368,248.547,0.036000000000000004,-1.099,1703155554079999.0,1703155553078966,-0.000854441081173718,-0.0010979371145367622,0.001999999999995339,248.547,0.036000000000000004,-1.099
55,2754090000,2023-12-21,10:45:54.090,41.22049593,1.73085124,60.368,248.547,0.033,-1.099,1703155554090000.0,1703155553088918,-0.000854441081173718,-0.0010979371145367622,0.001999999999995339,248.547,0.033,-1.099
56,2754100000,2023-12-21,10:45:54.100,41.22049593,1.73085124,60.368,248.547,0.036000000000000004,-1.099,1703155554100000.0,1703155553098857,-0.000854441081173718,-0.0010979371145367622,0.001999999999995339,248.547,0.036000000000000004,-1.099
57,2754110000,2023-12-21,10:45:54.110,41.22049593,1.73085124,60.368,248.547,0.04,-1.1,1703155554109999.0,1703155553108837,-0.000854441081173718,-0.0010979371145367622,0.001999999999995339,248.547,0.04,-1.1
58,2754120000,2023-12-21,10:45:54.120,41.22049593,1.73085124,60.368,248.546,0.039,-1.101,1703155554119999.0,1703155553118890,-0.000854441081173718,-0.0010979371145367622,0.001999999999995339,248.546,0.039,-1.101
59,2754130000,2023-12-21,10:45:54.130,41.22049593,1.73085124,60.368,248.546,0.034,-1.102,1703155554130000.0,1703155553128806,-0.000854441081173718,-0.0010979371145367622,0.001999999999995339,248.546,0.034,-1.102
60,2754140000,2023-12-21,10:45:54.140,41.22049593,1.73085124,60.369,248.546,0.033,-1.103,1703155554140000.0,1703155553138838,-0.000854441081173718,-0.0010979371145367622,0.0029999999999930083,248.546,0.033,-1.103
61,2754150000,2023-12-21,10:45:54.150,41.22049592,1.73085124,60.369,248.546,0.033,-1.103,1703155554149999.0,1703155553148835,-0.0008706483640708029,-0.0022081108763813972,0.0029999999999930083,248.546,0.033,-1.103
62,2754160000,2023-12-21,10:45:54.160,41.22049592,1.73085124,60.368,248.546,0.034,-1.105,1703155554159999.0,1703155553158840,-0.0008706483640708029,-0.0022081108763813972,0.001999999999995339,248.546,0.034,-1.105
63,2754170000,2023-12-21,10:45:54.170,41.22049592,1.73085123,60.369,248.546,0.032,-1.1059999999999999,1703155554170000.0,1703155553168810,-0.001708882104139775,-0.00219587329775095,0.0029999999999930083,248.546,0.032,-1.1059999999999999
64,2754180000,2023-12-21,10:45:54.180,41.22049592,1.73085123,60.369,248.545,0.032,-1.1059999999999999,1703155554179999.0,1703155553178800,-0.001708882104139775,-0.00219587329775095,0.0029999999999930083,248.545,0.032,-1.1059999999999999
65,2754190000,2023-12-21,10:45:54.190,41.22049592,1.73085123,60.369,248.545,0.034,-1.1059999999999999,1703155554189999.0,1703155553188765,-0.001708882104139775,-0.00219587329775095,0.0029999999999930083,248.545,0.034,-1.1059999999999999
66,2754200000,2023-12-21,10:45:54.200,41.22049592,1.73085123,60.369,248.545,0.035,-1.107,1703155554200000.0,1703155553198774,-0.001708882104139775,-0.00219587329775095,0.0029999999999930083,248.545,0.035,-1.107
67,2754210000,2023-12-21,10:45:54.210,41.22049592,1.73085123,60.369,248.546,0.032,-1.1059999999999999,1703155554210000.0,1703155553208810,-0.001708882104139775,-0.00219587329775095,0.0029999999999930083,248.546,0.032,-1.1059999999999999
68,2754220000,2023-12-21,10:45:54.220,41.22049592,1.73085123,60.369,248.546,0.03,-1.105,1703155554219999.0,1703155553218784,-0.001708882104139775,-0.00219587329775095,0.0029999999999930083,248.546,0.03,-1.105
69,2754230000,2023-12-21,10:45:54.230,41.22049592,1.73085123,60.37,248.546,0.032,-1.1059999999999999,1703155554229999.0,1703155553228773,-0.001708882104139775,-0.00219587329775095,0.003999999999990678,248.546,0.032,-1.1059999999999999
70,2754240000,2023-12-21,10:45:54.240,41.22049592,1.73085123,60.37,248.545,0.035,-1.1059999999999999,1703155554240000.0,1703155553238800,-0.001708882104139775,-0.00219587329775095,0.003999999999990678,248.545,0.035,-1.1059999999999999
71,2754250000,2023-12-21,10:45:54.250,41.22049592,1.73085123,60.369,248.545,0.033,-1.1059999999999999,1703155554250000.0,1703155553248758,-0.001708882104139775,-0.00219587329775095,0.0029999999999930083,248.545,0.033,-1.1059999999999999
72,2754260000,2023-12-21,10:45:54.260,41.22049592,1.73085122,60.37,248.546,0.028999999999999998,-1.1059999999999999,1703155554259999.0,1703155553258782,-0.002547115960624069,-0.0021836357191205025,0.003999999999990678,248.546,0.028999999999999998,-1.1059999999999999
73,2754270000,2023-12-21,10:45:54.270,41.22049592,1.73085122,60.37,248.546,0.028999999999999998,-1.1059999999999999,1703155554270000.0,1703155553268919,-0.002547115960624069,-0.0021836357191205025,0.003999999999990678,248.546,0.028999999999999998,-1.1059999999999999
74,2754280000,2023-12-21,10:45:54.280,41.22049592,1.73085122,60.37,248.546,0.034,-1.1059999999999999,1703155554280000.0,1703155553278956,-0.002547115960624069,-0.0021836357191205025,0.003999999999990678,248.546,0.034,-1.1059999999999999
75,2754290000,2023-12-21,10:45:54.290,41.22049592,1.73085122,60.37,248.546,0.036000000000000004,-1.107,1703155554289999.0,1703155553288901,-0.002547115960624069,-0.0021836357191205025,0.003999999999990678,248.546,0.036000000000000004,-1.107
76,2754300000,2023-12-21,10:45:54.300,41.22049592,1.73085122,60.37,248.545,0.034,-1.107,1703155554299999.0,1703155553298953,-0.002547115960624069,-0.0021836357191205025,0.003999999999990678,248.545,0.034,-1.107
77,2754310000,2023-12-21,10:45:54.310,41.22049592,1.73085122,60.37,248.545,0.033,-1.1059999999999999,1703155554310000.0,1703155553308915,-0.002547115960624069,-0.0021836357191205025,0.003999999999990678,248.545,0.033,-1.1059999999999999
78,2754320000,2023-12-21,10:45:54.320,41.22049592,1.73085122,60.37,248.545,0.035,-1.105,1703155554320000.0,1703155553318917,-0.002547115960624069,-0.0021836357191205025,0.003999999999990678,248.545,0.035,-1.105
79,2754330000,2023-12-21,10:45:54.330,41.22049592,1.73085122,60.37,248.545,0.036000000000000004,-1.1059999999999999,1703155554329999.0,1703155553328845,-0.002547115960624069,-0.0021836357191205025,0.003999999999990678,248.545,0.036000000000000004,-1.1059999999999999
80,2754340000,2023-12-21,10:45:54.340,41.22049592,1.73085122,60.37,248.545,0.035,-1.1059999999999999,1703155554340000.0,1703155553338920,-0.002547115960624069,-0.0021836357191205025,0.003999999999990678,248.545,0.035,-1.1059999999999999
81,2754350000,2023-12-21,10:45:54.350,41.22049592,1.73085121,60.37,248.544,0.034,-1.104,1703155554350000.0,1703155553348848,-0.003385349817108363,-0.002171398140490055,0.003999999999990678,248.544,0.034,-1.104
82,2754360000,2023-12-21,10:45:54.360,41.22049592,1.73085122,60.37,248.544,0.035,-1.103,1703155554359999.0,1703155553358844,-0.002547115960624069,-0.0021836357191205025,0.003999999999990678,248.544,0.035,-1.103
83,2754370000,2023-12-21,10:45:54.370,41.22049592,1.73085122,60.37,248.543,0.034,-1.105,1703155554369999.0,1703155553368790,-0.002547115960624069,-0.0021836357191205025,0.003999999999990678,248.543,0.034,-1.105
84,2754380000,2023-12-21,10:45:54.380,41.22049592,1.73085121,60.371,248.543,0.031,-1.104,1703155554380000.0,1703155553378817,-0.003385349817108363,-0.002171398140490055,0.0049999999999954525,248.543,0.031,-1.104
85,2754390000,2023-12-21,10:45:54.390,41.22049591,1.73085121,60.37,248.543,0.031,-1.102,1703155554390000.0,1703155553388809,-0.003401557041797787,-0.0032815728336572647,0.003999999999990678,248.543,0.031,-1.102
86,2754400000,2023-12-21,10:45:54.400,41.22049591,1.73085121,60.37,248.543,0.035,-1.102,1703155554399999.0,1703155553398821,-0.003401557041797787,-0.0032815728336572647,0.003999999999990678,248.543,0.035,-1.102
87,2753410000,2023-12-21,10:45:53.410,41.22049591,1.73085121,60.371,248.543,0.038,-1.101,1703155553409999.0,1703155553408800,-0.003401557041797787,-0.0032815728336572647,0.0049999999999954525,248.543,0.038,-1.101
88,2753420000,2023-12-21,10:45:53.420,41.22049591,1.73085121,60.371,248.543,0.037000000000000005,-1.1,1703155553420000.0,1703155553418820,-0.003401557041797787,-0.0032815728336572647,0.0049999999999954525,248.543,0.037000000000000005,-1.1
89,2753430000,2023-12-21,10:45:53.430,41.22049591,1.73085121,60.371,248.544,0.032,-1.099,1703155553429999.0,1703155553428764,-0.003401557041797787,-0.0032815728336572647,0.0049999999999954525,248.544,0.032,-1.099
90,2753440000,2023-12-21,10:45:53.440,41.22049591,1.7308512,60.372,248.544,0.033,-1.1,1703155553439999.0,1703155553438781,-0.004239790898282081,-0.0032693352550268173,0.005999999999993122,248.544,0.033,-1.1
91,2753450000,2023-12-21,10:45:53.450,41.22049591,1.73085121,60.371,248.544,0.035,-1.101,1703155553450000.0,1703155553448788,-0.003401557041797787,-0.0032815728336572647,0.0049999999999954525,248.544,0.035,-1.101
92,2753460000,2023-12-21,10:45:53.460,41.22049591,1.73085121,60.371,248.543,0.035,-1.101,1703155553460000.0,1703155553458771,-0.003401557041797787,-0.0032815728336572647,0.0049999999999954525,248.543,0.035,-1.101
93,2753470000,2023-12-21,10:45:53.470,41.22049591,1.7308512,60.372,248.543,0.031,-1.1,1703155553469999.0,1703155553468786,-0.004239790898282081,-0.0032693352550268173,0.005999999999993122,248.543,0.031,-1.1
94,2753480000,2023-12-21,10:45:53.480,41.22049591,1.7308512,60.372,248.544,0.03,-1.099,1703155553479999.0,1703155553478788,-0.004239790898282081,-0.0032693352550268173,0.005999999999993122,248.544,0.03,-1.099
95,2753490000,2023-12-21,10:45:53.490,41.22049591,1.7308512,60.372,248.545,0.032,-1.1,1703155553490000.0,1703155553488763,-0.004239790898282081,-0.0032693352550268173,0.005999999999993122,248.545,0.032,-1.1
96,2753500000,2023-12-21,10:45:53.500,41.22049591,1.7308512,60.372,248.545,0.033,-1.102,1703155553500000.0,1703155553498795,-0.004239790898282081,-0.0032693352550268173,0.005999999999993122,248.545,0.033,-1.102
97,2753510000,2023-12-21,10:45:53.510,41.22049591,1.7308512,60.372,248.545,0.032,-1.103,1703155553509999.0,1703155553508792,-0.004239790898282081,-0.0032693352550268173,0.005999999999993122,248.545,0.032,-1.103
98,2753520000,2023-12-21,10:45:53.520,41.22049591,1.7308512,60.372,248.545,0.033,-1.104,1703155553520000.0,1703155553518797,-0.004239790898282081,-0.0032693352550268173,0.005999999999993122,248.545,0.033,-1.104
99,2753530000,2023-12-21,10:45:53.530,41.22049591,1.7308512,60.373000000000005,248.545,0.034,-1.105,1703155553530000.0,1703155553528872,-0.004239790898282081,-0.0032693352550268173,0.006999999999997897,248.545,0.034,-1.105
100,2753540000,2023-12-21,10:45:53.540,41.22049591,1.7308512,60.373000000000005,248.545,0.031,-1.107,1703155553539999.0,1703155553539033,-0.004239790898282081,-0.0032693352550268173,0.006999999999997897,248.545,0.031,-1.107
101,2753550000,2023-12-21,10:45:53.550,41.22049591,1.7308512,60.373000000000005,248.544,0.025,-1.1079999999999999,1703155553549999.0,1703155553548897,-0.004239790898282081,-0.0032693352550268173,0.006999999999997897,248.544,0.025,-1.1079999999999999
102,2753560000,2023-12-21,10:45:53.560,41.22049591,1.73085119,60.373000000000005,248.544,0.024,-1.107,1703155553560000.0,1703155553558933,-0.005078024696558714,-0.00325709767639637,0.006999999999997897,248.544,0.024,-1.107
103,2753570000,2023-12-21,10:45:53.570,41.22049591,1.7308512,60.373000000000005,248.544,0.027999999999999997,-1.107,1703155553570000.0,1703155553568874,-0.004239790898282081,-0.0032693352550268173,0.006999999999997897,248.544,0.027999999999999997,-1.107
104,2753580000,2023-12-21,10:45:53.580,41.22049591,1.7308512,60.373000000000005,248.545,0.032,-1.1079999999999999,1703155553579999.0,1703155553578944,-0.004239790898282081,-0.0032693352550268173,0.006999999999997897,248.545,0.032,-1.1079999999999999
105,2753590000,2023-12-21,10:45:53.590,41.22049591,1.73085119,60.373000000000005,248.545,0.03,-1.1079999999999999,1703155553590000.0,1703155553588838,-0.005078024696558714,-0.00325709767639637,0.006999999999997897,248.545,0.03,-1.1079999999999999
106,2753600000,2023-12-21,10:45:53.600,41.2204959,1.73085119,60.373000000000005,248.545,0.027999999999999997,-1.107,1703155553600000.0,1703155553598914,-0.005094231921248138,-0.004367271438241005,0.006999999999997897,248.545,0.027999999999999997,-1.107
107,2753610000,2023-12-21,10:45:53.610,41.2204959,1.73085119,60.373000000000005,248.545,0.03,-1.107,1703155553609999.0,1703155553608827,-0.005094231921248138,-0.004367271438241005,0.006999999999997897,248.545,0.03,-1.107
108,2753620000,2023-12-21,10:45:53.620,41.2204959,1.73085119,60.373999999999995,248.544,0.032,-1.107,1703155553619999.0,1703155553618818,-0.005094231921248138,-0.004367271438241005,0.00799999999998846,248.544,0.032,-1.107
109,2753630000,2023-12-21,10:45:53.630,41.2204959,1.73085119,60.373999999999995,248.545,0.033,-1.1079999999999999,1703155553630000.0,1703155553628806,-0.005094231921248138,-0.004367271438241005,0.00799999999998846,248.545,0.033,-1.1079999999999999
110,2753640000,2023-12-21,10:45:53.640,41.2204959,1.73085119,60.373999999999995,248.544,0.03,-1.1079999999999999,1703155553640000.0,1703155553638849,-0.005094231921248138,-0.004367271438241005,0.00799999999998846,248.544,0.03,-1.1079999999999999
111,2753650000,2023-12-21,10:45:53.650,41.2204959,1.73085119,60.373999999999995,248.544,0.027999999999999997,-1.1079999999999999,1703155553649999.0,1703155553648802,-0.005094231921248138,-0.004367271438241005,0.00799999999998846,248.544,0.027999999999999997,-1.1079999999999999
112,2753660000,2023-12-21,10:45:53.660,41.2204959,1.73085119,60.373999999999995,248.544,0.027999999999999997,-1.109,1703155553659999.0,1703155553658848,-0.005094231921248138,-0.004367271438241005,0.00799999999998846,248.544,0.027999999999999997,-1.109
113,2753670000,2023-12-21,10:45:53.670,41.2204959,1.73085119,60.373999999999995,248.544,0.028999999999999998,-1.11,1703155553670000.0,1703155553668859,-0.005094231921248138,-0.004367271438241005,0.00799999999998846,248.544,0.028999999999999998,-1.11
114,2753680000,2023-12-21,10:45:53.680,41.2204959,1.73085119,60.373999999999995,248.543,0.028999999999999998,-1.11,1703155553679999.0,1703155553678826,-0.005094231921248138,-0.004367271438241005,0.00799999999998846,248.543,0.028999999999999998,-1.11
115,2753690000,2023-12-21,10:45:53.690,41.2204959,1.73085119,60.373999999999995,248.543,0.032,-1.109,1703155553689999.0,1703155553688798,-0.005094231921248138,-0.004367271438241005,0.00799999999998846,248.543,0.032,-1.109
116,2753700000,2023-12-21,10:45:53.700,41.2204959,1.73085119,60.373999999999995,248.543,0.034,-1.109,1703155553700000.0,1703155553698812,-0.005094231921248138,-0.004367271438241005,0.00799999999998846,248.543,0.034,-1.109
117,2753710000,2023-12-21,10:45:53.710,41.2204959,1.73085119,60.373999999999995,248.542,0.031,-1.109,1703155553710000.0,1703155553708785,-0.005094231921248138,-0.004367271438241005,0.00799999999998846,248.542,0.031,-1.109
118,2753720000,2023-12-21,10:45:53.720,41.2204959,1.73085119,60.373999999999995,248.542,0.026000000000000002,-1.109,1703155553719999.0,1703155553718788,-0.005094231921248138,-0.004367271438241005,0.00799999999998846,248.542,0.026000000000000002,-1.109
119,2753730000,2023-12-21,10:45:53.730,41.2204959,1.73085119,60.373999999999995,248.542,0.026000000000000002,-1.109,1703155553729999.0,1703155553728774,-0.005094231921248138,-0.004367271438241005,0.00799999999998846,248.542,0.026000000000000002,-1.109
120,2753740000,2023-12-21,10:45:53.740,41.2204959,1.73085118,60.373999999999995,248.542,0.028999999999999998,-1.109,1703155553740000.0,1703155553738817,-0.005932465777732432,-0.004355034790933132,0.00799999999998846,248.542,0.028999999999999998,-1.109
121,2753750000,2023-12-21,10:45:53.750,41.2204959,1.73085119,60.373999999999995,248.542,0.028999999999999998,-1.109,1703155553750000.0,1703155553748991,-0.005094231921248138,-0.004367271438241005,0.00799999999998846,248.542,0.028999999999999998,-1.109
122,2753760000,2023-12-21,10:45:53.760,41.22049589,1.73085119,60.373999999999995,248.542,0.025,-1.109,1703155553759999.0,1703155553758863,-0.005110439262352884,-0.005477446131408215,0.00799999999998846,248.542,0.025,-1.109
123,2753770000,2023-12-21,10:45:53.770,41.22049589,1.73085118,60.373999999999995,248.541,0.021,-1.1079999999999999,1703155553770000.0,1703155553768904,-0.005948673118837178,-0.005465208552777767,0.00799999999998846,248.541,0.021,-1.1079999999999999
124,2753780000,2023-12-21,10:45:53.780,41.22049589,1.73085118,60.373999999999995,248.541,0.023,-1.109,1703155553780000.0,1703155553778917,-0.005948673118837178,-0.005465208552777767,0.00799999999998846,248.541,0.023,-1.109
125,2753790000,2023-12-21,10:45:53.790,41.22049589,1.73085118,60.373999999999995,248.541,0.027000000000000003,-1.109,1703155553789999.0,1703155553788939,-0.005948673118837178,-0.005465208552777767,0.00799999999998846,248.541,0.027000000000000003,-1.109
126,2753800000,2023-12-21,10:45:53.800,41.22049589,1.73085118,60.373999999999995,248.541,0.026000000000000002,-1.111,1703155553799999.0,1703155553798895,-0.005948673118837178,-0.005465208552777767,0.00799999999998846,248.541,0.026000000000000002,-1.111
127,2753810000,2023-12-21,10:45:53.810,41.22049589,1.73085118,60.373999999999995,248.54,0.022000000000000002,-1.11,1703155553810000.0,1703155553809012,-0.005948673118837178,-0.005465208552777767,0.00799999999998846,248.54,0.022000000000000002,-1.11
128,2753820000,2023-12-21,10:45:53.820,41.22049589,1.73085118,60.373999999999995,248.54,0.021,-1.11,1703155553820000.0,1703155553818981,-0.005948673118837178,-0.005465208552777767,0.00799999999998846,248.54,0.021,-1.11
129,2753830000,2023-12-21,10:45:53.830,41.22049589,1.73085118,60.375,248.541,0.022000000000000002,-1.11,1703155553829999.0,1703155553828883,-0.005948673118837178,-0.005465208552777767,0.008999999999993236,248.541,0.022000000000000002,-1.11
130,2753840000,2023-12-21,10:45:53.840,41.22049589,1.73085118,60.375,248.541,0.023,-1.11,1703155553840000.0,1703155553838895,-0.005948673118837178,-0.005465208552777767,0.008999999999993236,248.541,0.023,-1.11
131,2753850000,2023-12-21,10:45:53.850,41.22049589,1.73085118,60.373999999999995,248.541,0.021,-1.11,1703155553850000.0,1703155553848833,-0.005948673118837178,-0.005465208552777767,0.00799999999998846,248.541,0.021,-1.11
132,2753860000,2023-12-21,10:45:53.860,41.22049589,1.73085118,60.375,248.541,0.021,-1.109,1703155553859999.0,1703155553858821,-0.005948673118837178,-0.005465208552777767,0.008999999999993236,248.541,0.021,-1.109
133,2753870000,2023-12-21,10:45:53.870,41.22049589,1.73085118,60.375,248.542,0.022000000000000002,-1.109,1703155553869999.0,1703155553868817,-0.005948673118837178,-0.005465208552777767,0.008999999999993236,248.542,0.022000000000000002,-1.109
134,2753880000,2023-12-21,10:45:53.880,41.22049588,1.73085118,60.375,248.541,0.022000000000000002,-1.11,1703155553880000.0,1703155553878811,-0.005964880343526602,-0.006575382314622402,0.008999999999993236,248.541,0.022000000000000002,-1.11
135,2753890000,2023-12-21,10:45:53.890,41.22049588,1.73085118,60.375,248.542,0.02,-1.109,1703155553890000.0,1703155553888800,-0.005964880343526602,-0.006575382314622402,0.008999999999993236,248.542,0.02,-1.109
136,2753900000,2023-12-21,10:45:53.900,41.22049588,1.73085118,60.375,248.541,0.02,-1.1079999999999999,1703155553899999.0,1703155553898810,-0.005964880343526602,-0.006575382314622402,0.008999999999993236,248.541,0.02,-1.1079999999999999
137,2753910000,2023-12-21,10:45:53.910,41.22049588,1.73085118,60.375,248.542,0.025,-1.1079999999999999,1703155553909999.0,1703155553908831,-0.005964880343526602,-0.006575382314622402,0.008999999999993236,248.542,0.025,-1.1079999999999999
138,2753920000,2023-12-21,10:45:53.920,41.22049588,1.73085118,60.375,248.542,0.027999999999999997,-1.1079999999999999,1703155553920000.0,1703155553918800,-0.005964880343526602,-0.006575382314622402,0.008999999999993236,248.542,0.027999999999999997,-1.1079999999999999
139,2753930000,2023-12-21,10:45:53.930,41.22049588,1.73085118,60.375,248.542,0.025,-1.11,1703155553929999.0,1703155553928807,-0.005964880343526602,-0.006575382314622402,0.008999999999993236,248.542,0.025,-1.11
140,2753940000,2023-12-21,10:45:53.940,41.22049588,1.73085118,60.375,248.542,0.021,-1.11,1703155553939999.0,1703155553938781,-0.005964880343526602,-0.006575382314622402,0.008999999999993236,248.542,0.021,-1.11
141,2753950000,2023-12-21,10:45:53.950,41.22049588,1.73085117,60.376000000000005,248.542,0.022000000000000002,-1.11,1703155553950000.0,1703155553948793,-0.006803114141803235,-0.006563145667314529,0.00999999999999801,248.542,0.022000000000000002,-1.11
142,2753960000,2023-12-21,10:45:53.960,41.22049588,1.73085117,60.375,248.542,0.025,-1.111,1703155553960000.0,1703155553958811,-0.006803114141803235,-0.006563145667314529,0.008999999999993236,248.542,0.025,-1.111
143,2753970000,2023-12-21,10:45:53.970,41.22049588,1.73085117,60.375,248.542,0.024,-1.112,1703155553969999.0,1703155553968783,-0.006803114141803235,-0.006563145667314529,0.008999999999993236,248.542,0.024,-1.112
144,2753980000,2023-12-21,10:45:53.980,41.22049588,1.73085117,60.376000000000005,248.542,0.023,-1.112,1703155553979999.0,1703155553978830,-0.006803114141803235,-0.006563145667314529,0.00999999999999801,248.542,0.023,-1.112
145,2753990000,2023-12-21,10:45:53.990,41.22049588,1.73085117,60.376000000000005,248.542,0.024,-1.112,1703155553990000.0,1703155553988800,-0.006803114141803235,-0.006563145667314529,0.00999999999999801,248.542,0.024,-1.112
146,2754000000,2023-12-21,10:45:54.000,41.22049588,1.73085117,60.376000000000005,248.543,0.026000000000000002,-1.112,1703155554000000.0,1703155553998787,-0.006803114141803235,-0.006563145667314529,0.00999999999999801,248.543,0.026000000000000002,-1.112
147,2754010000,2023-12-21,10:45:54.010,41.22049588,1.73085116,60.376000000000005,248.543,0.028999999999999998,-1.112,1703155554009999.0,1703155554009906,-0.007641347940079868,-0.006550908088684082,0.00999999999999801,248.543,0.028999999999999998,-1.112
148,2754020000,2023-12-21,10:45:54.020,41.22049588,1.73085116,60.376000000000005,248.543,0.027999999999999997,-1.113,1703155554020000.0,1703155554018835,-0.007641347940079868,-0.006550908088684082,0.00999999999999801,248.543,0.027999999999999997,-1.113
149,2754030000,2023-12-21,10:45:54.030,41.22049587,1.73085117,60.376000000000005,248.543,0.027000000000000003,-1.113,1703155554030000.0,1703155554028863,-0.006819321482907981,-0.007673319429159164,0.00999999999999801,248.543,0.027000000000000003,-1.113
150,2754040000,2023-12-21,10:45:54.040,41.22049587,1.73085116,60.376999999999995,248.544,0.028999999999999998,-1.113,1703155554039999.0,1703155554038909,-0.007657555281184614,-0.007661082781851292,0.010999999999988574,248.544,0.028999999999999998,-1.113
151,2754050000,2023-12-21,10:45:54.050,41.22049587,1.73085116,60.376999999999995,248.544,0.027999999999999997,-1.114,1703155554049999.0,1703155554048937,-0.007657555281184614,-0.007661082781851292,0.010999999999988574,248.544,0.027999999999999997,-1.114
152,2754060000,2023-12-21,10:45:54.060,41.22049587,1.73085116,60.376000000000005,248.545,0.025,-1.115,1703155554060000.0,1703155554058842,-0.007657555281184614,-0.007661082781851292,0.00999999999999801,248.545,0.025,-1.115
153,2754070000,2023-12-21,10:45:54.070,41.22049587,1.73085115,60.376999999999995,248.546,0.023,-1.114,1703155554070000.0,1703155554068911,-0.008495789137668908,-0.007648845203220844,0.010999999999988574,248.546,0.023,-1.114
154,2754080000,2023-12-21,10:45:54.080,41.22049587,1.73085116,60.376999999999995,248.547,0.025,-1.113,1703155554079999.0,1703155554078919,-0.007657555281184614,-0.007661082781851292,0.010999999999988574,248.547,0.025,-1.113
155,2754090000,2023-12-21,10:45:54.090,41.22049587,1.73085116,60.376999999999995,248.547,0.028999999999999998,-1.113,1703155554090000.0,1703155554089053,-0.007657555281184614,-0.007661082781851292,0.010999999999988574,248.547,0.028999999999999998,-1.113
156,2754100000,2023-12-21,10:45:54.100,41.22049587,1.73085115,60.376999999999995,248.547,0.028999999999999998,-1.114,1703155554100000.0,1703155554098902,-0.008495789137668908,-0.007648845203220844,0.010999999999988574,248.547,0.028999999999999998,-1.114
157,2754110000,2023-12-21,10:45:54.110,41.22049587,1.73085115,60.376999999999995,248.546,0.027000000000000003,-1.115,1703155554109999.0,1703155554108889,-0.008495789137668908,-0.007648845203220844,0.010999999999988574,248.546,0.027000000000000003,-1.115
158,2754120000,2023-12-21,10:45:54.120,41.22049587,1.73085115,60.376999999999995,248.547,0.027000000000000003,-1.114,1703155554119999.0,1703155554118833,-0.008495789137668908,-0.007648845203220844,0.010999999999988574,248.547,0.027000000000000003,-1.114
159,2754130000,2023-12-21,10:45:54.130,41.22049587,1.73085115,60.376999999999995,248.547,0.028999999999999998,-1.115,1703155554130000.0,1703155554128851,-0.008495789137668908,-0.007648845203220844,0.010999999999988574,248.547,0.028999999999999998,-1.115
160,2754140000,2023-12-21,10:45:54.140,41.22049586,1.73085115,60.376999999999995,248.546,0.028999999999999998,-1.115,1703155554140000.0,1703155554138849,-0.008511996362358332,-0.00875901896506548,0.010999999999988574,248.546,0.028999999999999998,-1.115
161,2754150000,2023-12-21,10:45:54.150,41.22049586,1.73085115,60.376999999999995,248.545,0.023,-1.115,1703155554149999.0,1703155554148849,-0.008511996362358332,-0.00875901896506548,0.010999999999988574,248.545,0.023,-1.115
162,2754160000,2023-12-21,10:45:54.160,41.22049586,1.73085114,60.376999999999995,248.545,0.019,-1.114,1703155554159999.0,1703155554158815,-0.009350230218842626,-0.008746781386435032,0.010999999999988574,248.545,0.019,-1.114
163,2754170000,2023-12-21,10:45:54.170,41.22049586,1.73085114,60.376999999999995,248.545,0.021,-1.114,1703155554170000.0,1703155554168818,-0.009350230218842626,-0.008746781386435032,0.010999999999988574,248.545,0.021,-1.114
164,2754180000,2023-12-21,10:45:54.180,41.22049586,1.73085114,60.376999999999995,248.545,0.024,-1.115,1703155554179999.0,1703155554178773,-0.009350230218842626,-0.008746781386435032,0.010999999999988574,248.545,0.024,-1.115
165,2754190000,2023-12-21,10:45:54.190,41.22049586,1.73085114,60.376999999999995,248.545,0.025,-1.115,1703155554189999.0,1703155554188793,-0.009350230218842626,-0.008746781386435032,0.010999999999988574,248.545,0.025,-1.115
166,2754200000,2023-12-21,10:45:54.200,41.22049586,1.73085114,60.376999999999995,248.546,0.024,-1.114,1703155554200000.0,1703155554198802,-0.009350230218842626,-0.008746781386435032,0.010999999999988574,248.546,0.024,-1.114
167,2754210000,2023-12-21,10:45:54.210,41.22049586,1.73085114,60.376999999999995,248.547,0.026000000000000002,-1.112,1703155554210000.0,1703155554208792,-0.009350230218842626,-0.008746781386435032,0.010999999999988574,248.547,0.026000000000000002,-1.112
168,2754220000,2023-12-21,10:45:54.220,41.22049586,1.73085114,60.378,248.547,0.027000000000000003,-1.112,1703155554219999.0,1703155554218723,-0.009350230218842626,-0.008746781386435032,0.01199999999999335,248.547,0.027000000000000003,-1.112
169,2754230000,2023-12-21,10:45:54.230,41.22049586,1.73085114,60.378,248.547,0.026000000000000002,-1.114,1703155554229999.0,1703155554228862,-0.009350230218842626,-0.008746781386435032,0.01199999999999335,248.547,0.026000000000000002,-1.114
170,2754240000,2023-12-21,10:45:54.240,41.22049586,1.73085114,60.376999999999995,248.547,0.022000000000000002,-1.114,1703155554240000.0,1703155554238802,-0.009350230218842626,-0.008746781386435032,0.010999999999988574,248.547,0.022000000000000002,-1.114
171,2754250000,2023-12-21,10:45:54.250,41.22049586,1.73085113,60.378,248.547,0.022000000000000002,-1.113,1703155554250000.0,1703155554248805,-0.010188463958911598,-0.008734543807804585,0.01199999999999335,248.547,0.022000000000000002,-1.113
172,2754260000,2023-12-21,10:45:54.260,41.22049586,1.73085114,60.378,248.547,0.025,-1.113,1703155554259999.0,1703155554258867,-0.009350230218842626,-0.008746781386435032,0.01199999999999335,248.547,0.025,-1.113
173,2754270000,2023-12-21,10:45:54.270,41.22049586,1.73085114,60.378,248.547,0.026000000000000002,-1.114,1703155554270000.0,1703155554269056,-0.009350230218842626,-0.008746781386435032,0.01199999999999335,248.547,0.026000000000000002,-1.114
174,2754280000,2023-12-21,10:45:54.280,41.22049586,1.73085113,60.378,248.547,0.023,-1.114,1703155554280000.0,1703155554278942,-0.010188463958911598,-0.008734543807804585,0.01199999999999335,248.547,0.023,-1.114
175,2754290000,2023-12-21,10:45:54.290,41.22049586,1.73085113,60.378,248.547,0.023,-1.113,1703155554289999.0,1703155554289004,-0.010188463958911598,-0.008734543807804585,0.01199999999999335,248.547,0.023,-1.113
176,2754300000,2023-12-21,10:45:54.300,41.22049586,1.73085113,60.378,248.547,0.027999999999999997,-1.113,1703155554299999.0,1703155554298920,-0.010188463958911598,-0.008734543807804585,0.01199999999999335,248.547,0.027999999999999997,-1.113
177,2754310000,2023-12-21,10:45:54.310,41.22049586,1.73085113,60.378,248.547,0.031,-1.114,1703155554310000.0,1703155554308907,-0.010188463958911598,-0.008734543807804585,0.01199999999999335,248.547,0.031,-1.114
178,2754320000,2023-12-21,10:45:54.320,41.22049586,1.73085113,60.378,248.548,0.027999999999999997,-1.115,1703155554320000.0,1703155554318866,-0.010188463958911598,-0.008734543807804585,0.01199999999999335,248.548,0.027999999999999997,-1.115
179,2754330000,2023-12-21,10:45:54.330,41.22049585,1.73085113,60.378,248.547,0.024,-1.115,1703155554329999.0,1703155554329002,-0.010204671300016344,-0.009844718500971794,0.01199999999999335,248.547,0.024,-1.115
180,2754340000,2023-12-21,10:45:54.340,41.22049585,1.73085113,60.378,248.547,0.023,-1.114,1703155554340000.0,1703155554338876,-0.010204671300016344,-0.009844718500971794,0.01199999999999335,248.547,0.023,-1.114
181,2754350000,2023-12-21,10:45:54.350,41.22049585,1.73085113,60.378,248.547,0.025,-1.113,1703155554350000.0,1703155554348880,-0.010204671300016344,-0.009844718500971794,0.01199999999999335,248.547,0.025,-1.113
182,2754360000,2023-12-21,10:45:54.360,41.22049585,1.73085113,60.376999999999995,248.547,0.023,-1.114,1703155554359999.0,1703155554358819,-0.010204671300016344,-0.009844718500971794,0.010999999999988574,248.547,0.023,-1.114
183,2754370000,2023-12-21,10:45:54.370,41.22049585,1.73085112,60.378,248.547,0.021,-1.114,1703155554369999.0,1703155554368867,-0.011042905098292977,-0.009832481853663921,0.01199999999999335,248.547,0.021,-1.114
184,2754380000,2023-12-21,10:45:54.380,41.22049585,1.73085112,60.376999999999995,248.547,0.021,-1.113,1703155554380000.0,1703155554378829,-0.011042905098292977,-0.009832481853663921,0.010999999999988574,248.547,0.021,-1.113
185,2754390000,2023-12-21,10:45:54.390,41.22049585,1.73085112,60.376999999999995,248.548,0.025,-1.113,1703155554390000.0,1703155554388869,-0.011042905098292977,-0.009832481853663921,0.010999999999988574,248.548,0.025,-1.113
186,2754400000,2023-12-21,10:45:54.400,41.22049585,1.73085112,60.376999999999995,248.548,0.026000000000000002,-1.113,1703155554399999.0,1703155554398804,-0.011042905098292977,-0.009832481853663921,0.010999999999988574,248.548,0.026000000000000002,-1.113
187,2754410000,2023-12-21,10:45:54.410,41.22049585,1.73085112,60.376999999999995,248.548,0.023,-1.113,1703155554409999.0,1703155554408843,-0.011042905098292977,-0.009832481853663921,0.010999999999988574,248.548,0.023,-1.113
188,2754420000,2023-12-21,10:45:54.420,41.22049585,1.73085112,60.376999999999995,248.548,0.02,-1.111,1703155554420000.0,1703155554418810,-0.011042905098292977,-0.009832481853663921,0.010999999999988574,248.548,0.02,-1.111
189,2754430000,2023-12-21,10:45:54.430,41.22049585,1.73085112,60.376999999999995,248.548,0.021,-1.109,1703155554429999.0,1703155554428785,-0.011042905098292977,-0.009832481853663921,0.010999999999988574,248.548,0.021,-1.109
190,2754440000,2023-12-21,10:45:54.440,41.22049585,1.73085112,60.376999999999995,248.547,0.022000000000000002,-1.1079999999999999,1703155554439999.0,1703155554438799,-0.011042905098292977,-0.009832481853663921,0.010999999999988574,248.547,0.022000000000000002,-1.1079999999999999
191,2754450000,2023-12-21,10:45:54.450,41.22049585,1.73085112,60.376999999999995,248.547,0.019,-1.107,1703155554450000.0,1703155554448770,-0.011042905098292977,-0.009832481853663921,0.010999999999988574,248.547,0.019,-1.107
192,2754460000,2023-12-21,10:45:54.460,41.22049585,1.73085112,60.376999999999995,248.548,0.015,-1.1059999999999999,1703155554460000.0,1703155554458793,-0.011042905098292977,-0.009832481853663921,0.010999999999988574,248.548,0.015,-1.1059999999999999
193,2754470000,2023-12-21,10:45:54.470,41.22049585,1.73085112,60.376999999999995,248.548,0.016,-1.105,1703155554469999.0,1703155554468815,-0.011042905098292977,-0.009832481853663921,0.010999999999988574,248.548,0.016,-1.105
194,2754480000,2023-12-21,10:45:54.480,41.22049585,1.73085112,60.376999999999995,248.548,0.021,-1.1059999999999999,1703155554479999.0,1703155554478787,-0.011042905098292977,-0.009832481853663921,0.010999999999988574,248.548,0.021,-1.1059999999999999
195,2754490000,2023-12-21,10:45:54.490,41.22049585,1.73085112,60.376999999999995,248.548,0.021,-1.1059999999999999,1703155554490000.0,1703155554488788,-0.011042905098292977,-0.009832481853663921,0.010999999999988574,248.548,0.021,-1.1059999999999999
196,2754500000,2023-12-21,10:45:54.500,41.22049585,1.73085112,60.376999999999995,248.548,0.019,-1.1059999999999999,1703155554500000.0,1703155554498805,-0.011042905098292977,-0.009832481853663921,0.010999999999988574,248.548,0.019,-1.1059999999999999
197,2754510000,2023-12-21,10:45:54.510,41.22049585,1.73085112,60.376999999999995,248.548,0.018000000000000002,-1.1059999999999999,1703155554509999.0,1703155554508785,-0.011042905098292977,-0.009832481853663921,0.010999999999988574,248.548,0.018000000000000002,-1.1059999999999999
198,2754520000,2023-12-21,10:45:54.520,41.22049585,1.73085112,60.376999999999995,248.548,0.022000000000000002,-1.1059999999999999,1703155554520000.0,1703155554518946,-0.011042905098292977,-0.009832481853663921,0.010999999999988574,248.548,0.022000000000000002,-1.1059999999999999
199,2754530000,2023-12-21,10:45:54.530,41.22049585,1.73085112,60.376999999999995,248.548,0.023,-1.1059999999999999,1703155554530000.0,1703155554528968,-0.011042905098292977,-0.009832481853663921,0.010999999999988574,248.548,0.023,-1.1059999999999999
200,2754540000,2023-12-21,10:45:54.540,41.22049584,1.73085112,60.376999999999995,248.548,0.019,-1.107,1703155554539999.0,1703155554539021,-0.011059112381190062,-0.010942654684185982,0.010999999999988574,248.548,0.019,-1.107
201,2754550000,2023-12-21,10:45:54.550,41.22049585,1.73085111,60.376000000000005,248.548,0.017,-1.1059999999999999,1703155554549999.0,1703155554548876,-0.01188113889656961,-0.009820244275033474,0.00999999999999801,248.548,0.017,-1.1059999999999999
202,2754560000,2023-12-21,10:45:54.560,41.22049584,1.73085111,60.376000000000005,248.548,0.02,-1.107,1703155554560000.0,1703155554559089,-0.011897346237674356,-0.010930417105555534,0.00999999999999801,248.548,0.02,-1.107
203,2754570000,2023-12-21,10:45:54.570,41.22049584,1.73085112,60.376000000000005,248.548,0.022000000000000002,-1.1079999999999999,1703155554570000.0,1703155554568999,-0.011059112381190062,-0.010942654684185982,0.00999999999999801,248.548,0.022000000000000002,-1.1079999999999999
204,2754580000,2023-12-21,10:45:54.580,41.22049584,1.73085111,60.376000000000005,248.547,0.019,-1.1079999999999999,1703155554579999.0,1703155554578899,-0.011897346237674356,-0.010930417105555534,0.00999999999999801,248.547,0.019,-1.1079999999999999
205,2754590000,2023-12-21,10:45:54.590,41.22049584,1.73085111,60.376000000000005,248.547,0.016,-1.1079999999999999,1703155554590000.0,1703155554588845,-0.011897346237674356,-0.010930417105555534,0.00999999999999801,248.547,0.016,-1.1079999999999999
206,2754600000,2023-12-21,10:45:54.600,41.22049584,1.73085111,60.376000000000005,248.547,0.018000000000000002,-1.107,1703155554600000.0,1703155554598830,-0.011897346237674356,-0.010930417105555534,0.00999999999999801,248.547,0.018000000000000002,-1.107
207,2754610000,2023-12-21,10:45:54.610,41.22049584,1.73085111,60.376000000000005,248.547,0.022000000000000002,-1.1059999999999999,1703155554609999.0,1703155554608933,-0.011897346237674356,-0.010930417105555534,0.00999999999999801,248.547,0.022000000000000002,-1.1059999999999999
208,2754620000,2023-12-21,10:45:54.620,41.22049584,1.73085111,60.376000000000005,248.547,0.022000000000000002,-1.1059999999999999,1703155554619999.0,1703155554618856,-0.011897346237674356,-0.010930417105555534,0.00999999999999801,248.547,0.022000000000000002,-1.1059999999999999
209,2754630000,2023-12-21,10:45:54.630,41.22049584,1.73085111,60.376000000000005,248.547,0.017,-1.105,1703155554630000.0,1703155554628842,-0.011897346237674356,-0.010930417105555534,0.00999999999999801,248.547,0.017,-1.105
210,2754640000,2023-12-21,10:45:54.640,41.22049584,1.73085111,60.376000000000005,248.547,0.015,-1.104,1703155554640000.0,1703155554638838,-0.011897346237674356,-0.010930417105555534,0.00999999999999801,248.547,0.015,-1.104
211,2754650000,2023-12-21,10:45:54.650,41.22049584,1.73085111,60.376000000000005,248.548,0.017,-1.103,1703155554649999.0,1703155554648833,-0.011897346237674356,-0.010930417105555534,0.00999999999999801,248.548,0.017,-1.103
212,2754660000,2023-12-21,10:45:54.660,41.22049584,1.73085111,60.375,248.548,0.019,-1.104,1703155554659999.0,1703155554658969,-0.011897346237674356,-0.010930417105555534,0.008999999999993236,248.548,0.019,-1.104
213,2754670000,2023-12-21,10:45:54.670,41.22049584,1.73085111,60.376000000000005,248.548,0.017,-1.105,1703155554670000.0,1703155554668882,-0.011897346237674356,-0.010930417105555534,0.00999999999999801,248.548,0.017,-1.105
214,2754680000,2023-12-21,10:45:54.680,41.22049584,1.73085111,60.376000000000005,248.548,0.015,-1.105,1703155554679999.0,1703155554678884,-0.011897346237674356,-0.010930417105555534,0.00999999999999801,248.548,0.015,-1.105
215,2754690000,2023-12-21,10:45:54.690,41.22049584,1.73085111,60.376000000000005,248.548,0.019,-1.1059999999999999,1703155554689999.0,1703155554688816,-0.011897346237674356,-0.010930417105555534,0.00999999999999801,248.548,0.019,-1.1059999999999999
216,2754700000,2023-12-21,10:45:54.700,41.22049584,1.73085111,60.376000000000005,248.548,0.022000000000000002,-1.1059999999999999,1703155554700000.0,1703155554698820,-0.011897346237674356,-0.010930417105555534,0.00999999999999801,248.548,0.022000000000000002,-1.1059999999999999
217,2754710000,2023-12-21,10:45:54.710,41.22049584,1.73085111,60.376000000000005,248.548,0.021,-1.107,1703155554710000.0,1703155554708814,-0.011897346237674356,-0.010930417105555534,0.00999999999999801,248.548,0.021,-1.107
218,2754720000,2023-12-21,10:45:54.720,41.22049584,1.73085111,60.376000000000005,248.548,0.018000000000000002,-1.107,1703155554719999.0,1703155554718794,-0.011897346237674356,-0.010930417105555534,0.00999999999999801,248.548,0.018000000000000002,-1.107
219,2754730000,2023-12-21,10:45:54.730,41.22049584,1.7308511,60.376000000000005,248.549,0.019,-1.107,1703155554729999.0,1703155554728815,-0.012735579977743328,-0.010918180458247662,0.00999999999999801,248.549,0.019,-1.107
220,2754740000,2023-12-21,10:45:54.740,41.22049584,1.7308511,60.376000000000005,248.549,0.023,-1.1079999999999999,1703155554740000.0,1703155554738809,-0.012735579977743328,-0.010918180458247662,0.00999999999999801,248.549,0.023,-1.1079999999999999
221,2754750000,2023-12-21,10:45:54.750,41.22049584,1.73085111,60.376000000000005,248.549,0.021,-1.109,1703155554750000.0,1703155554748795,-0.011897346237674356,-0.010930417105555534,0.00999999999999801,248.549,0.021,-1.109
222,2754760000,2023-12-21,10:45:54.760,41.22049584,1.7308511,60.376000000000005,248.549,0.016,-1.11,1703155554759999.0,1703155554758777,-0.012735579977743328,-0.010918180458247662,0.00999999999999801,248.549,0.016,-1.11
223,2754770000,2023-12-21,10:45:54.770,41.22049584,1.7308511,60.376000000000005,248.548,0.015,-1.109,1703155554770000.0,1703155554768734,-0.012735579977743328,-0.010918180458247662,0.00999999999999801,248.548,0.015,-1.109
224,2754780000,2023-12-21,10:45:54.780,41.22049584,1.7308511,60.376000000000005,248.548,0.019,-1.109,1703155554780000.0,1703155554778754,-0.012735579977743328,-0.010918180458247662,0.00999999999999801,248.548,0.019,-1.109
225,2754790000,2023-12-21,10:45:54.790,41.22049584,1.7308511,60.376000000000005,248.547,0.023,-1.109,1703155554789999.0,1703155554788804,-0.012735579977743328,-0.010918180458247662,0.00999999999999801,248.547,0.023,-1.109
226,2754800000,2023-12-21,10:45:54.800,41.22049584,1.7308511,60.376000000000005,248.547,0.022000000000000002,-1.109,1703155554799999.0,1703155554798745,-0.012735579977743328,-0.010918180458247662,0.00999999999999801,248.547,0.022000000000000002,-1.109
227,2754810000,2023-12-21,10:45:54.810,41.22049584,1.7308511,60.376000000000005,248.547,0.02,-1.109,1703155554810000.0,1703155554809039,-0.012735579977743328,-0.010918180458247662,0.00999999999999801,248.547,0.02,-1.109
228,2754820000,2023-12-21,10:45:54.820,41.22049584,1.7308511,60.376000000000005,248.547,0.022000000000000002,-1.1079999999999999,1703155554820000.0,1703155554818896,-0.012735579977743328,-0.010918180458247662,0.00999999999999801,248.547,0.022000000000000002,-1.1079999999999999
229,2754830000,2023-12-21,10:45:54.830,41.22049584,1.7308511,60.376000000000005,248.547,0.025,-1.1079999999999999,1703155554829999.0,1703155554828892,-0.012735579977743328,-0.010918180458247662,0.00999999999999801,248.547,0.025,-1.1079999999999999
230,2754840000,2023-12-21,10:45:54.840,41.22049584,1.7308511,60.376000000000005,248.547,0.023,-1.1079999999999999,1703155554840000.0,1703155554838837,-0.012735579977743328,-0.010918180458247662,0.00999999999999801,248.547,0.023,-1.1079999999999999
231,2754850000,2023-12-21,10:45:54.850,41.22049584,1.7308511,60.376000000000005,248.548,0.017,-1.107,1703155554850000.0,1703155554848819,-0.012735579977743328,-0.010918180458247662,0.00999999999999801,248.548,0.017,-1.107
232,2754860000,2023-12-21,10:45:54.860,41.22049584,1.7308511,60.376000000000005,248.547,0.016,-1.1059999999999999,1703155554859999.0,1703155554858900,-0.012735579977743328,-0.010918180458247662,0.00999999999999801,248.547,0.016,-1.1059999999999999
233,2754870000,2023-12-21,10:45:54.870,41.22049584,1.7308511,60.376000000000005,248.547,0.021,-1.105,1703155554869999.0,1703155554868876,-0.012735579977743328,-0.010918180458247662,0.00999999999999801,248.547,0.021,-1.105
234,2754880000,2023-12-21,10:45:54.880,41.22049584,1.73085109,60.376000000000005,248.547,0.023,-1.1059999999999999,1703155554880000.0,1703155554878826,-0.01357381377601996,-0.01090594194829464,0.00999999999999801,248.547,0.023,-1.1059999999999999
235,2754890000,2023-12-21,10:45:54.890,41.22049584,1.7308511,60.376000000000005,248.547,0.021,-1.1059999999999999,1703155554890000.0,1703155554888821,-0.012735579977743328,-0.010918180458247662,0.00999999999999801,248.547,0.021,-1.1059999999999999
236,2754900000,2023-12-21,10:45:54.900,41.22049584,1.7308511,60.376000000000005,248.547,0.02,-1.1059999999999999,1703155554899999.0,1703155554898846,-0.012735579977743328,-0.010918180458247662,0.00999999999999801,248.547,0.02,-1.1059999999999999
237,2754910000,2023-12-21,10:45:54.910,41.22049584,1.73085109,60.376000000000005,248.548,0.023,-1.105,1703155554909999.0,1703155554908824,-0.01357381377601996,-0.01090594194829464,0.00999999999999801,248.548,0.023,-1.105
238,2754920000,2023-12-21,10:45:54.920,41.22049584,1.73085109,60.376000000000005,248.547,0.026000000000000002,-1.1059999999999999,1703155554920000.0,1703155554918811,-0.01357381377601996,-0.01090594194829464,0.00999999999999801,248.547,0.026000000000000002,-1.1059999999999999
239,2754930000,2023-12-21,10:45:54.930,41.22049584,1.73085109,60.375,248.548,0.023,-1.1059999999999999,1703155554929999.0,1703155554928771,-0.01357381377601996,-0.01090594194829464,0.008999999999993236,248.548,0.023,-1.1059999999999999
240,2754940000,2023-12-21,10:45:54.940,41.22049584,1.73085109,60.375,248.548,0.018000000000000002,-1.1059999999999999,1703155554939999.0,1703155554938800,-0.01357381377601996,-0.01090594194829464,0.008999999999993236,248.548,0.018000000000000002,-1.1059999999999999
241,2754950000,2023-12-21,10:45:54.950,41.22049584,1.73085109,60.375,248.547,0.02,-1.1059999999999999,1703155554950000.0,1703155554948870,-0.01357381377601996,-0.01090594194829464,0.008999999999993236,248.547,0.02,-1.1059999999999999
242,2754960000,2023-12-21,10:45:54.960,41.22049584,1.73085109,60.375,248.547,0.026000000000000002,-1.1059999999999999,1703155554960000.0,1703155554958798,-0.01357381377601996,-0.01090594194829464,0.008999999999993236,248.547,0.026000000000000002,-1.1059999999999999
243,2754970000,2023-12-21,10:45:54.970,41.22049584,1.73085109,60.375,248.547,0.027999999999999997,-1.1059999999999999,1703155554969999.0,1703155554968867,-0.01357381377601996,-0.01090594194829464,0.008999999999993236,248.547,0.027999999999999997,-1.1059999999999999
244,2754980000,2023-12-21,10:45:54.980,41.22049584,1.73085109,60.375,248.546,0.025,-1.1059999999999999,1703155554979999.0,1703155554978805,-0.01357381377601996,-0.01090594194829464,0.008999999999993236,248.546,0.025,-1.1059999999999999
245,2754990000,2023-12-21,10:45:54.990,41.22049584,1.73085109,60.375,248.546,0.022000000000000002,-1.105,1703155554990000.0,1703155554988779,-0.01357381377601996,-0.01090594194829464,0.008999999999993236,248.546,0.022000000000000002,-1.105
246,2755000000,2023-12-21,10:45:55.000,41.22049584,1.73085108,60.375,248.546,0.026000000000000002,-1.105,1703155555000000.0,1703155554998810,-0.014412047574296594,-0.010893704369664192,0.008999999999993236,248.546,0.026000000000000002,-1.105
247,2755010000,2023-12-21,10:45:55.010,41.22049584,1.73085108,60.375,248.545,0.035,-1.1059999999999999,1703155555009999.0,1703155555009931,-0.014412047574296594,-0.010893704369664192,0.008999999999993236,248.545,0.035,-1.1059999999999999
248,2755020000,2023-12-21,10:45:55.020,41.22049584,1.73085108,60.375,248.545,0.040999999999999995,-1.107,1703155555020000.0,1703155555018957,-0.014412047574296594,-0.010893704369664192,0.008999999999993236,248.545,0.040999999999999995,-1.107
249,2755030000,2023-12-21,10:45:55.030,41.22049584,1.73085108,60.373999999999995,248.544,0.039,-1.1059999999999999,1703155555030000.0,1703155555028839,-0.014412047574296594,-0.010893704369664192,0.00799999999998846,248.544,0.039,-1.1059999999999999
250,2755040000,2023-12-21,10:45:55.040,41.22049584,1.73085108,60.373999999999995,248.543,0.035,-1.1059999999999999,1703155555039999.0,1703155555039028,-0.014412047574296594,-0.010893704369664192,0.00799999999998846,248.543,0.035,-1.1059999999999999
251,2755050000,2023-12-21,10:45:55.050,41.22049584,1.73085108,60.373999999999995,248.543,0.035,-1.107,1703155555049999.0,1703155555048950,-0.014412047574296594,-0.010893704369664192,0.00799999999998846,248.543,0.035,-1.107
252,2755060000,2023-12-21,10:45:55.060,41.22049584,1.73085107,60.373999999999995,248.543,0.043,-1.107,1703155555060000.0,1703155555059115,-0.015250281372573227,-0.01088146772235632,0.00799999999998846,248.543,0.043,-1.107
253,2755070000,2023-12-21,10:45:55.070,41.22049584,1.73085107,60.373999999999995,248.543,0.053,-1.1059999999999999,1703155555070000.0,1703155555068883,-0.015250281372573227,-0.01088146772235632,0.00799999999998846,248.543,0.053,-1.1059999999999999
254,2755080000,2023-12-21,10:45:55.080,41.22049583,1.73085107,60.373999999999995,248.543,0.055999999999999994,-1.1059999999999999,1703155555079999.0,1703155555078929,-0.015266488713677973,-0.011991641484200954,0.00799999999998846,248.543,0.055999999999999994,-1.1059999999999999
255,2755090000,2023-12-21,10:45:55.090,41.22049583,1.73085106,60.373999999999995,248.543,0.053,-1.1059999999999999,1703155555090000.0,1703155555088841,-0.016104722511954606,-0.011979405768215656,0.00799999999998846,248.543,0.053,-1.1059999999999999
256,2755100000,2023-12-21,10:45:55.100,41.22049583,1.73085106,60.373000000000005,248.543,0.05,-1.107,1703155555100000.0,1703155555098671,-0.016104722511954606,-0.011979405768215656,0.006999999999997897,248.543,0.05,-1.107
257,2755110000,2023-12-21,10:45:55.110,41.22049583,1.73085105,60.373000000000005,248.543,0.055999999999999994,-1.107,1703155555109999.0,1703155555108720,-0.01694295631023124,-0.011967168189585209,0.006999999999997897,248.543,0.055999999999999994,-1.107
258,2755120000,2023-12-21,10:45:55.120,41.22049583,1.73085105,60.373000000000005,248.542,0.065,-1.1059999999999999,1703155555119999.0,1703155555118944,-0.01694295631023124,-0.011967168189585209,0.006999999999997897,248.542,0.065,-1.1059999999999999
259,2755130000,2023-12-21,10:45:55.130,41.22049583,1.73085104,60.373000000000005,248.542,0.068,-1.1059999999999999,1703155555130000.0,1703155555128841,-0.01778119010850787,-0.011954930610954762,0.006999999999997897,248.542,0.068,-1.1059999999999999
