, Time(), Date, Local Time, Latitude(deg), Longitude(deg), Altitude(m), Heading(deg), Pitch(deg), Roll(deg),TimestampGPS,TimestampHDF,x,y,z,heading,pitch,roll
0,2500590000,2023-12-18,18:41:40.590,41.22081003,1.73101841,60.013000000000005,332.29,0.317,-0.08199999999999999,1702924900590000.0,1702924899591505,0.0,0.0,0.0,332.29,0.317,-0.08199999999999999
1,2500600000,2023-12-18,18:41:40.600,41.22081006,1.73101839,60.012,332.293,0.316,-0.079,1702924900600000.0,1702924899601360,-0.0016278437688015401,0.0033549917861819267,-0.0010000000000047748,332.293,0.316,-0.079
2,2500610000,2023-12-18,18:41:40.610,41.22081009,1.73101837,60.012,332.296,0.318,-0.077,1702924900609999.0,1702924899611432,-0.0032556875376030803,0.006709987297654152,-0.0010000000000047748,332.296,0.318,-0.077
3,2500620000,2023-12-18,18:41:40.620,41.22081012,1.73101835,60.012,332.29900000000004,0.321,-0.073,1702924900619999.0,1702924899621496,-0.00488353130640462,0.010064980015158653,-0.0010000000000047748,332.29900000000004,0.321,-0.073
4,2500630000,2023-12-18,18:41:40.630,41.22081015,1.73101833,60.012,332.301,0.318,-0.07,1702924900630000.0,1702924899631362,-0.0065113750752061605,0.01341997180134058,-0.0010000000000047748,332.301,0.318,-0.07
5,2500640000,2023-12-18,18:41:40.640,41.22081018,1.73101831,60.012,332.301,0.304,-0.067,1702924900640000.0,1702924899641390,-0.008139218902215362,0.016774965450167656,-0.0010000000000047748,332.301,0.304,-0.067
6,2500650000,2023-12-18,18:41:40.650,41.22081021,1.73101829,60.012,332.30300000000005,0.297,-0.063,1702924900649999.0,1702924899651476,-0.009767062671016902,0.020129958167672157,-0.0010000000000047748,332.30300000000005,0.297,-0.063
7,2500660000,2023-12-18,18:41:40.660,41.22081024,1.73101827,60.012,332.30400000000003,0.299,-0.06,1702924900659999.0,1702924899661374,-0.011394906439818442,0.02348495088517666,-0.0010000000000047748,332.30400000000003,0.299,-0.06
8,2500670000,2023-12-18,18:41:40.670,41.22081027,1.73101826,60.012,332.30300000000005,0.305,-0.057999999999999996,1702924900670000.0,1702924899671390,-0.012184520426671952,0.026827708818018436,-0.0010000000000047748,332.30300000000005,0.305,-0.057999999999999996
9,2500680000,2023-12-18,18:41:40.680,41.2208103,1.73101824,60.012,332.30400000000003,0.309,-0.057,1702924900679999.0,1702924899681482,-0.013812364195473492,0.030182702466845512,-0.0010000000000047748,332.30400000000003,0.309,-0.057
10,2500690000,2023-12-18,18:41:40.690,41.22081033,1.73101822,60.012,332.30300000000005,0.304,-0.055999999999999994,1702924900689999.0,1702924899691321,-0.015440207964275032,0.033537695184350014,-0.0010000000000047748,332.30300000000005,0.304,-0.055999999999999994
11,2500700000,2023-12-18,18:41:40.700,41.22081036,1.7310182,60.012,332.301,0.295,-0.055999999999999994,1702924900700000.0,1702924899701375,-0.017068051733076572,0.03689268883317709,-0.0010000000000047748,332.301,0.295,-0.055999999999999994
12,2500710000,2023-12-18,18:41:40.710,41.22081039,1.73101818,60.012,332.3,0.295,-0.055999999999999994,1702924900710000.0,1702924899711449,-0.018695895501878113,0.040247680619359016,-0.0010000000000047748,332.3,0.295,-0.055999999999999994
13,2500720000,2023-12-18,18:41:40.720,41.22081042,1.73101816,60.012,332.29900000000004,0.302,-0.057,1702924900719999.0,1702924899721317,-0.020323739270679653,0.04360267426818609,-0.0010000000000047748,332.29900000000004,0.302,-0.057
14,2500730000,2023-12-18,18:41:40.730,41.22081045,1.73101814,60.012,332.29699999999997,0.312,-0.057999999999999996,1702924900729999.0,1702924899731365,-0.021951583039481193,0.04695766791701317,-0.0010000000000047748,332.29699999999997,0.312,-0.057999999999999996
15,2500740000,2023-12-18,18:41:40.740,41.22081048,1.73101812,60.011,332.296,0.314,-0.059000000000000004,1702924900740000.0,1702924899741450,-0.023579426808282733,0.05031265877187252,-0.0020000000000024443,332.296,0.314,-0.059000000000000004
16,2500750000,2023-12-18,18:41:40.750,41.22081051,1.7310181,60.011,332.29400000000004,0.305,-0.061,1702924900750000.0,1702924899751310,-0.025207270577084273,0.053667654283344746,-0.0020000000000024443,332.29400000000004,0.305,-0.061
17,2500760000,2023-12-18,18:41:40.760,41.22081054,1.73101809,60.011,332.292,0.301,-0.061,1702924900759999.0,1702924899761343,-0.025996884563937783,0.05701041128486395,-0.0020000000000024443,332.292,0.301,-0.061
18,2500770000,2023-12-18,18:41:40.770,41.22081057,1.73101806,60.011,332.292,0.308,-0.061,1702924900770000.0,1702924899771432,-0.028462958056479692,0.06037763971835375,-0.0020000000000024443,332.292,0.308,-0.061
19,2500780000,2023-12-18,18:41:40.780,41.2208106,1.73101804,60.011,332.292,0.32,-0.062,1702924900780000.0,1702924899781522,-0.030090801825281233,0.06373263336718082,-0.0020000000000024443,332.292,0.32,-0.062
20,2500790000,2023-12-18,18:41:40.790,41.22081063,1.73101803,60.012,332.291,0.33,-0.063,1702924900789999.0,1702924899791599,-0.030880415812134743,0.06707539036870003,-0.0010000000000047748,332.291,0.33,-0.063
21,2500800000,2023-12-18,18:41:40.800,41.22081066,1.73101801,60.012,332.291,0.327,-0.064,1702924900799999.0,1702924899801486,-0.03250825958093628,0.07043038308620453,-0.0010000000000047748,332.291,0.327,-0.064
22,2500810000,2023-12-18,18:41:40.810,41.22081069,1.73101798,60.011,332.292,0.318,-0.065,1702924900810000.0,1702924899811546,-0.03497433313168585,0.07379761151969433,-0.0020000000000024443,332.292,0.318,-0.065
23,2500820000,2023-12-18,18:41:40.820,41.22081072,1.73101797,60.012,332.292,0.321,-0.065,1702924900820000.0,1702924899821385,-0.0357639470603317,0.07714037038385868,-0.0010000000000047748,332.292,0.321,-0.065
24,2500830000,2023-12-18,18:41:40.830,41.22081075,1.73101795,60.012,332.29400000000004,0.33299999999999996,-0.066,1702924900829999.0,1702924899831433,-0.03739179082913324,0.08049536403268576,-0.0010000000000047748,332.29400000000004,0.33299999999999996,-0.066
25,2500840000,2023-12-18,18:41:40.840,41.22081079,1.73101792,60.012,332.295,0.342,-0.068,1702924900840000.0,1702924899841349,-0.0398416590760462,0.08497276622802019,-0.0010000000000047748,332.295,0.342,-0.068
26,2500850000,2023-12-18,18:41:40.850,41.22081082,1.73101791,60.012,332.296,0.342,-0.068,1702924900850000.0,1702924899851331,-0.04063127300469205,0.08831552229821682,-0.0010000000000047748,332.296,0.342,-0.068
27,2500860000,2023-12-18,18:41:40.860,41.22081085,1.73101788,60.012,332.298,0.331,-0.069,1702924900859999.0,1702924899861406,-0.04309734661364928,0.09168275259435177,-0.0010000000000047748,332.298,0.331,-0.069
28,2500870000,2023-12-18,18:41:40.870,41.22081088,1.73101786,60.012,332.29900000000004,0.32799999999999996,-0.07,1702924900869999.0,1702924899871306,-0.04472519032424316,0.0950377443805337,-0.0010000000000047748,332.29900000000004,0.32799999999999996,-0.07
29,2500880000,2023-12-18,18:41:40.880,41.22081092,1.73101784,60.012,332.301,0.33899999999999997,-0.071,1702924900880000.0,1702924899881309,-0.046336828789208084,0.09950291272252798,-0.0010000000000047748,332.301,0.33899999999999997,-0.071
30,2500890000,2023-12-18,18:41:40.890,41.22081095,1.73101782,60.012,332.30199999999996,0.348,-0.073,1702924900890000.0,1702924899891377,-0.047964672499801964,0.10285790637135506,-0.0010000000000047748,332.30199999999996,0.348,-0.073
31,2500900000,2023-12-18,18:41:40.900,41.22081098,1.7310178,60.012,332.305,0.35200000000000004,-0.07400000000000001,1702924900899999.0,1702924899901457,-0.049592516268603504,0.10621290002018213,-0.0010000000000047748,332.305,0.35200000000000004,-0.07400000000000001
32,2500910000,2023-12-18,18:41:40.910,41.22081102,1.73101778,60.012,332.306,0.34700000000000003,-0.07400000000000001,1702924900909999.0,1702924899911322,-0.05120415479177609,0.1106780655682087,-0.0010000000000047748,332.306,0.34700000000000003,-0.07400000000000001
33,2500920000,2023-12-18,18:41:40.920,41.22081105,1.73101775,60.012,332.30800000000005,0.341,-0.07400000000000001,1702924900920000.0,1702924899921371,-0.05367022822611034,0.11404529586434364,-0.0010000000000047748,332.30800000000005,0.341,-0.07400000000000001
34,2500930000,2023-12-18,18:41:40.930,41.22081108,1.73101773,60.012,332.309,0.349,-0.07400000000000001,1702924900929999.0,1702924899931477,-0.05529807199491188,0.117400286719203,-0.0010000000000047748,332.309,0.349,-0.07400000000000001
35,2500940000,2023-12-18,18:41:40.940,41.22081112,1.73101771,60.012,332.31,0.358,-0.073,1702924900939999.0,1702924899941312,-0.056909710401669145,0.1218654541298747,-0.0010000000000047748,332.31,0.358,-0.073
36,2500950000,2023-12-18,18:41:40.950,41.22081116,1.73101769,60.012,332.311,0.359,-0.07200000000000001,1702924900950000.0,1702924899951387,-0.05852134886663407,0.12633062154054642,-0.0010000000000047748,332.311,0.359,-0.07200000000000001
37,2500960000,2023-12-18,18:41:40.960,41.22081119,1.73101766,60.012,332.31199999999995,0.358,-0.071,1702924900960000.0,1702924899961436,-0.06098742235917598,0.12969785183668137,-0.0010000000000047748,332.31199999999995,0.358,-0.071
38,2500970000,2023-12-18,18:41:40.970,41.22081123,1.73101764,60.012,332.311,0.353,-0.069,1702924900969999.0,1702924899971302,-0.0625990608241409,0.1341630183160305,-0.0010000000000047748,332.311,0.353,-0.069
39,2500980000,2023-12-18,18:41:40.980,41.22081126,1.73101762,60.012,332.31199999999995,0.35600000000000004,-0.067,1702924900979999.0,1702924899981342,-0.06422690459294245,0.13751801010221243,-0.0010000000000047748,332.31199999999995,0.35600000000000004,-0.067
40,2500990000,2023-12-18,18:41:40.990,41.2208113,1.7310176,60.012,332.31199999999995,0.366,-0.064,1702924900990000.0,1702924899991417,-0.06583854299969971,0.14198317751288414,-0.0010000000000047748,332.31199999999995,0.366,-0.064
41,2501000000,2023-12-18,18:41:41.000,41.22081134,1.73101757,60.012,332.311,0.371,-0.063,1702924901000000.0,1702924900001306,-0.06828841124661267,0.14646057970821857,-0.0010000000000047748,332.311,0.371,-0.063
42,2501010000,2023-12-18,18:41:41.010,41.22081137,1.73101755,60.012,332.311,0.37200000000000005,-0.062,1702924901009999.0,1702924900011333,-0.06991625495720655,0.14981557428836823,-0.0010000000000047748,332.311,0.37200000000000005,-0.062
43,2501020000,2023-12-18,18:41:41.020,41.22081141,1.73101753,60.012,332.311,0.37200000000000005,-0.06,1702924901020000.0,1702924900021445,-0.07152789336396381,0.15428074169903994,-0.0010000000000047748,332.311,0.37200000000000005,-0.06
44,2501030000,2023-12-18,18:41:41.030,41.22081145,1.7310175,60.013000000000005,332.314,0.37,-0.057999999999999996,1702924901030000.0,1702924900031506,-0.07397776161087677,0.1587581429630518,0.0,332.314,0.37,-0.057999999999999996
45,2501040000,2023-12-18,18:41:41.040,41.22081149,1.73101748,60.012,332.314,0.375,-0.057,1702924901039999.0,1702924900042694,-0.07558940001763403,0.16322331130504608,-0.0010000000000047748,332.314,0.375,-0.057
46,2501050000,2023-12-18,18:41:41.050,41.22081152,1.73101745,60.012,332.31300000000005,0.381,-0.055,1702924901049999.0,1702924900051410,-0.07805547345196828,0.1665905388072133,-0.0010000000000047748,332.31300000000005,0.381,-0.055
47,2501060000,2023-12-18,18:41:41.060,41.22081156,1.73101743,60.013000000000005,332.316,0.382,-0.054000000000000006,1702924901060000.0,1702924900061540,-0.07966711191693321,0.17105570621788502,0.0,332.316,0.382,-0.054000000000000006
48,2501070000,2023-12-18,18:41:41.070,41.2208116,1.7310174,60.013000000000005,332.316,0.384,-0.051,1702924901070000.0,1702924900071427,-0.0821169801056385,0.17553310934454203,0.0,332.316,0.384,-0.051
49,2501080000,2023-12-18,18:41:41.080,41.22081164,1.73101738,60.013000000000005,332.31699999999995,0.382,-0.049,1702924901079999.0,1702924900081449,-0.08372861857060343,0.1799982776865363,0.0,332.31699999999995,0.382,-0.049
50,2501090000,2023-12-18,18:41:41.090,41.22081168,1.73101735,60.013000000000005,332.32099999999997,0.382,-0.047,1702924901090000.0,1702924900091548,-0.08617848675930873,0.1844756780192256,0.0,332.32099999999997,0.382,-0.047
51,2501100000,2023-12-18,18:41:41.100,41.22081172,1.73101733,60.013000000000005,332.32300000000004,0.39,-0.044000000000000004,1702924901100000.0,1702924900101374,-0.08779012522427365,0.18894084636121988,0.0,332.32300000000004,0.39,-0.044000000000000004
52,2501110000,2023-12-18,18:41:41.110,41.22081176,1.7310173,60.013000000000005,332.324,0.395,-0.040999999999999995,1702924901109999.0,1702924900111424,-0.09023999335477129,0.19341824855655432,0.0,332.324,0.395,-0.040999999999999995
53,2501120000,2023-12-18,18:41:41.120,41.2208118,1.73101727,60.013999999999996,332.32800000000003,0.396,-0.038,1702924901119999.0,1702924900121468,-0.09268986154347658,0.19789565168321133,0.000999999999990564,332.32800000000003,0.396,-0.038
54,2501130000,2023-12-18,18:41:41.130,41.22081184,1.73101725,60.013999999999996,332.33,0.39399999999999996,-0.035,1702924901130000.0,1702924900131369,-0.09430149995023385,0.2023608209565282,0.000999999999990564,332.33,0.39399999999999996,-0.035
55,2501140000,2023-12-18,18:41:41.140,41.22081188,1.73101722,60.013000000000005,332.332,0.389,-0.033,1702924901140000.0,1702924900141437,-0.09675136813893914,0.20683822222054005,0.0,332.332,0.389,-0.033
56,2501150000,2023-12-18,18:41:41.150,41.22081192,1.73101719,60.013999999999996,332.337,0.389,-0.028999999999999998,1702924901149999.0,1702924900151467,-0.09920123632764444,0.21131562441587448,0.000999999999990564,332.337,0.389,-0.028999999999999998
57,2501160000,2023-12-18,18:41:41.160,41.22081197,1.73101716,60.013999999999996,332.341,0.39299999999999996,-0.026000000000000002,1702924901159999.0,1702924900161563,-0.10163489921251312,0.21690320130437613,0.000999999999990564,332.341,0.39299999999999996,-0.026000000000000002
58,2501170000,2023-12-18,18:41:41.170,41.22081201,1.73101714,60.013999999999996,332.344,0.391,-0.024,1702924901170000.0,1702924900171382,-0.10324653761927038,0.2213683696463704,0.000999999999990564,332.344,0.391,-0.024
59,2501180000,2023-12-18,18:41:41.180,41.22081205,1.73101711,60.013999999999996,332.349,0.389,-0.023,1702924901179999.0,1702924900181484,-0.10569640580797568,0.22584577091038227,0.000999999999990564,332.349,0.389,-0.023
60,2501190000,2023-12-18,18:41:41.190,41.2208121,1.73101708,60.013999999999996,332.352,0.386,-0.023,1702924901189999.0,1702924900191373,-0.10813006869284436,0.23143334779888391,0.000999999999990564,332.352,0.386,-0.023
61,2501200000,2023-12-18,18:41:41.200,41.22081214,1.73101705,60.013999999999996,332.355,0.384,-0.025,1702924901200000.0,1702924900201403,-0.11057993676513433,0.23591075092554092,0.000999999999990564,332.355,0.384,-0.025
62,2501210000,2023-12-18,18:41:41.210,41.22081218,1.73101702,60.015,332.36,0.389,-0.026000000000000002,1702924901210000.0,1702924900211485,-0.11302980495383963,0.24038815405219793,0.001999999999995339,332.36,0.389,-0.026000000000000002
63,2501220000,2023-12-18,18:41:41.220,41.22081223,1.73101699,60.015,332.36300000000006,0.392,-0.026000000000000002,1702924901219999.0,1702924900221356,-0.11546346783870831,0.24597572907805443,0.001999999999995339,332.36300000000006,0.392,-0.026000000000000002
64,2501230000,2023-12-18,18:41:41.230,41.22081227,1.73101697,60.013999999999996,332.365,0.39,-0.027999999999999997,1702924901229999.0,1702924900231388,-0.11707510624546558,0.2504408974200487,0.000999999999990564,332.365,0.39,-0.027999999999999997
65,2501240000,2023-12-18,18:41:41.240,41.22081232,1.73101694,60.015,332.369,0.387,-0.027000000000000003,1702924901240000.0,1702924900241474,-0.11950876913033426,0.25602847430855036,0.001999999999995339,332.369,0.387,-0.027000000000000003
66,2501250000,2023-12-18,18:41:41.250,41.22081236,1.73101691,60.015,332.371,0.382,-0.026000000000000002,1702924901250000.0,1702924900251560,-0.12195863720262423,0.2605058755725622,0.001999999999995339,332.371,0.382,-0.026000000000000002
67,2500260000,2023-12-18,18:41:40.260,41.22081241,1.73101688,60.015,332.37199999999996,0.381,-0.025,1702924900259999.0,1702924900261463,-0.12439230002928525,0.266093454323709,0.001999999999995339,332.37199999999996,0.381,-0.025
68,2500270000,2023-12-18,18:41:40.270,41.22081245,1.73101685,60.015,332.375,0.385,-0.023,1702924900270000.0,1702924900271484,-0.12684216821799055,0.27057085651904345,0.001999999999995339,332.375,0.385,-0.023
69,2500280000,2023-12-18,18:41:40.280,41.2208125,1.73101682,60.015,332.376,0.385,-0.021,1702924900280000.0,1702924900281539,-0.12927583110285923,0.2761584324762225,0.001999999999995339,332.376,0.385,-0.021
70,2500290000,2023-12-18,18:41:40.290,41.22081255,1.73101679,60.015,332.376,0.386,-0.019,1702924900289999.0,1702924900291373,-0.13170949392952025,0.28174600936472416,0.001999999999995339,332.376,0.386,-0.019
71,2500300000,2023-12-18,18:41:40.300,41.2208126,1.73101676,60.016000000000005,332.37800000000004,0.386,-0.018000000000000002,1702924900299999.0,1702924900301494,-0.13414315675618127,0.2873335862532258,0.0030000000000001137,332.37800000000004,0.386,-0.018000000000000002
72,2500310000,2023-12-18,18:41:40.310,41.22081265,1.73101672,60.016000000000005,332.379,0.384,-0.017,1702924900310000.0,1702924900311342,-0.13741504930658266,0.29293339885771275,0.0030000000000001137,332.379,0.384,-0.017
73,2500320000,2023-12-18,18:41:40.320,41.22081269,1.73101669,60.016000000000005,332.37800000000004,0.385,-0.017,1702924900320000.0,1702924900321402,-0.13986491749528795,0.29741080198436975,0.0030000000000001137,332.37800000000004,0.385,-0.017
74,2500330000,2023-12-18,18:41:40.330,41.22081274,1.73101666,60.016999999999996,332.38199999999995,0.384,-0.017,1702924900329999.0,1702924900331453,-0.14229858026374131,0.3029983779415488,0.003999999999990678,332.38199999999995,0.384,-0.017
75,2500340000,2023-12-18,18:41:40.340,41.22081279,1.73101663,60.016999999999996,332.38199999999995,0.38299999999999995,-0.02,1702924900340000.0,1702924900341605,-0.14473224309040233,0.30858595483005047,0.003999999999990678,332.38199999999995,0.38299999999999995,-0.02
76,2500350000,2023-12-18,18:41:40.350,41.22081284,1.7310166,60.016999999999996,332.38300000000004,0.384,-0.024,1702924900350000.0,1702924900351642,-0.14716590591706336,0.3141735317185521,0.003999999999990678,332.38300000000004,0.384,-0.024
77,2500360000,2023-12-18,18:41:40.360,41.22081289,1.73101656,60.018,332.38599999999997,0.38,-0.027999999999999997,1702924900359999.0,1702924900361451,-0.1504377985256724,0.3197733433917165,0.0049999999999954525,332.38599999999997,0.38,-0.027999999999999997
78,2500370000,2023-12-18,18:41:40.370,41.22081294,1.73101653,60.016999999999996,332.38800000000003,0.376,-0.033,1702924900369999.0,1702924900371523,-0.15287146129412577,0.3253609202802181,0.003999999999990678,332.38800000000003,0.376,-0.033
79,2500380000,2023-12-18,18:41:40.380,41.22081299,1.7310165,60.016999999999996,332.39099999999996,0.373,-0.038,1702924900380000.0,1702924900381343,-0.15530512412078679,0.33094849716871977,0.003999999999990678,332.39099999999996,0.373,-0.038
80,2500390000,2023-12-18,18:41:40.390,41.22081304,1.73101646,60.018,332.39599999999996,0.37200000000000005,-0.044000000000000004,1702924900390000.0,1702924900391419,-0.15857701667118818,0.3365483107045293,0.0049999999999954525,332.39599999999996,0.37200000000000005,-0.044000000000000004
81,2500400000,2023-12-18,18:41:40.400,41.22081309,1.73101643,60.018,332.398,0.377,-0.049,1702924900399999.0,1702924900401504,-0.1610106794978492,0.3421358857303858,0.0049999999999954525,332.398,0.377,-0.049
82,2500410000,2023-12-18,18:41:40.410,41.22081314,1.73101639,60.018,332.401,0.381,-0.053,1702924900409999.0,1702924900411409,-0.16428257204825059,0.34773569740355015,0.0049999999999954525,332.401,0.381,-0.053
83,2500420000,2023-12-18,18:41:40.420,41.22081319,1.73101636,60.019,332.406,0.377,-0.057999999999999996,1702924900420000.0,1702924900421424,-0.16671623481670395,0.35332327615469694,0.005999999999993122,332.406,0.377,-0.057999999999999996
84,2500430000,2023-12-18,18:41:40.430,41.22081325,1.73101632,60.019,332.41,0.373,-0.06,1702924900429999.0,1702924900431501,-0.16997192200506106,0.3600332625210285,0.005999999999993122,332.41,0.373,-0.06
85,2500440000,2023-12-18,18:41:40.440,41.2208133,1.73101629,60.019,332.413,0.37,-0.061,1702924900439999.0,1702924900441344,-0.17240558483172208,0.36562083940953016,0.005999999999993122,332.413,0.37,-0.061
86,2500450000,2023-12-18,18:41:40.450,41.22081335,1.73101625,60.02,332.41900000000004,0.371,-0.063,1702924900450000.0,1702924900451443,-0.1756774773239158,0.37122065108269453,0.006999999999997897,332.41900000000004,0.371,-0.063
87,2500460000,2023-12-18,18:41:40.460,41.2208134,1.73101621,60.02,332.423,0.375,-0.063,1702924900460000.0,1702924900461346,-0.1789493698743172,0.3768204636871815,0.006999999999997897,332.423,0.375,-0.063
88,2500470000,2023-12-18,18:41:40.470,41.22081345,1.73101618,60.021,332.42800000000005,0.373,-0.063,1702924900469999.0,1702924900471353,-0.18138303264277056,0.3824080415070057,0.007999999999995566,332.42800000000005,0.373,-0.063
89,2500480000,2023-12-18,18:41:40.480,41.22081351,1.73101614,60.022,332.43300000000005,0.369,-0.064,1702924900479999.0,1702924900481445,-0.18463871988933533,0.3891180260106921,0.008999999999993236,332.43300000000005,0.369,-0.064
90,2500490000,2023-12-18,18:41:40.490,41.22081356,1.7310161,60.022,332.436,0.368,-0.064,1702924900490000.0,1702924900491344,-0.18791061238152906,0.39471783954650164,0.008999999999993236,332.436,0.368,-0.064
91,2500500000,2023-12-18,18:41:40.500,41.22081361,1.73101607,60.022,332.44,0.369,-0.066,1702924900500000.0,1702924900501345,-0.19034427514998242,0.4003054164350033,0.008999999999993236,332.44,0.369,-0.066
92,2500510000,2023-12-18,18:41:40.510,41.22081367,1.73101603,60.023,332.444,0.37200000000000005,-0.069,1702924900509999.0,1702924900511419,-0.19359996233833954,0.40701540000736713,0.00999999999999801,332.444,0.37200000000000005,-0.069
93,2500520000,2023-12-18,18:41:40.520,41.22081372,1.73101599,60.023,332.44699999999995,0.37,-0.073,1702924900520000.0,1702924900521595,-0.19687185483053327,0.4126152144744992,0.00999999999999801,332.44699999999995,0.37,-0.073
94,2500530000,2023-12-18,18:41:40.530,41.22081377,1.73101596,60.023,332.44800000000004,0.365,-0.078,1702924900530000.0,1702924900531616,-0.19930551754077896,0.41820279136300087,0.00999999999999801,332.44800000000004,0.365,-0.078
95,2500540000,2023-12-18,18:41:40.540,41.22081383,1.73101591,60.023999999999994,332.45,0.36200000000000004,-0.084,1702924900539999.0,1702924900541447,-0.20339943445287645,0.42492501344531775,0.010999999999988574,332.45,0.36200000000000004,-0.084
96,2500550000,2023-12-18,18:41:40.550,41.22081388,1.73101588,60.023999999999994,332.45099999999996,0.36,-0.09,1702924900549999.0,1702924900551577,-0.2058330972213298,0.4305125903338194,0.010999999999988574,332.45099999999996,0.36,-0.09
97,2500560000,2023-12-18,18:41:40.560,41.22081393,1.73101584,60.023999999999994,332.45099999999996,0.35600000000000004,-0.09699999999999999,1702924900560000.0,1702924900561624,-0.20910498971352354,0.43611240293830633,0.010999999999988574,332.45099999999996,0.35600000000000004,-0.09699999999999999
98,2500570000,2023-12-18,18:41:40.570,41.22081399,1.7310158,60.025,332.452,0.35200000000000004,-0.10400000000000001,1702924900570000.0,1702924900571467,-0.212360676843673,0.4428223893046379,0.01199999999999335,332.452,0.35200000000000004,-0.10400000000000001
99,2500580000,2023-12-18,18:41:40.580,41.22081404,1.73101576,60.025,332.45300000000003,0.35100000000000003,-0.10800000000000001,1702924900579999.0,1702924900581541,-0.21563256927765906,0.44842220190912485,0.01199999999999335,332.45300000000003,0.35100000000000003,-0.10800000000000001
100,2500590000,2023-12-18,18:41:40.590,41.2208141,1.73101572,60.025,332.45300000000003,0.35600000000000004,-0.11,1702924900590000.0,1702924900591438,-0.21888825646601617,0.45513218734413385,0.01199999999999335,332.45300000000003,0.35600000000000004,-0.11
101,2500600000,2023-12-18,18:41:40.600,41.22081415,1.73101568,60.027,332.455,0.35700000000000004,-0.11199999999999999,1702924900600000.0,1702924900601444,-0.22216014884179458,0.4607319999486208,0.013999999999995794,332.455,0.35700000000000004,-0.11199999999999999
102,2500610000,2023-12-18,18:41:40.610,41.22081421,1.73101564,60.027,332.45599999999996,0.35200000000000004,-0.113,1702924900609999.0,1702924900611528,-0.2254158360301517,0.46744198724627495,0.013999999999995794,332.45599999999996,0.35200000000000004,-0.113
103,2500620000,2023-12-18,18:41:40.620,41.22081427,1.73101561,60.027,332.457,0.34700000000000003,-0.11199999999999999,1702924900619999.0,1702924900621350,-0.22783329343656078,0.47413973696529865,0.013999999999995794,332.457,0.34700000000000003,-0.11199999999999999
104,2500630000,2023-12-18,18:41:40.630,41.22081432,1.73101556,60.028,332.46,0.34700000000000003,-0.111,1702924900630000.0,1702924900631442,-0.23194341553607956,0.47975178621709347,0.014999999999993463,332.46,0.34700000000000003,-0.111
105,2500640000,2023-12-18,18:41:40.640,41.22081438,1.73101553,60.028,332.463,0.35100000000000003,-0.11,1702924900640000.0,1702924900641352,-0.23436087294248864,0.48644953593611717,0.014999999999993463,332.463,0.35100000000000003,-0.11
106,2500650000,2023-12-18,18:41:40.650,41.22081444,1.73101549,60.028,332.466,0.34700000000000003,-0.106,1702924900649999.0,1702924900651367,-0.2376165600726381,0.4931595232337713,0.014999999999993463,332.466,0.34700000000000003,-0.106
107,2500660000,2023-12-18,18:41:40.660,41.2208145,1.73101545,60.028999999999996,332.47,0.336,-0.10400000000000001,1702924900659999.0,1702924900661445,-0.24087224720278755,0.4998695096001029,0.015999999999991132,332.47,0.336,-0.10400000000000001
108,2500670000,2023-12-18,18:41:40.670,41.22081455,1.73101541,60.028999999999996,332.473,0.32799999999999996,-0.10099999999999999,1702924900670000.0,1702924900671340,-0.24414413957856596,0.5054693222045898,0.015999999999991132,332.473,0.32799999999999996,-0.10099999999999999
109,2500680000,2023-12-18,18:41:40.680,41.22081461,1.73101537,60.03,332.477,0.32799999999999996,-0.099,1702924900679999.0,1702924900681373,-0.2473998267087154,0.5121793076395988,0.016999999999995907,332.477,0.32799999999999996,-0.099
110,2500690000,2023-12-18,18:41:40.690,41.22081467,1.73101532,60.031000000000006,332.48400000000004,0.336,-0.098,1702924900689999.0,1702924900691458,-0.25149374350439757,0.5189015297219157,0.018000000000000682,332.48400000000004,0.336,-0.098
111,2500700000,2023-12-18,18:41:40.700,41.22081473,1.73101528,60.031000000000006,332.48800000000006,0.33899999999999997,-0.095,1702924900700000.0,1702924900701333,-0.25474943057633936,0.5256115170195699,0.018000000000000682,332.48800000000006,0.33899999999999997,-0.095
112,2500710000,2023-12-18,18:41:40.710,41.22081479,1.73101524,60.031000000000006,332.49300000000005,0.33,-0.095,1702924900710000.0,1702924900711370,-0.25800511764828116,0.5323215024545789,0.018000000000000682,332.49300000000005,0.33,-0.095
113,2500720000,2023-12-18,18:41:40.720,41.22081485,1.7310152,60.032,332.49800000000005,0.321,-0.09300000000000001,1702924900719999.0,1702924900721458,-0.26126080472022295,0.5390314888209105,0.018999999999991246,332.49800000000005,0.321,-0.09300000000000001
114,2500730000,2023-12-18,18:41:40.730,41.22081491,1.73101516,60.032,332.50300000000004,0.317,-0.09,1702924900729999.0,1702924900731342,-0.26451649179216474,0.545741475187242,0.018999999999991246,332.50300000000004,0.317,-0.09
115,2500740000,2023-12-18,18:41:40.740,41.22081497,1.73101512,60.032,332.50699999999995,0.32299999999999995,-0.08900000000000001,1702924900740000.0,1702924900741371,-0.26777217886410654,0.5524514615535736,0.018999999999991246,332.50699999999995,0.32299999999999995,-0.08900000000000001
116,2500750000,2023-12-18,18:41:40.750,41.22081503,1.73101508,60.033,332.51099999999997,0.327,-0.087,1702924900750000.0,1702924900751454,-0.27102786593604833,0.5591614479199052,0.01999999999999602,332.51099999999997,0.327,-0.087
117,2500760000,2023-12-18,18:41:40.760,41.22081509,1.73101503,60.033,332.515,0.319,-0.086,1702924900759999.0,1702924900761280,-0.27512178267352283,0.5658836700022221,0.01999999999999602,332.515,0.319,-0.086
118,2500770000,2023-12-18,18:41:40.770,41.22081515,1.731015,60.033,332.519,0.31,-0.084,1702924900770000.0,1702924900771365,-0.27753924002172425,0.5725814206525683,0.01999999999999602,332.519,0.31,-0.084
119,2500780000,2023-12-18,18:41:40.780,41.22081521,1.73101495,60.035,332.522,0.309,-0.08199999999999999,1702924900780000.0,1702924900781467,-0.28163315675919876,0.5793036436662078,0.02199999999999136,332.522,0.309,-0.08199999999999999
120,2500790000,2023-12-18,18:41:40.790,41.22081528,1.7310149,60.035,332.526,0.316,-0.08199999999999999,1702924900789999.0,1702924900791556,-0.28571086819283664,0.5871360385790467,0.02199999999999136,332.526,0.316,-0.08199999999999999
121,2500800000,2023-12-18,18:41:40.800,41.22081534,1.73101487,60.035,332.53,0.325,-0.079,1702924900799999.0,1702924900801394,-0.2881283254828304,0.593833789229393,0.02199999999999136,332.53,0.325,-0.079
122,2500810000,2023-12-18,18:41:40.810,41.2208154,1.73101482,60.036,332.534,0.324,-0.078,1702924900810000.0,1702924900811277,-0.29222224227851257,0.6005560122430325,0.022999999999996135,332.534,0.324,-0.078
123,2500820000,2023-12-18,18:41:40.820,41.22081547,1.73101477,60.036,332.538,0.317,-0.078,1702924900820000.0,1702924900821585,-0.2962999536539428,0.6083884071558714,0.022999999999996135,332.538,0.317,-0.078
124,2500830000,2023-12-18,18:41:40.830,41.22081553,1.73101473,60.036,332.541,0.315,-0.073,1702924900829999.0,1702924900831439,-0.29955564060946926,0.6150983944535255,0.022999999999996135,332.541,0.315,-0.073
125,2500840000,2023-12-18,18:41:40.840,41.22081559,1.73101468,60.038000000000004,332.546,0.317,-0.07200000000000001,1702924900840000.0,1702924900841475,-0.30364955734694377,0.6218206165358424,0.02499999999999858,332.546,0.317,-0.07200000000000001
126,2500850000,2023-12-18,18:41:40.850,41.22081566,1.73101464,60.038000000000004,332.551,0.32299999999999995,-0.07,1702924900850000.0,1702924900851536,-0.3068890390568413,0.6296407775953412,0.02499999999999858,332.551,0.32299999999999995,-0.07
127,2500860000,2023-12-18,18:41:40.860,41.22081572,1.7310146,60.038000000000004,332.556,0.32299999999999995,-0.065,1702924900859999.0,1702924900861366,-0.31014472601236776,0.6363507630303502,0.02499999999999858,332.556,0.32299999999999995,-0.065
128,2500870000,2023-12-18,18:41:40.870,41.22081578,1.73101455,60.038999999999994,332.56300000000005,0.316,-0.063,1702924900869999.0,1702924900871453,-0.3142386426916346,0.6430729851126671,0.025999999999989143,332.56300000000005,0.316,-0.063
129,2500880000,2023-12-18,18:41:40.880,41.22081585,1.73101451,60.038999999999994,332.56800000000004,0.314,-0.059000000000000004,1702924900880000.0,1702924900881339,-0.31747812434332445,0.6508931461721659,0.025999999999989143,332.56800000000004,0.314,-0.059000000000000004
130,2500890000,2023-12-18,18:41:40.890,41.22081591,1.73101446,60.038999999999994,332.574,0.314,-0.057,1702924900890000.0,1702924900891357,-0.3215720410225913,0.6576153673231602,0.025999999999989143,332.574,0.314,-0.057
131,2500900000,2023-12-18,18:41:40.900,41.22081597,1.73101441,60.041000000000004,332.58099999999996,0.322,-0.057,1702924900899999.0,1702924900901424,-0.32566595770185813,0.664337589405477,0.027999999999998693,332.58099999999996,0.322,-0.057
132,2500910000,2023-12-18,18:41:40.910,41.22081604,1.73101437,60.041000000000004,332.586,0.32899999999999996,-0.055,1702924900909999.0,1702924900911503,-0.32890543929534033,0.6721577513962984,0.027999999999998693,332.586,0.32899999999999996,-0.055
133,2500920000,2023-12-18,18:41:40.920,41.22081611,1.73101432,60.041000000000004,332.592,0.33,-0.055999999999999994,1702924900920000.0,1702924900921329,-0.3329831506125629,0.6799901463091373,0.027999999999998693,332.592,0.33,-0.055999999999999994
134,2500930000,2023-12-18,18:41:40.930,41.22081617,1.73101427,60.042,332.598,0.331,-0.057,1702924900929999.0,1702924900931402,-0.33707706729182974,0.6867123683914542,0.028999999999996362,332.598,0.331,-0.057
135,2500940000,2023-12-18,18:41:40.940,41.22081624,1.73101423,60.043,332.603,0.331,-0.057,1702924900939999.0,1702924900941520,-0.34031654888531193,0.6945325285196304,0.02999999999999403,332.603,0.331,-0.057
136,2500950000,2023-12-18,18:41:40.950,41.2208163,1.73101418,60.043,332.60900000000004,0.336,-0.061,1702924900950000.0,1702924900951328,-0.3444104655063711,0.7012547506019473,0.02999999999999403,332.60900000000004,0.336,-0.061
137,2500960000,2023-12-18,18:41:40.960,41.22081637,1.73101413,60.044,332.615,0.344,-0.062,1702924900960000.0,1702924900961416,-0.3484881768235937,0.7090871473774314,0.0309999999999917,332.615,0.344,-0.062
138,2500970000,2023-12-18,18:41:40.970,41.22081643,1.73101408,60.044,332.621,0.345,-0.064,1702924900969999.0,1702924900971489,-0.3525820933864452,0.7158093694597483,0.0309999999999917,332.621,0.345,-0.064
139,2500980000,2023-12-18,18:41:40.980,41.2208165,1.73101404,60.044,332.62800000000004,0.34600000000000003,-0.068,1702924900979999.0,1702924900981321,-0.35582157503813505,0.7236295295879245,0.0309999999999917,332.62800000000004,0.34600000000000003,-0.068
140,2500990000,2023-12-18,18:41:40.990,41.22081657,1.73101398,60.04600000000001,332.63300000000004,0.348,-0.073,1702924900990000.0,1702924900991393,-0.36073751596268266,0.7314741602167487,0.03300000000000125,332.63300000000004,0.348,-0.073
141,2501000000,2023-12-18,18:41:41.000,41.22081663,1.73101394,60.04600000000001,332.64,0.354,-0.077,1702924901000000.0,1702924901001472,-0.3639932028600015,0.7381841475144029,0.03300000000000125,332.64,0.354,-0.077
142,2501010000,2023-12-18,18:41:41.010,41.2208167,1.73101389,60.04600000000001,332.64599999999996,0.364,-0.079,1702924901009999.0,1702924901011305,-0.3680709140608087,0.7460165424272418,0.03300000000000125,332.64599999999996,0.364,-0.079
143,2501020000,2023-12-18,18:41:41.020,41.22081677,1.73101384,60.047,332.653,0.368,-0.08,1702924901020000.0,1702924901021633,-0.3721486253198236,0.753848941065371,0.033999999999991815,332.653,0.368,-0.08
144,2501030000,2023-12-18,18:41:41.030,41.22081684,1.73101379,60.047,332.66,0.368,-0.084,1702924901030000.0,1702924901031488,-0.3762263365788385,0.7616813350468874,0.033999999999991815,332.66,0.368,-0.084
145,2501040000,2023-12-18,18:41:41.040,41.22081691,1.73101374,60.047,332.665,0.37,-0.083,1702924901039999.0,1702924901042826,-0.38030404777964577,0.7695137318223715,0.033999999999991815,332.665,0.37,-0.083
146,2501050000,2023-12-18,18:41:41.050,41.22081697,1.73101369,60.049,332.671,0.374,-0.085,1702924901049999.0,1702924901051421,-0.38439796440070495,0.7762359548360109,0.03599999999999426,332.671,0.374,-0.085
147,2501060000,2023-12-18,18:41:41.060,41.22081704,1.73101364,60.049,332.67699999999996,0.382,-0.086,1702924901060000.0,1702924901061705,-0.38847567554330453,0.7840683506801724,0.03599999999999426,332.67699999999996,0.382,-0.086
148,2501070000,2023-12-18,18:41:41.070,41.22081711,1.73101359,60.049,332.68199999999996,0.386,-0.087,1702924901070000.0,1702924901071775,-0.3925533867441118,0.7919007474556565,0.03599999999999426,332.68199999999996,0.386,-0.087
149,2501080000,2023-12-18,18:41:41.080,41.22081718,1.73101354,60.051,332.68800000000005,0.38799999999999996,-0.09300000000000001,1702924901079999.0,1702924901081415,-0.396631097944919,0.7997331423684955,0.0379999999999967,332.68800000000005,0.38799999999999996,-0.09300000000000001
150,2501090000,2023-12-18,18:41:41.090,41.22081725,1.73101349,60.051,332.69300000000004,0.392,-0.095,1702924901090000.0,1702924901091540,-0.4007088090875186,0.8075655391439795,0.0379999999999967,332.69300000000004,0.392,-0.095
151,2501100000,2023-12-18,18:41:41.100,41.22081732,1.73101344,60.051,332.69699999999995,0.39399999999999996,-0.1,1702924901100000.0,1702924901101526,-0.40478652028832585,0.8153979349881411,0.0379999999999967,332.69699999999995,0.39399999999999996,-0.1
152,2501110000,2023-12-18,18:41:41.110,41.22081739,1.73101338,60.053000000000004,332.70300000000003,0.401,-0.106,1702924901109999.0,1702924901111610,-0.40970246121287346,0.8232425665482879,0.03999999999999915,332.70300000000003,0.401,-0.106
153,2501120000,2023-12-18,18:41:41.120,41.22081746,1.73101333,60.053000000000004,332.70599999999996,0.40700000000000003,-0.109,1702924901119999.0,1702924901121465,-0.4137801722972654,0.831074963323772,0.03999999999999915,332.70599999999996,0.40700000000000003,-0.109
154,2501130000,2023-12-18,18:41:41.130,41.22081753,1.73101328,60.053000000000004,332.711,0.41100000000000003,-0.115,1702924901130000.0,1702924901131514,-0.41785788343986496,0.8389073591679335,0.03999999999999915,332.711,0.41100000000000003,-0.115
155,2501140000,2023-12-18,18:41:41.140,41.2208176,1.73101322,60.053999999999995,332.715,0.42,-0.11900000000000001,1702924901140000.0,1702924901141387,-0.42277382424799725,0.8467519897967577,0.04099999999998971,332.715,0.42,-0.11900000000000001
156,2501150000,2023-12-18,18:41:41.150,41.22081767,1.73101317,60.053999999999995,332.718,0.42,-0.12300000000000001,1702924901149999.0,1702924901151422,-0.4268515353323892,0.8545843875035644,0.04099999999998971,332.718,0.42,-0.12300000000000001
157,2501160000,2023-12-18,18:41:41.160,41.22081775,1.73101312,60.053999999999995,332.722,0.42,-0.13,1702924901159999.0,1702924901161513,-0.43091304117115214,0.8635269571095705,0.04099999999998971,332.722,0.42,-0.13
158,2501170000,2023-12-18,18:41:41.170,41.22081782,1.73101307,60.056000000000004,332.725,0.425,-0.132,1702924901170000.0,1702924901171379,-0.43499075225554407,0.871359352953732,0.04299999999999926,332.725,0.425,-0.132
159,2501180000,2023-12-18,18:41:41.180,41.22081789,1.73101302,60.056000000000004,332.73,0.431,-0.138,1702924901179999.0,1702924901181410,-0.439068463339936,0.8791917487978935,0.04299999999999926,332.73,0.431,-0.138
160,2501190000,2023-12-18,18:41:41.190,41.22081797,1.73101297,60.056000000000004,332.733,0.44299999999999995,-0.141,1702924901189999.0,1702924901191501,-0.4431299691204913,0.8881343193352222,0.04299999999999926,332.733,0.44299999999999995,-0.141
161,2501200000,2023-12-18,18:41:41.200,41.22081804,1.73101291,60.056999999999995,332.73800000000006,0.451,-0.145,1702924901200000.0,1702924901201352,-0.4480459098704159,0.895978950895369,0.043999999999989825,332.73800000000006,0.451,-0.145
162,2501210000,2023-12-18,18:41:41.210,41.22081811,1.73101286,60.056999999999995,332.744,0.45299999999999996,-0.15,1702924901210000.0,1702924901211403,-0.45212362095480785,0.9038113476708531,0.043999999999989825,332.744,0.45299999999999996,-0.15
163,2501220000,2023-12-18,18:41:41.220,41.22081819,1.73101281,60.056999999999995,332.749,0.456,-0.149,1702924901219999.0,1702924901221498,-0.4561851266771555,0.9127539172768593,0.043999999999989825,332.749,0.456,-0.149
164,2501230000,2023-12-18,18:41:41.230,41.22081826,1.73101276,60.058,332.756,0.457,-0.151,1702924901229999.0,1702924901231340,-0.46026283770333976,0.9205863149836659,0.0449999999999946,332.756,0.457,-0.151
165,2501240000,2023-12-18,18:41:41.240,41.22081834,1.73101271,60.058,332.76199999999994,0.465,-0.151,1702924901240000.0,1702924901241391,-0.4643243434256874,0.9295288836583495,0.0449999999999946,332.76199999999994,0.465,-0.151
166,2501250000,2023-12-18,18:41:41.250,41.22081842,1.73101265,60.058,332.76800000000003,0.47200000000000003,-0.147,1702924901250000.0,1702924901251463,-0.46922407881356776,0.9384836899116635,0.0449999999999946,332.76800000000003,0.47200000000000003,-0.147
167,2501260000,2023-12-18,18:41:41.260,41.22081849,1.7310126,60.059,332.776,0.475,-0.14800000000000002,1702924901259999.0,1702924901261545,-0.473301789839752,0.9463160848245025,0.04599999999999227,332.776,0.475,-0.14800000000000002
168,2501270000,2023-12-18,18:41:41.270,41.22081857,1.73101255,60.059,332.782,0.47600000000000003,-0.14400000000000002,1702924901270000.0,1702924901271385,-0.47736329544568434,0.9552586553618312,0.04599999999999227,332.782,0.47600000000000003,-0.14400000000000002
169,2501280000,2023-12-18,18:41:41.280,41.22081865,1.73101249,60.06,332.79,0.47100000000000003,-0.142,1702924901280000.0,1702924901281469,-0.4822630308335647,0.9642134625464678,0.046999999999997044,332.79,0.47100000000000003,-0.142
170,2501290000,2023-12-18,18:41:41.290,41.22081873,1.73101245,60.06100000000001,332.798,0.47200000000000003,-0.14300000000000002,1702924901289999.0,1702924901291548,-0.485486306832172,0.9731437964364886,0.04800000000000182,332.798,0.47200000000000003,-0.14300000000000002
171,2501300000,2023-12-18,18:41:41.300,41.22081881,1.73101239,60.06100000000001,332.80400000000003,0.479,-0.141,1702924901299999.0,1702924901301638,-0.490386042103637,0.9820986017584801,0.04800000000000182,332.80400000000003,0.479,-0.141
172,2501310000,2023-12-18,18:41:41.310,41.22081889,1.73101234,60.06100000000001,332.81300000000005,0.485,-0.14300000000000002,1702924901310000.0,1702924901311473,-0.494447547767777,0.9910411713644862,0.04800000000000182,332.81300000000005,0.485,-0.14300000000000002
173,2501320000,2023-12-18,18:41:41.320,41.22081897,1.73101229,60.063,332.82099999999997,0.493,-0.14,1702924901320000.0,1702924901321553,-0.49850905331550166,0.9999837428331375,0.04999999999999716,332.82099999999997,0.493,-0.14
174,2501330000,2023-12-18,18:41:41.330,41.22081905,1.73101223,60.063,332.82800000000003,0.488,-0.14,1702924901329999.0,1702924901331616,-0.5034087886451744,1.008938548155129,0.04999999999999716,332.82800000000003,0.488,-0.14
175,2501340000,2023-12-18,18:41:41.340,41.22081913,1.73101218,60.063,332.835,0.47700000000000004,-0.141,1702924901340000.0,1702924901341703,-0.5074702943093143,1.017881117761135,0.04999999999999716,332.835,0.47700000000000004,-0.141
176,2501350000,2023-12-18,18:41:41.350,41.22081921,1.73101213,60.065,332.842,0.47100000000000003,-0.136,1702924901350000.0,1702924901351523,-0.5115317997988313,1.0268236882984638,0.0519999999999925,332.842,0.47100000000000003,-0.136
177,2501360000,2023-12-18,18:41:41.360,41.22081929,1.73101208,60.065,332.85,0.473,-0.133,1702924901359999.0,1702924901361432,-0.5155933054047637,1.0357662588357925,0.0519999999999925,332.85,0.473,-0.133
178,2501370000,2023-12-18,18:41:41.370,41.22081938,1.73101202,60.065,332.858,0.483,-0.128,1702924901369999.0,1702924901371452,-0.5204768352559768,1.0458312379196286,0.0519999999999925,332.858,0.483,-0.128
179,2501380000,2023-12-18,18:41:41.380,41.22081946,1.73101198,60.067,332.866,0.48700000000000004,-0.122,1702924901380000.0,1702924901381361,-0.5237001111381687,1.054761572740972,0.05399999999999494,332.866,0.48700000000000004,-0.122
180,2501390000,2023-12-18,18:41:41.390,41.22081955,1.73101192,60.067,332.875,0.47600000000000003,-0.11900000000000001,1702924901390000.0,1702924901391374,-0.5285836410475895,1.0648265518248081,0.05399999999999494,332.875,0.47600000000000003,-0.11900000000000001
181,2501400000,2023-12-18,18:41:41.400,41.22081963,1.73101187,60.067,332.881,0.466,-0.113,1702924901399999.0,1702924901401439,-0.5326451465953141,1.0737691223621368,0.05399999999999494,332.881,0.466,-0.113
182,2501410000,2023-12-18,18:41:41.410,41.22081972,1.73101182,60.068999999999996,332.89,0.466,-0.10800000000000001,1702924901409999.0,1702924901411503,-0.5366904467809945,1.0838218666613102,0.05599999999999028,332.89,0.466,-0.10800000000000001
183,2501420000,2023-12-18,18:41:41.420,41.2208198,1.73101176,60.068999999999996,332.898,0.48,-0.106,1702924901420000.0,1702924901421372,-0.5415901819360442,1.0927766719833016,0.05599999999999028,332.898,0.48,-0.106
184,2501430000,2023-12-18,18:41:41.430,41.22081989,1.73101171,60.068999999999996,332.905,0.488,-0.098,1702924901429999.0,1702924901431419,-0.5456354821217246,1.102829416282475,0.05599999999999028,332.905,0.488,-0.098
185,2501440000,2023-12-18,18:41:41.440,41.22081997,1.73101166,60.071000000000005,332.914,0.475,-0.096,1702924901439999.0,1702924901441479,-0.549696987553034,1.1117719858884811,0.05799999999999983,332.914,0.475,-0.096
186,2501450000,2023-12-18,18:41:41.450,41.22082006,1.7310116,60.071000000000005,332.921,0.456,-0.091,1702924901450000.0,1702924901451359,-0.5545805173460394,1.1218369659036398,0.05799999999999983,332.921,0.456,-0.091
187,2501460000,2023-12-18,18:41:41.460,41.22082015,1.73101154,60.071999999999996,332.92900000000003,0.444,-0.08800000000000001,1702924901460000.0,1702924901461391,-0.5594640471390449,1.1319019459187984,0.05899999999999039,332.92900000000003,0.444,-0.08800000000000001
188,2501470000,2023-12-18,18:41:41.470,41.22082024,1.73101149,60.073,332.93800000000005,0.45399999999999996,-0.08800000000000001,1702924901469999.0,1702924901471484,-0.5635093472083099,1.1419546911492944,0.05999999999999517,332.93800000000005,0.45399999999999996,-0.08800000000000001
189,2501480000,2023-12-18,18:41:41.480,41.22082032,1.73101143,60.073,332.94699999999995,0.47100000000000003,-0.084,1702924901479999.0,1702924901481351,-0.568409082305152,1.1509094955399632,0.05999999999999517,332.94699999999995,0.47100000000000003,-0.084
190,2501490000,2023-12-18,18:41:41.490,41.22082041,1.73101138,60.074,332.957,0.469,-0.085,1702924901490000.0,1702924901491379,-0.572454382374417,1.1609622398391366,0.06099999999999284,332.957,0.469,-0.085
191,2501500000,2023-12-18,18:41:41.500,41.2208205,1.73101132,60.075,332.967,0.455,-0.08199999999999999,1702924901500000.0,1702924901501471,-0.5773379121092148,1.1710272198542953,0.06199999999999761,332.967,0.455,-0.08199999999999999
192,2501510000,2023-12-18,18:41:41.510,41.22082059,1.73101127,60.076,332.975,0.43799999999999994,-0.078,1702924901509999.0,1702924901511351,-0.5813832121784799,1.181079963222146,0.06299999999999528,332.975,0.43799999999999994,-0.078
193,2501520000,2023-12-18,18:41:41.520,41.22082068,1.73101121,60.076,332.985,0.43799999999999994,-0.078,1702924901520000.0,1702924901521417,-0.5862667417968623,1.1911449450999498,0.06299999999999528,332.985,0.43799999999999994,-0.078
194,2501530000,2023-12-18,18:41:41.530,41.22082077,1.73101115,60.078,333.0,0.45299999999999996,-0.07200000000000001,1702924901530000.0,1702924901531454,-0.5911502715316601,1.201209924183786,0.06499999999999773,333.0,0.45299999999999996,-0.07200000000000001
195,2501540000,2023-12-18,18:41:41.540,41.22082086,1.73101109,60.078,333.01099999999997,0.456,-0.07,1702924901539999.0,1702924901541527,-0.5960338011500426,1.211274903267622,0.06499999999999773,333.01099999999997,0.456,-0.07
196,2501550000,2023-12-18,18:41:41.550,41.22082095,1.73101104,60.078,333.02,0.44299999999999995,-0.068,1702924901549999.0,1702924901551344,-0.6000791012193076,1.2213276466354728,0.06499999999999773,333.02,0.44299999999999995,-0.068
197,2501560000,2023-12-18,18:41:41.560,41.22082105,1.73101098,60.08,333.034,0.423,-0.061,1702924901560000.0,1702924901561431,-0.6049464254756458,1.2325028013437986,0.06699999999999307,333.034,0.423,-0.061
198,2501570000,2023-12-18,18:41:41.570,41.22082114,1.73101092,60.08,333.04400000000004,0.415,-0.06,1702924901570000.0,1702924901571521,-0.6098299550940283,1.2425677804276347,0.06699999999999307,333.04400000000004,0.415,-0.06
199,2501580000,2023-12-18,18:41:41.580,41.22082123,1.73101087,60.08,333.05400000000003,0.42700000000000005,-0.053,1702924901579999.0,1702924901581598,-0.613875255046878,1.2526205256581306,0.06699999999999307,333.05400000000003,0.42700000000000005,-0.053
200,2501590000,2023-12-18,18:41:41.590,41.22082133,1.73101081,60.082,333.069,0.436,-0.047,1702924901590000.0,1702924901591430,-0.6187425793032162,1.263795679435134,0.06899999999999551,333.069,0.436,-0.047
201,2501600000,2023-12-18,18:41:41.600,41.22082142,1.73101075,60.082,333.079,0.436,-0.044000000000000004,1702924901600000.0,1702924901601522,-0.623626108863391,1.27386065851897,0.06899999999999551,333.079,0.436,-0.044000000000000004
202,2501610000,2023-12-18,18:41:41.610,41.22082151,1.73101069,60.082,333.089,0.423,-0.036000000000000004,1702924901609999.0,1702924901611353,-0.6285096384235658,1.2839256385341287,0.06899999999999551,333.089,0.423,-0.036000000000000004
203,2501620000,2023-12-18,18:41:41.620,41.22082161,1.73101064,60.083999999999996,333.105,0.41100000000000003,-0.034,1702924901619999.0,1702924901621422,-0.6325387329561636,1.2950885575264692,0.07099999999999085,333.105,0.41100000000000003,-0.034
204,2501630000,2023-12-18,18:41:41.630,41.22082171,1.73101058,60.083999999999996,333.115,0.41600000000000004,-0.027999999999999997,1702924901630000.0,1702924901631515,-0.6374060570960864,1.30626371037215,0.07099999999999085,333.115,0.41600000000000004,-0.027999999999999997
205,2501640000,2023-12-18,18:41:41.640,41.2208218,1.73101051,60.083999999999996,333.126,0.42700000000000005,-0.026000000000000002,1702924901640000.0,1702924901641408,-0.6431278162635863,1.3163409270346165,0.07099999999999085,333.126,0.42700000000000005,-0.026000000000000002
206,2501650000,2023-12-18,18:41:41.650,41.2208219,1.73101046,60.085,333.14099999999996,0.428,-0.024,1702924901649999.0,1702924901651413,-0.6471569107961841,1.3275038432329893,0.07199999999999562,333.14099999999996,0.428,-0.024
207,2501660000,2023-12-18,18:41:41.660,41.22082199,1.7310104,60.086000000000006,333.151,0.41600000000000004,-0.018000000000000002,1702924901659999.0,1702924901661488,-0.6520404402981512,1.337568823248148,0.0730000000000004,333.151,0.41600000000000004,-0.018000000000000002
208,2501670000,2023-12-18,18:41:41.670,41.22082209,1.73101033,60.086000000000006,333.163,0.402,-0.015,1702924901670000.0,1702924901671334,-0.6577459939871915,1.3487562136724591,0.0730000000000004,333.163,0.402,-0.015
209,2501680000,2023-12-18,18:41:41.680,41.22082219,1.73101028,60.086999999999996,333.17699999999996,0.406,-0.008,1702924901679999.0,1702924901681391,-0.6617750885197893,1.3599191317334771,0.07399999999999096,333.17699999999996,0.406,-0.008
210,2501690000,2023-12-18,18:41:41.690,41.22082228,1.73101021,60.086999999999996,333.18800000000005,0.42100000000000004,-0.0,1702924901689999.0,1702924901691480,-0.6674968475126661,1.369996347464621,0.07399999999999096,333.18800000000005,0.42100000000000004,-0.0
211,2501700000,2023-12-18,18:41:41.700,41.22082238,1.73101015,60.086999999999996,333.20099999999996,0.426,0.002,1702924901700000.0,1702924901701350,-0.672364171652589,1.3811715003103018,0.07399999999999096,333.20099999999996,0.426,0.002
212,2501710000,2023-12-18,18:41:41.710,41.22082248,1.7310101,60.088,333.215,0.42,0.01,1702924901710000.0,1702924901711383,-0.6763932660105638,1.392334420233965,0.07499999999999574,333.215,0.42,0.01
213,2501720000,2023-12-18,18:41:41.720,41.22082258,1.73101003,60.088,333.226,0.40700000000000003,0.012,1702924901719999.0,1702924901721480,-0.6820988196996041,1.403521808795631,0.07499999999999574,333.226,0.40700000000000003,0.012
214,2501730000,2023-12-18,18:41:41.730,41.22082268,1.73100997,60.088,333.23800000000006,0.408,0.017,1702924901729999.0,1702924901731330,-0.6869661437231116,1.4146969625726342,0.07499999999999574,333.23800000000006,0.408,0.017
215,2501740000,2023-12-18,18:41:41.740,41.22082278,1.73100991,60.089,333.25300000000004,0.42100000000000004,0.023,1702924901740000.0,1702924901741375,-0.6918334676884115,1.425872115418315,0.0759999999999934,333.25300000000004,0.42100000000000004,0.023
216,2501750000,2023-12-18,18:41:41.750,41.22082288,1.73100985,60.089,333.26599999999996,0.428,0.027000000000000003,1702924901750000.0,1702924901751460,-0.696700791711919,1.4370472710579634,0.0759999999999934,333.26599999999996,0.428,0.027000000000000003
217,2501760000,2023-12-18,18:41:41.760,41.22082298,1.73100979,60.089,333.277,0.424,0.036000000000000004,1702924901759999.0,1702924901761283,-0.7015681156772189,1.448222423903644,0.0759999999999934,333.277,0.424,0.036000000000000004
218,2501770000,2023-12-18,18:41:41.770,41.22082308,1.73100972,60.091,333.298,0.41100000000000003,0.040999999999999995,1702924901770000.0,1702924901771410,-0.7072736692498438,1.4594098143279552,0.07799999999999585,333.298,0.41100000000000003,0.040999999999999995
219,2501780000,2023-12-18,18:41:41.780,41.22082318,1.73100966,60.091,333.31,0.40700000000000003,0.044000000000000004,1702924901780000.0,1702924901781451,-0.712140993156936,1.470584967173636,0.07799999999999585,333.31,0.40700000000000003,0.044000000000000004
220,2501790000,2023-12-18,18:41:41.790,41.22082328,1.73100959,60.091,333.32199999999995,0.42,0.051,1702924901789999.0,1702924901791568,-0.7178465467295609,1.4817723566666245,0.07799999999999585,333.32199999999995,0.42,0.051
221,2501800000,2023-12-18,18:41:41.800,41.22082338,1.73100953,60.092,333.343,0.43700000000000006,0.052000000000000005,1702924901799999.0,1702924901801362,-0.7227138706366532,1.4929475104436278,0.07899999999999352,333.343,0.43700000000000006,0.052000000000000005
222,2501810000,2023-12-18,18:41:41.810,41.22082348,1.73100946,60.093,333.355,0.445,0.057,1702924901810000.0,1702924901811417,-0.7284194240928628,1.5041348999366164,0.0799999999999983,333.355,0.445,0.057
223,2501820000,2023-12-18,18:41:41.820,41.22082358,1.7310094,60.093,333.36699999999996,0.433,0.062,1702924901820000.0,1702924901821492,-0.733286747999955,1.5153100537136197,0.0799999999999983,333.36699999999996,0.433,0.062
224,2501830000,2023-12-18,18:41:41.830,41.22082368,1.73100933,60.093999999999994,333.38699999999994,0.419,0.063,1702924901829999.0,1702924901831587,-0.7389923014561646,1.5264974441379309,0.08099999999998886,333.38699999999994,0.419,0.063
225,2501840000,2023-12-18,18:41:41.840,41.22082379,1.73100926,60.095,333.398,0.42,0.069,1702924901840000.0,1702924901841402,-0.7446816495503299,1.538795007392764,0.08199999999999363,333.398,0.42,0.069
226,2501850000,2023-12-18,18:41:41.850,41.22082389,1.7310092,60.095,333.411,0.435,0.069,1702924901850000.0,1702924901851492,-0.7495489733410068,1.5499701602384448,0.08199999999999363,333.411,0.435,0.069
227,2501860000,2023-12-18,18:41:41.860,41.22082399,1.73100913,60.096000000000004,333.42900000000003,0.449,0.07200000000000001,1702924901859999.0,1702924901861379,-0.7552545267972164,1.5611575515940785,0.08299999999999841,333.42900000000003,0.449,0.07200000000000001
228,2501870000,2023-12-18,18:41:41.870,41.22082409,1.73100906,60.097,333.441,0.44299999999999995,0.07400000000000001,1702924901869999.0,1702924901871388,-0.7609600801370107,1.5723449410870671,0.08399999999999608,333.441,0.44299999999999995,0.07400000000000001
229,2501880000,2023-12-18,18:41:41.880,41.2208242,1.731009,60.097,333.452,0.425,0.07400000000000001,1702924901880000.0,1702924901881481,-0.7658111985074356,1.5846302695572376,0.08399999999999608,333.452,0.425,0.07400000000000001
230,2501890000,2023-12-18,18:41:41.890,41.2208243,1.73100893,60.099,333.47,0.424,0.08,1702924901890000.0,1702924901891325,-0.7715167519054376,1.5958176562562585,0.08599999999999142,333.47,0.424,0.08
231,2501900000,2023-12-18,18:41:41.900,41.22082441,1.73100886,60.099,333.483,0.439,0.081,1702924901899999.0,1702924901901391,-0.7772060998249799,1.6081152204424143,0.08599999999999142,333.483,0.439,0.081
232,2501910000,2023-12-18,18:41:41.910,41.22082451,1.7310088,60.099,333.494,0.455,0.084,1702924901909999.0,1702924901911483,-0.7820734235574491,1.6192903760820627,0.08599999999999142,333.494,0.455,0.084
233,2501920000,2023-12-18,18:41:41.920,41.22082462,1.73100873,60.101000000000006,333.51300000000003,0.44799999999999995,0.08800000000000001,1702924901920000.0,1702924901921339,-0.7877627714187838,1.631587939336896,0.08800000000000097,333.51300000000003,0.44799999999999995,0.08800000000000001
234,2501930000,2023-12-18,18:41:41.930,41.22082472,1.73100866,60.101000000000006,333.525,0.42200000000000004,0.08800000000000001,1702924901929999.0,1702924901931383,-0.7934683247585781,1.642775329761207,0.08800000000000097,333.525,0.42200000000000004,0.08800000000000001
235,2501940000,2023-12-18,18:41:41.940,41.22082483,1.7310086,60.102,333.535,0.408,0.095,1702924901939999.0,1702924901941477,-0.7983194430125877,1.655060657300055,0.08899999999999153,333.535,0.408,0.095
236,2501950000,2023-12-18,18:41:41.950,41.22082494,1.73100853,60.103,333.55400000000003,0.42,0.1,1702924901950000.0,1702924901951333,-0.8040087909321301,1.6673582205548882,0.0899999999999963,333.55400000000003,0.42,0.1
237,2501960000,2023-12-18,18:41:41.960,41.22082505,1.73100847,60.104,333.565,0.441,0.10400000000000001,1702924901960000.0,1702924901961386,-0.808859909127932,1.6796435490250587,0.09099999999999397,333.565,0.441,0.10400000000000001
238,2501970000,2023-12-18,18:41:41.970,41.22082515,1.7310084,60.104,333.575,0.439,0.114,1702924901969999.0,1702924901971460,-0.814565462351311,1.6908309385180473,0.09099999999999397,333.575,0.439,0.114
239,2501980000,2023-12-18,18:41:41.980,41.22082526,1.73100833,60.106,333.593,0.413,0.11800000000000001,1702924901979999.0,1702924901981326,-0.820254810154438,1.7031285017728806,0.09299999999999642,333.593,0.413,0.11800000000000001
240,2501990000,2023-12-18,18:41:41.990,41.22082537,1.73100826,60.106,333.602,0.39299999999999996,0.127,1702924901990000.0,1702924901991362,-0.8259441578993574,1.7154260650277138,0.09299999999999642,333.602,0.39299999999999996,0.127
241,2502000000,2023-12-18,18:41:42.000,41.22082548,1.7310082,60.107,333.61400000000003,0.39899999999999997,0.133,1702924902000000.0,1702924902001442,-0.8307952760951594,1.7277113944292068,0.09399999999999409,333.61400000000003,0.39899999999999997,0.133
242,2502010000,2023-12-18,18:41:42.010,41.22082559,1.73100813,60.108000000000004,333.63300000000004,0.42,0.138,1702924902009999.0,1702924902011328,-0.8364846238400787,1.7400089567527175,0.09499999999999886,333.63300000000004,0.42,0.138
243,2502020000,2023-12-18,18:41:42.020,41.2208257,1.73100806,60.108999999999995,333.64300000000003,0.425,0.149,1702924902020000.0,1702924902021622,-0.8421739715267904,1.7523065209388733,0.09599999999998943,333.64300000000003,0.425,0.149
244,2502030000,2023-12-18,18:41:42.030,41.22082581,1.73100799,60.108999999999995,333.654,0.40399999999999997,0.158,1702924902030000.0,1702924902031698,-0.8478633192717098,1.7646040841937065,0.09599999999998943,333.654,0.40399999999999997,0.158
245,2502040000,2023-12-18,18:41:42.040,41.22082592,1.73100792,60.111000000000004,333.67199999999997,0.382,0.17,1702924902039999.0,1702924902042812,-0.8535526669002138,1.7769016474485397,0.09799999999999898,333.67199999999997,0.382,0.17
246,2502050000,2023-12-18,18:41:42.050,41.22082604,1.73100785,60.111000000000004,333.684,0.375,0.18100000000000002,1702924902049999.0,1702924902051619,-0.8592258092248812,1.7903093863278627,0.09799999999999898,333.684,0.375,0.18100000000000002
247,2502060000,2023-12-18,18:41:42.060,41.22082615,1.73100779,60.111999999999995,333.69699999999995,0.384,0.187,1702924902060000.0,1702924902061678,-0.8640769272460602,1.802594712935388,0.09899999999998954,333.69699999999995,0.384,0.187
248,2502070000,2023-12-18,18:41:42.070,41.22082626,1.73100771,60.113,333.716,0.39299999999999996,0.198,1702924902070000.0,1702924902071545,-0.870604504365474,1.8149045137688518,0.09999999999999432,333.716,0.39299999999999996,0.198
249,2502080000,2023-12-18,18:41:42.080,41.22082638,1.73100765,60.114,333.72900000000004,0.389,0.20600000000000002,1702924902079999.0,1702924902081850,-0.8754394170828164,1.8283000132068992,0.10099999999999199,333.72900000000004,0.389,0.20600000000000002
250,2502090000,2023-12-18,18:41:42.090,41.22082649,1.73100758,60.114,333.74,0.37799999999999995,0.21600000000000003,1702924902090000.0,1702924902091479,-0.8811287645949051,1.8405975792557001,0.10099999999999199,333.74,0.37799999999999995,0.21600000000000003
251,2502100000,2023-12-18,18:41:42.100,41.2208266,1.73100751,60.115,333.76,0.36700000000000005,0.22899999999999998,1702924902100000.0,1702924902101494,-0.8868181121652015,1.8528951415792108,0.10199999999999676,333.76,0.36700000000000005,0.22899999999999998
252,2502110000,2023-12-18,18:41:42.110,41.22082672,1.73100744,60.11600000000001,333.773,0.364,0.23800000000000002,1702924902109999.0,1702924902111567,-0.8924912543152459,1.8663028785958886,0.10300000000000153,333.773,0.364,0.23800000000000002
253,2502120000,2023-12-18,18:41:42.120,41.22082683,1.73100737,60.11600000000001,333.784,0.37,0.251,1702924902119999.0,1702924902121454,-0.8981806018273346,1.8786004446446896,0.10300000000000153,333.784,0.37,0.251
254,2502130000,2023-12-18,18:41:42.130,41.22082695,1.7310073,60.117,333.80300000000005,0.375,0.258,1702924902130000.0,1702924902131496,-0.9038537439191714,1.8920081807300448,0.1039999999999921,333.80300000000005,0.375,0.258
