, Time(), Date, Local Time, Latitude(deg), Longitude(deg), Altitude(m), Heading(deg), Pitch(deg), Roll(deg),TimestampGPS,TimestampHDF,x,y,z,heading,pitch,roll
0,1591900000,2023-09-20,11:26:31.900,41.22143481,1.72966559,60.426,158.641,-0.9740000000000001,-1.226,1695209191899999.0,1695209191904695,0.0,0.0,0.0,158.641,-0.9740000000000001,-1.226
1,1591910000,2023-09-20,11:26:31.910,41.22143451,1.72966574,60.425,158.668,-0.9590000000000001,-1.247,1695209191910000.0,1695209191914734,0.012086645525414497,-0.03348895348608494,-0.0010000000000047748,158.668,-0.9590000000000001,-1.247
2,1591920000,2023-09-20,11:26:31.920,41.22143422,1.7296659,60.425,158.691,-0.943,-1.265,1695209191920000.0,1695209191924683,0.02502773585729301,-0.06587998569011688,-0.0010000000000047748,158.691,-0.943,-1.265
3,1591930000,2023-09-20,11:26:31.930,41.22143391,1.72966603,60.426,158.691,-0.937,-1.265,1695209191929999.0,1695209191934831,0.03542171517619863,-0.10045461636036634,0.0,158.691,-0.937,-1.265
4,1591940000,2023-09-20,11:26:31.940,41.22143361,1.72966619,60.425,158.668,-0.946,-1.247,1695209191940000.0,1695209191944830,0.0483465829747729,-0.1339558195322752,-0.0010000000000047748,158.668,-0.946,-1.247
5,1591950000,2023-09-20,11:26:31.950,41.22143331,1.72966635,60.424,158.639,-0.978,-1.198,1695209191949999.0,1695209191954774,0.06127145088976249,-0.16745702270418406,-0.0020000000000024443,158.639,-0.978,-1.198
6,1591960000,2023-09-20,11:26:31.960,41.221433,1.72966648,60.425,158.629,-1.0190000000000001,-1.133,1695209191960000.0,1695209191964813,0.07166543049970642,-0.20203165523707867,-0.0010000000000047748,158.629,-1.0190000000000001,-1.133
7,1591970000,2023-09-20,11:26:31.970,41.2214327,1.72966664,60.424,158.643,-1.037,-1.099,1695209191969999.0,1695209191974693,0.08459029864752665,-0.23553285654634237,-0.0020000000000024443,158.643,-1.037,-1.099
8,1591980000,2023-09-20,11:26:31.980,41.2214324,1.72966681,60.423,158.67,-1.016,-1.129,1695209191980000.0,1695209191984672,0.09835338877746835,-0.2690463112667203,-0.0030000000000001137,158.67,-1.016,-1.129
9,1591990000,2023-09-20,11:26:31.990,41.22143209,1.72966694,60.424,158.692,-0.9740000000000001,-1.196,1695209191989999.0,1695209191994744,0.1087473687948659,-0.30362094193696976,-0.0020000000000024443,158.692,-0.9740000000000001,-1.196
10,1592000000,2023-09-20,11:26:32.000,41.22143179,1.7296671,60.423,158.707,-0.948,-1.2329999999999999,1695209192000000.0,1695209192004686,0.1216722372919321,-0.33712214417755604,-0.0030000000000001137,158.707,-0.948,-1.2329999999999999
11,1592010000,2023-09-20,11:26:32.010,41.2214315,1.72966726,60.422,158.713,-0.9520000000000001,-1.21,1695209192009999.0,1695209192015763,0.13461332867154852,-0.36951317451894283,-0.0040000000000048885,158.713,-0.9520000000000001,-1.21
12,1592020000,2023-09-20,11:26:32.020,41.22143119,1.72966739,60.422,158.71,-0.9740000000000001,-1.137,1695209192020000.0,1695209192024803,0.14500730897998437,-0.40408780612051487,-0.0040000000000048885,158.71,-0.9740000000000001,-1.137
13,1592030000,2023-09-20,11:26:32.030,41.22143089,1.72966755,60.42100000000001,158.7,-1.0070000000000001,-1.057,1695209192030000.0,1695209192034794,0.1579321778845042,-0.43758900836110115,-0.0049999999999954525,158.7,-1.0070000000000001,-1.057
14,1592040000,2023-09-20,11:26:32.040,41.22143059,1.72966771,60.42,158.686,-1.0270000000000001,-1.016,1695209192039999.0,1695209192044822,0.17085704684723169,-0.47109021339565516,-0.006000000000000227,158.686,-1.0270000000000001,-1.016
15,1592050000,2023-09-20,11:26:32.050,41.22143028,1.72966784,60.42100000000001,158.684,-1.024,-1.024,1695209192049999.0,1695209192054678,0.18125102756312117,-0.5056648422032595,-0.0049999999999954525,158.684,-1.024,-1.024
16,1592060000,2023-09-20,11:26:32.060,41.22142998,1.729668,60.42,158.707,-1.001,-1.054,1695209192060000.0,1695209192064748,0.1941758967586793,-0.5391660463064909,-0.006000000000000227,158.707,-1.001,-1.054
17,1592070000,2023-09-20,11:26:32.070,41.22142969,1.72966816,60.419,158.74200000000002,-0.972,-1.073,1695209192070000.0,1695209192074831,0.2071169888949953,-0.5715570757165551,-0.007000000000005002,158.74200000000002,-0.972,-1.073
18,1592080000,2023-09-20,11:26:32.080,41.22142938,1.72966829,60.42,158.769,-0.955,-1.07,1695209192079999.0,1695209192084762,0.21751096984371543,-0.6061317073181272,-0.006000000000000227,158.769,-0.955,-1.07
19,1592090000,2023-09-20,11:26:32.090,41.22142908,1.72966845,60.419,158.765,-0.946,-1.063,1695209192090000.0,1695209192095040,0.2304358394467272,-0.6396329095587134,-0.007000000000005002,158.765,-0.946,-1.063
20,1592100000,2023-09-20,11:26:32.100,41.22142878,1.7296686,60.418,158.736,-0.956,-1.025,1695209192100000.0,1695209192104809,0.24252248724224046,-0.6731218649074435,-0.008000000000002672,158.736,-0.956,-1.025
21,1592110000,2023-09-20,11:26:32.110,41.22142847,1.72966874,60.419,158.709,-0.986,-0.9640000000000001,1695209192109999.0,1695209192114726,0.2537546905805357,-0.7077087443321943,-0.007000000000005002,158.709,-0.986,-0.9640000000000001
22,1592120000,2023-09-20,11:26:32.120,41.22142817,1.72966889,60.419,158.705,-1.0170000000000001,-0.9129999999999999,1695209192119999.0,1695209192124773,0.26584133855067194,-0.7411976987496018,-0.007000000000005002,158.705,-1.0170000000000001,-0.9129999999999999
23,1592130000,2023-09-20,11:26:32.130,41.22142787,1.72966905,60.418,158.72299999999998,-1.016,-0.903,1695209192130000.0,1695209192134770,0.2787662087357603,-0.7746989019215107,-0.008000000000002672,158.72299999999998,-1.016,-0.903
24,1592140000,2023-09-20,11:26:32.140,41.22142757,1.72966918,60.419,158.738,-0.99,-0.937,1695209192140000.0,1695209192144696,0.2891764130326919,-0.8081633588299155,-0.007000000000005002,158.738,-0.99,-0.937
25,1592150000,2023-09-20,11:26:32.150,41.22142727,1.72966934,60.418,158.737,-0.9520000000000001,-0.9990000000000001,1695209192149999.0,1695209192154806,0.3021012833924033,-0.841664562933147,-0.008000000000002672,158.737,-0.9520000000000001,-0.9990000000000001
26,1592160000,2023-09-20,11:26:32.160,41.22142697,1.7296695,60.418,158.731,-0.932,-1.033,1695209192159999.0,1695209192164762,0.31502615386852995,-0.8751657651737332,-0.008000000000002672,158.731,-0.932,-1.033
27,1592170000,2023-09-20,11:26:32.170,41.22142667,1.72966964,60.418,158.73,-0.937,-1.025,1695209192170000.0,1695209192174804,0.326274580496829,-0.9086424708366394,-0.008000000000002672,158.73,-0.937,-1.025
28,1592180000,2023-09-20,11:26:32.180,41.22142637,1.7296698,60.418,158.735,-0.951,-0.976,1695209192179999.0,1695209192184695,0.3391994512057863,-0.9421436730772257,-0.008000000000002672,158.735,-0.951,-0.976
29,1592190000,2023-09-20,11:26:32.190,41.22142608,1.72966996,60.417,158.735,-0.948,-0.9390000000000001,1695209192189999.0,1695209192194810,0.35214054479729384,-0.9745347024872899,-0.009000000000000341,158.735,-0.948,-0.9390000000000001
30,1592200000,2023-09-20,11:26:32.200,41.22142578,1.7296701,60.417,158.71200000000002,-0.924,-0.9570000000000001,1695209192200000.0,1695209192204815,0.36338897177483886,-1.0080114090815187,-0.009000000000000341,158.71200000000002,-0.924,-0.9570000000000001
31,1592210000,2023-09-20,11:26:32.210,41.22142549,1.72967026,60.417,158.683,-0.9129999999999999,-0.9790000000000001,1695209192210000.0,1695209192214831,0.37633006554096937,-1.0404024375602603,-0.009000000000000341,158.683,-0.9129999999999999,-0.9790000000000001
32,1592220000,2023-09-20,11:26:32.220,41.22142519,1.72967042,60.416000000000004,158.67700000000002,-0.94,-0.972,1695209192219999.0,1695209192224829,0.389254936715588,-1.073903638869524,-0.00999999999999801,158.67700000000002,-0.94,-0.972
33,1592230000,2023-09-20,11:26:32.230,41.2214249,1.72967057,60.416000000000004,158.705,-0.9470000000000001,-0.99,1695209192229999.0,1695209192234848,0.40135780873242766,-1.1062824204564095,-0.00999999999999801,158.705,-0.9470000000000001,-0.99
34,1592240000,2023-09-20,11:26:32.240,41.22142459,1.72967073,60.416000000000004,158.755,-0.903,-1.045,1695209192240000.0,1695209192245130,0.41426645749015734,-1.1408937983214855,-0.00999999999999801,158.755,-0.903,-1.045
35,1592250000,2023-09-20,11:26:32.250,41.2214243,1.72967088,60.415,158.791,-0.868,-1.081,1695209192250000.0,1695209192254920,0.4263693297980353,-1.1732725771144032,-0.011000000000002785,158.791,-0.868,-1.081
36,1592260000,2023-09-20,11:26:32.260,41.22142401,1.72967103,60.416000000000004,158.775,-0.853,-1.112,1695209192259999.0,1695209192264612,0.43847220216412097,-1.2056513568386436,-0.00999999999999801,158.775,-0.853,-1.112
37,1592270000,2023-09-20,11:26:32.270,41.22142371,1.72967119,60.416000000000004,158.72,-0.8809999999999999,-1.1059999999999999,1695209192270000.0,1695209192274940,0.45139707397902384,-1.239152560941875,-0.00999999999999801,158.72,-0.8809999999999999,-1.1059999999999999
38,1592280000,2023-09-20,11:26:32.280,41.22142341,1.72967135,60.415,158.67600000000002,-0.948,-1.026,1695209192280000.0,1695209192284851,0.46432194591034204,-1.2726537631824613,-0.011000000000002785,158.67600000000002,-0.948,-1.026
39,1592290000,2023-09-20,11:26:32.290,41.22142311,1.7296715,60.415,158.678,-1.013,-0.9229999999999999,1695209192289999.0,1695209192294949,0.4764085959759541,-1.3061427166685462,-0.011000000000002785,158.678,-1.013,-0.9229999999999999
40,1592300000,2023-09-20,11:26:32.300,41.22142281,1.72967166,60.415,158.72,-0.983,-0.9279999999999999,1695209192299999.0,1695209192304681,0.48933346808189526,-1.3396439189091325,-0.011000000000002785,158.72,-0.983,-0.9279999999999999
41,1592310000,2023-09-20,11:26:32.310,41.22142252,1.72967182,60.413999999999994,158.75799999999998,-0.9109999999999999,-1.008,1695209192310000.0,1695209192315120,0.5022745631285943,-1.3720349483191967,-0.01200000000000756,158.75799999999998,-0.9109999999999999,-1.008
42,1592320000,2023-09-20,11:26:32.320,41.22142222,1.72967196,60.413999999999994,158.748,-0.8340000000000001,-1.105,1695209192320000.0,1695209192324934,0.5135229914449155,-1.4055116530507803,-0.01200000000000756,158.748,-0.8340000000000001,-1.105
43,1592330000,2023-09-20,11:26:32.330,41.22142193,1.72967211,60.413999999999994,158.71,-0.8290000000000001,-1.135,1695209192329999.0,1695209192334921,0.5256258646841161,-1.4378904327750206,-0.01200000000000756,158.71,-0.8290000000000001,-1.135
44,1592340000,2023-09-20,11:26:32.340,41.22142162,1.72967227,60.413000000000004,158.692,-0.8959999999999999,-1.068,1695209192340000.0,1695209192344760,0.5385345147224143,-1.4725018087774515,-0.012999999999998124,158.692,-0.8959999999999999,-1.068
45,1592350000,2023-09-20,11:26:32.350,41.22142133,1.72967241,60.413000000000004,158.704,-0.9490000000000001,-0.9620000000000001,1695209192350000.0,1695209192354757,0.5497991660959087,-1.5048683416098356,-0.012999999999998124,158.704,-0.9490000000000001,-0.9620000000000001
46,1592360000,2023-09-20,11:26:32.360,41.22142103,1.72967257,60.413000000000004,158.73,-0.9470000000000001,-0.934,1695209192359999.0,1695209192364713,0.5627240390167572,-1.5383695429190993,-0.012999999999998124,158.73,-0.9470000000000001,-0.934
47,1592370000,2023-09-20,11:26:32.370,41.22142073,1.72967273,60.413000000000004,158.72899999999998,-0.89,-1.036,1695209192369999.0,1695209192374681,0.5756489120540209,-1.5718707470223308,-0.012999999999998124,158.72899999999998,-0.89,-1.036
48,1592380000,2023-09-20,11:26:32.380,41.22142044,1.72967287,60.413000000000004,158.69799999999998,-0.845,-1.1420000000000001,1695209192380000.0,1695209192384821,0.5869135637185536,-1.604237275198102,-0.012999999999998124,158.69799999999998,-0.845,-1.1420000000000001
49,1592390000,2023-09-20,11:26:32.390,41.22142014,1.72967302,60.412,158.675,-0.8640000000000001,-1.159,1695209192390000.0,1695209192394760,0.5990002150065266,-1.637726230546832,-0.014000000000002899,158.675,-0.8640000000000001,-1.159
50,1592400000,2023-09-20,11:26:32.400,41.22141983,1.72967319,60.413000000000004,158.675,-0.909,-1.0959999999999999,1695209192399999.0,1695209192404735,0.6127470877836458,-1.6723498553037643,-0.012999999999998124,158.675,-0.909,-1.0959999999999999
51,1592410000,2023-09-20,11:26:32.410,41.22141956,1.72967332,60.413999999999994,158.69299999999998,-0.9390000000000001,-1.024,1695209192409999.0,1695209192414860,0.6232059631147422,-1.7024837890639901,-0.01200000000000756,158.69299999999998,-0.9390000000000001,-1.024
52,1592420000,2023-09-20,11:26:32.420,41.22141926,1.72967348,60.413999999999994,158.694,-0.951,-1.0190000000000001,1695209192420000.0,1695209192424853,0.6361308367340825,-1.735984992235899,-0.01200000000000756,158.694,-0.951,-1.0190000000000001
53,1592430000,2023-09-20,11:26:32.430,41.22141896,1.72967363,60.413999999999994,158.667,-0.941,-1.094,1695209192429999.0,1695209192434784,0.6482174884877168,-1.769473945721984,-0.01200000000000756,158.667,-0.941,-1.094
54,1592440000,2023-09-20,11:26:32.440,41.22141869,1.72967377,60.415,158.64600000000002,-0.929,-1.176,1695209192439999.0,1695209192444717,0.6595145860919729,-1.799620128236711,-0.011000000000002785,158.64600000000002,-0.929,-1.176
55,1592450000,2023-09-20,11:26:32.450,41.22141839,1.72967393,60.415,158.666,-0.934,-1.206,1695209192450000.0,1695209192454690,0.6724394601187669,-1.8331213314086199,-0.011000000000002785,158.666,-0.934,-1.206
56,1592460000,2023-09-20,11:26:32.460,41.22141809,1.72967409,60.416000000000004,158.718,-0.955,-1.188,1695209192460000.0,1695209192464760,0.6853643342619762,-1.8666225336492062,-0.00999999999999801,158.718,-0.955,-1.188
57,1592470000,2023-09-20,11:26:32.470,41.22141782,1.72967423,60.417,158.747,-0.965,-1.181,1695209192469999.0,1695209192474667,0.6966614322154783,-1.8967687152326107,-0.009000000000000341,158.747,-0.965,-1.181
58,1592480000,2023-09-20,11:26:32.480,41.22141752,1.72967439,60.417,158.722,-0.97,-1.212,1695209192479999.0,1695209192484730,0.7095863065915182,-1.930269917473197,-0.009000000000000341,158.722,-0.97,-1.212
59,1592490000,2023-09-20,11:26:32.490,41.22141723,1.72967455,60.417,158.671,-1.0,-1.222,1695209192490000.0,1695209192494768,0.7225274036754854,-1.9626609459519386,-0.009000000000000341,158.671,-1.0,-1.222
60,1592500000,2023-09-20,11:26:32.500,41.22141695,1.72967469,60.418,158.649,-1.04,-1.202,1695209192500000.0,1695209192504818,0.7338082793867216,-1.9939173012971878,-0.008000000000002672,158.649,-1.04,-1.202
61,1592510000,2023-09-20,11:26:32.510,41.22141666,1.72967486,60.418,158.681,-1.065,-1.185,1695209192509999.0,1695209192514757,0.7475875988020562,-2.0263205794617534,-0.008000000000002672,158.681,-1.065,-1.185
62,1592520000,2023-09-20,11:26:32.520,41.22141636,1.72967502,60.418,158.734,-1.056,-1.208,1695209192520000.0,1695209192524874,0.7605124736437574,-2.0598217817023396,-0.008000000000002672,158.734,-1.056,-1.208
63,1592530000,2023-09-20,11:26:32.530,41.22141609,1.72967516,60.419,158.757,-1.018,-1.2790000000000001,1695209192530000.0,1695209192534966,0.7718095722957514,-2.089967963285744,-0.007000000000005002,158.757,-1.018,-1.2790000000000001
64,1592540000,2023-09-20,11:26:32.540,41.22141579,1.72967532,60.419,158.737,-0.996,-1.339,1695209192539999.0,1695209192544906,0.7847344473702833,-2.1234691655263305,-0.007000000000005002,158.737,-0.996,-1.339
65,1592550000,2023-09-20,11:26:32.550,41.22141549,1.72967548,60.418,158.703,-1.023,-1.327,1695209192549999.0,1695209192554977,0.7976593226194382,-2.1569703686982393,-0.008000000000002672,158.703,-1.023,-1.327
66,1592560000,2023-09-20,11:26:32.560,41.22141522,1.72967562,60.419,158.697,-1.079,-1.2590000000000001,1695209192560000.0,1695209192565083,0.8089564215624705,-2.187116550281644,-0.007000000000005002,158.697,-1.079,-1.2590000000000001
67,1592570000,2023-09-20,11:26:32.570,41.22141492,1.72967578,60.418,158.722,-1.099,-1.229,1695209192570000.0,1695209192574975,0.8218812969862483,-2.2206177515909076,-0.008000000000002672,158.722,-1.099,-1.229
68,1592580000,2023-09-20,11:26:32.580,41.22141463,1.72967594,60.418,158.755,-1.061,-1.276,1695209192579999.0,1695209192584924,0.8348223951761611,-2.253008780069649,-0.008000000000002672,158.755,-1.061,-1.276
69,1592590000,2023-09-20,11:26:32.590,41.22141435,1.72967608,60.419,158.765,-0.985,-1.3630000000000002,1695209192590000.0,1695209192594724,0.8461032718187198,-2.284265136346221,-0.007000000000005002,158.765,-0.985,-1.3630000000000002
70,1592600000,2023-09-20,11:26:32.600,41.22141405,1.72967623,60.418,158.743,-0.95,-1.396,1695209192600000.0,1695209192604834,0.8581899255514145,-2.3177540907636285,-0.008000000000002672,158.743,-0.95,-1.396
71,1592610000,2023-09-20,11:26:32.610,41.22141375,1.72967639,60.417,158.709,-0.976,-1.3359999999999999,1695209192609999.0,1695209192614675,0.8711148014990613,-2.3512552911415696,-0.009000000000000341,158.709,-0.976,-1.3359999999999999
72,1592620000,2023-09-20,11:26:32.620,41.22141348,1.72967652,60.417,158.686,-1.026,-1.2209999999999999,1695209192619999.0,1695209192624766,0.8815736789256334,-2.3813892249017954,-0.009000000000000341,158.686,-1.026,-1.2209999999999999
73,1592630000,2023-09-20,11:26:32.630,41.22141318,1.72967668,60.416000000000004,158.686,-1.037,-1.16,1695209192630000.0,1695209192634822,0.8944985550479032,-2.4148904271423817,-0.00999999999999801,158.686,-1.037,-1.16
74,1592640000,2023-09-20,11:26:32.640,41.22141288,1.72967683,60.415,158.703,-0.995,-1.2,1695209192640000.0,1695209192644842,0.9065852092462592,-2.4483793806284666,-0.011000000000002785,158.703,-0.995,-1.2
75,1592650000,2023-09-20,11:26:32.650,41.2214126,1.72967697,60.416000000000004,158.722,-0.9229999999999999,-1.2930000000000001,1695209192649999.0,1695209192654842,0.9178660865873098,-2.479635735973716,-0.00999999999999801,158.722,-0.9229999999999999,-1.2930000000000001
76,1592660000,2023-09-20,11:26:32.660,41.2214123,1.72967711,60.413999999999994,158.731,-0.863,-1.345,1695209192659999.0,1695209192664744,0.9291145188035443,-2.513112441636622,-0.01200000000000756,158.731,-0.863,-1.345
77,1592670000,2023-09-20,11:26:32.670,41.221412,1.72967727,60.413000000000004,158.727,-0.846,-1.311,1695209192670000.0,1695209192674693,0.9420393954496831,-2.546613642014563,-0.012999999999998124,158.727,-0.846,-1.311
78,1592680000,2023-09-20,11:26:32.680,41.22141172,1.7296774,60.413999999999994,158.71200000000002,-0.861,-1.219,1695209192679999.0,1695209192684675,0.9524820509250276,-2.5778577513992786,-0.01200000000000756,158.71200000000002,-0.861,-1.219
79,1592690000,2023-09-20,11:26:32.690,41.22141142,1.72967756,60.413000000000004,158.687,-0.875,-1.143,1695209192689999.0,1695209192694789,0.965406927803997,-2.611358950845897,-0.012999999999998124,158.687,-0.875,-1.143
80,1592700000,2023-09-20,11:26:32.700,41.22141112,1.7296777,60.411,158.661,-0.875,-1.102,1695209192700000.0,1695209192704660,0.9766553604858927,-2.644835657440126,-0.015000000000000568,158.661,-0.875,-1.102
81,1592710000,2023-09-20,11:26:32.710,41.22141084,1.72967784,60.412,158.645,-0.8590000000000001,-1.084,1695209192710000.0,1695209192714823,0.9879362384672277,-2.676092012785375,-0.014000000000002899,158.645,-0.8590000000000001,-1.084
82,1592720000,2023-09-20,11:26:32.720,41.22141054,1.72967799,60.411,158.649,-0.84,-1.063,1695209192719999.0,1695209192724735,1.0000228935386986,-2.709580964408815,-0.015000000000000568,158.649,-0.84,-1.063
83,1592730000,2023-09-20,11:26:32.730,41.22141024,1.72967814,60.41,158.665,-0.807,-1.043,1695209192729999.0,1695209192734666,1.0121095487265848,-2.7430699188262224,-0.016000000000005343,158.665,-0.807,-1.043
84,1592740000,2023-09-20,11:26:32.740,41.22140996,1.72967827,60.41,158.681,-0.7759999999999999,-1.025,1695209192740000.0,1695209192744661,1.0225522048422135,-2.7743140254169703,-0.016000000000005343,158.681,-0.7759999999999999,-1.025
85,1592750000,2023-09-20,11:26:32.750,41.22140965,1.72967842,60.41,158.681,-0.747,-1.022,1695209192750000.0,1695209192754780,1.0346226376132108,-2.8089131526649,-0.016000000000005343,158.681,-0.747,-1.022
86,1592760000,2023-09-20,11:26:32.760,41.22140936,1.72967857,60.408,158.668,-0.732,-1.0070000000000001,1695209192759999.0,1695209192764666,1.046725515741855,-2.84129193238914,-0.018000000000000682,158.668,-0.732,-1.0070000000000001
87,1592770000,2023-09-20,11:26:32.770,41.22140907,1.7296787,60.409,158.661,-0.745,-0.9440000000000001,1695209192770000.0,1695209192774875,1.05715194955701,-2.8736462146043777,-0.017000000000003013,158.661,-0.745,-0.9440000000000001
88,1592780000,2023-09-20,11:26:32.780,41.22140878,1.72967886,60.408,158.66899999999998,-0.76,-0.87,1695209192780000.0,1695209192784973,1.0700930500752293,-2.9060372402891517,-0.018000000000000682,158.66899999999998,-0.76,-0.87
89,1592790000,2023-09-20,11:26:32.790,41.22140848,1.72967901,60.408,158.684,-0.7559999999999999,-0.818,1695209192789999.0,1695209192794853,1.082179706019815,-2.9395261937752366,-0.018000000000000682,158.684,-0.7559999999999999,-0.818
90,1592800000,2023-09-20,11:26:32.800,41.22140819,1.72967915,60.408,158.694,-0.733,-0.815,1695209192799999.0,1695209192804692,1.0934443623409607,-2.971892723813653,-0.018000000000000682,158.694,-0.733,-0.815
91,1592810000,2023-09-20,11:26:32.810,41.22140789,1.7296793,60.408,158.689,-0.713,-0.831,1695209192810000.0,1695209192814767,1.1055310184019618,-3.005381675437093,-0.018000000000000682,158.689,-0.713,-0.831
92,1592820000,2023-09-20,11:26:32.820,41.22140759,1.72967946,60.407,158.67600000000002,-0.711,-0.8170000000000001,1695209192820000.0,1695209192825039,1.118455896852538,-3.038882877677679,-0.019000000000005457,158.67600000000002,-0.711,-0.8170000000000001
93,1592830000,2023-09-20,11:26:32.830,41.22140731,1.72967959,60.408,158.673,-0.732,-0.7759999999999999,1695209192829999.0,1695209192834874,1.1288985538994893,-3.0701269851997495,-0.018000000000000682,158.673,-0.732,-0.7759999999999999
94,1592840000,2023-09-20,11:26:32.840,41.22140701,1.72967975,60.408,158.689,-0.7559999999999999,-0.7240000000000001,1695209192840000.0,1695209192844801,1.1418234325828962,-3.103628186509013,-0.018000000000000682,158.689,-0.7559999999999999,-0.7240000000000001
95,1592850000,2023-09-20,11:26:32.850,41.22140671,1.7296799,60.408,158.71200000000002,-0.767,-0.677,1695209192850000.0,1695209192854723,1.1539100891677663,-3.137117139995098,-0.018000000000000682,158.71200000000002,-0.767,-0.677
96,1592860000,2023-09-20,11:26:32.860,41.22140642,1.72968005,60.409,158.719,-0.754,-0.6679999999999999,1695209192859999.0,1695209192864768,1.166012968402356,-3.1694959178566933,-0.017000000000003013,158.719,-0.754,-0.6679999999999999
97,1592870000,2023-09-20,11:26:32.870,41.22140613,1.7296802,60.409,158.715,-0.74,-0.693,1695209192869999.0,1695209192874801,1.1781158477533609,-3.201874696649611,-0.017000000000003013,158.715,-0.74,-0.693
98,1592880000,2023-09-20,11:26:32.880,41.22140583,1.72968036,60.409,158.715,-0.758,-0.684,1695209192880000.0,1695209192884821,1.191040726902429,-3.235375897027552,-0.017000000000003013,158.715,-0.758,-0.684
99,1592890000,2023-09-20,11:26:32.890,41.22140554,1.7296805,60.41,158.726,-0.792,-0.639,1695209192890000.0,1695209192894697,1.2023053842131048,-3.2677424270659685,-0.016000000000005343,158.726,-0.792,-0.639
100,1592900000,2023-09-20,11:26:32.900,41.22140524,1.72968066,60.41,158.734,-0.816,-0.618,1695209192899999.0,1695209192904941,1.2152302635950036,-3.3012436274439096,-0.016000000000005343,158.734,-0.816,-0.618
101,1592910000,2023-09-20,11:26:32.910,41.22140494,1.72968081,60.41,158.72799999999998,-0.828,-0.609,1695209192909999.0,1695209192914815,1.2273169209365733,-3.3347325809299946,-0.016000000000005343,158.72799999999998,-0.828,-0.609
102,1592920000,2023-09-20,11:26:32.920,41.22140465,1.72968095,60.411,158.716,-0.8420000000000001,-0.604,1695209192920000.0,1695209192924819,1.2385815785382874,-3.367099110968411,-0.015000000000000568,158.716,-0.8420000000000001,-0.604
103,1592930000,2023-09-20,11:26:32.930,41.22140435,1.72968111,60.411,158.708,-0.855,-0.599,1695209192929999.0,1695209192934779,1.2515064583276398,-3.400600311346352,-0.015000000000000568,158.708,-0.855,-0.599
104,1592940000,2023-09-20,11:26:32.940,41.22140405,1.72968126,60.411,158.718,-0.856,-0.611,1695209192939999.0,1695209192944739,1.2635931159602478,-3.434089264832437,-0.015000000000000568,158.718,-0.856,-0.611
105,1592950000,2023-09-20,11:26:32.950,41.22140376,1.72968141,60.412,158.732,-0.8690000000000001,-0.622,1695209192950000.0,1695209192954689,1.2756959962425753,-3.466468042694032,-0.014000000000002899,158.732,-0.8690000000000001,-0.622
106,1592960000,2023-09-20,11:26:32.960,41.22140346,1.72968156,60.412,158.741,-0.89,-0.63,1695209192960000.0,1695209192964733,1.287782654108014,-3.4999569952487946,-0.014000000000002899,158.741,-0.89,-0.63
107,1592970000,2023-09-20,11:26:32.970,41.22140316,1.72968172,60.412,158.738,-0.914,-0.627,1695209192969999.0,1695209192974717,1.3007075343630277,-3.5334581956267357,-0.014000000000002899,158.738,-0.914,-0.627
108,1592980000,2023-09-20,11:26:32.980,41.22140288,1.72968187,60.413000000000004,158.736,-0.9229999999999999,-0.628,1695209192979999.0,1695209192984792,1.3128266375279054,-3.564726799726486,-0.012999999999998124,158.736,-0.9229999999999999,-0.628
109,1592990000,2023-09-20,11:26:32.990,41.22140258,1.72968202,60.413000000000004,158.74,-0.924,-0.6409999999999999,1695209192990000.0,1695209192994704,1.32491329574259,-3.598215751349926,-0.012999999999998124,158.74,-0.924,-0.6409999999999999
110,1593000000,2023-09-20,11:26:33.000,41.22140228,1.72968218,60.413000000000004,158.744,-0.92,-0.66,1695209193000000.0,1695209193004800,1.3378381763468497,-3.6317169535905123,-0.012999999999998124,158.744,-0.92,-0.66
111,1593010000,2023-09-20,11:26:33.010,41.22140199,1.72968233,60.413999999999994,158.737,-0.919,-0.685,1695209193009999.0,1695209193015809,1.3499410573276691,-3.66409573238343,-0.01200000000000756,158.737,-0.919,-0.685
112,1593020000,2023-09-20,11:26:33.020,41.2214017,1.72968249,60.413999999999994,158.718,-0.929,-0.687,1695209193020000.0,1695209193024857,1.362882160639856,-3.696486758068204,-0.01200000000000756,158.718,-0.929,-0.687
113,1593030000,2023-09-20,11:26:33.030,41.2214014,1.72968265,60.413999999999994,158.71200000000002,-0.956,-0.66,1695209193030000.0,1695209193034774,1.3758070415933616,-3.7299879593774676,-0.01200000000000756,158.71200000000002,-0.956,-0.66
114,1593040000,2023-09-20,11:26:33.040,41.22140111,1.72968279,60.413999999999994,158.72299999999998,-0.973,-0.649,1695209193039999.0,1695209193044805,1.387071700708475,-3.7623544884845614,-0.01200000000000756,158.72299999999998,-0.973,-0.649
115,1593050000,2023-09-20,11:26:33.050,41.22140081,1.72968295,60.413999999999994,158.749,-0.953,-0.6940000000000001,1695209193049999.0,1695209193054789,1.3999965818948112,-3.795855689793825,-0.01200000000000756,158.749,-0.953,-0.6940000000000001
116,1593060000,2023-09-20,11:26:33.060,41.22140052,1.72968311,60.413999999999994,158.773,-0.905,-0.78,1695209193060000.0,1695209193064830,1.4129376857890747,-3.8282467164099216,-0.01200000000000756,158.773,-0.905,-0.78
117,1593070000,2023-09-20,11:26:33.070,41.22140023,1.72968327,60.415,158.779,-0.866,-0.852,1695209193070000.0,1695209193074676,1.4258787896833383,-3.860637743026018,-0.011000000000002785,158.779,-0.866,-0.852
118,1593080000,2023-09-20,11:26:33.080,41.22139993,1.72968343,60.413999999999994,158.769,-0.873,-0.862,1695209193079999.0,1695209193084734,1.4388036713353358,-3.8941389434039593,-0.01200000000000756,158.769,-0.873,-0.862
119,1593090000,2023-09-20,11:26:33.090,41.22139963,1.72968359,60.413999999999994,158.756,-0.9159999999999999,-0.8109999999999999,1695209193090000.0,1695209193094784,1.451728553045541,-3.9276401437819004,-0.01200000000000756,158.756,-0.9159999999999999,-0.8109999999999999
120,1593100000,2023-09-20,11:26:33.100,41.22139935,1.72968374,60.413999999999994,158.749,-0.9540000000000001,-0.7659999999999999,1695209193100000.0,1695209193104716,1.463847657549195,-3.9589087469503284,-0.01200000000000756,158.749,-0.9540000000000001,-0.7659999999999999
121,1593110000,2023-09-20,11:26:33.110,41.22139905,1.7296839,60.413999999999994,158.752,-0.95,-0.7929999999999999,1695209193109999.0,1695209193114775,1.4767725394922309,-3.9924099491909146,-0.01200000000000756,158.752,-0.95,-0.7929999999999999
122,1593120000,2023-09-20,11:26:33.120,41.22139876,1.72968406,60.413000000000004,158.763,-0.909,-0.887,1695209193119999.0,1695209193124715,1.4897136440849863,-4.024800973944366,-0.012999999999998124,158.763,-0.909,-0.887
123,1593130000,2023-09-20,11:26:33.130,41.22139847,1.72968422,60.413999999999994,158.779,-0.862,-0.983,1695209193130000.0,1695209193134709,1.502654748794157,-4.057192001491785,-0.01200000000000756,158.779,-0.862,-0.983
124,1593140000,2023-09-20,11:26:33.140,41.22139817,1.72968438,60.413000000000004,158.795,-0.848,-1.031,1695209193140000.0,1695209193144777,1.5155796311446466,-4.090693201869726,-0.012999999999998124,158.795,-0.848,-1.031
125,1593150000,2023-09-20,11:26:33.150,41.22139788,1.72968454,60.412,158.803,-0.858,-1.037,1695209193149999.0,1695209193154763,1.5285207360284403,-4.123084228485823,-0.014000000000002899,158.803,-0.858,-1.037
126,1593160000,2023-09-20,11:26:33.160,41.2213976,1.72968472,60.413000000000004,158.809,-0.865,-1.036,1695209193159999.0,1695209193164706,1.5431545083411038,-4.154389577917755,-0.012999999999998124,158.809,-0.865,-1.036
127,1593170000,2023-09-20,11:26:33.170,41.2213973,1.72968488,60.412,158.812,-0.861,-1.051,1695209193170000.0,1695209193174721,1.5560793909826316,-4.187890777364373,-0.014000000000002899,158.812,-0.861,-1.051
128,1593180000,2023-09-20,11:26:33.180,41.22139701,1.72968504,60.411,158.813,-0.8320000000000001,-1.099,1695209193179999.0,1695209193184947,1.569020496273879,-4.220281805843115,-0.015000000000000568,158.813,-0.8320000000000001,-1.099
129,1593190000,2023-09-20,11:26:33.190,41.22139673,1.72968522,60.411,158.819,-0.809,-1.137,1695209193189999.0,1695209193194828,1.5836542689357884,-4.251587154343724,-0.015000000000000568,158.819,-0.809,-1.137
130,1593200000,2023-09-20,11:26:33.200,41.22139643,1.72968538,60.41,158.822,-0.8,-1.143,1695209193200000.0,1695209193204762,1.5965791519847699,-4.285088355652988,-0.016000000000005343,158.822,-0.8,-1.143
131,1593210000,2023-09-20,11:26:33.210,41.22139614,1.72968555,60.409,158.822,-0.799,-1.1320000000000001,1695209193210000.0,1695209193214776,1.610358480073046,-4.317491628229618,-0.017000000000003013,158.822,-0.799,-1.1320000000000001
132,1593220000,2023-09-20,11:26:33.220,41.22139586,1.72968572,60.41,158.822,-0.79,-1.1420000000000001,1695209193219999.0,1695209193224744,1.624154030752834,-4.348784729838371,-0.016000000000005343,158.822,-0.79,-1.1420000000000001
133,1593230000,2023-09-20,11:26:33.230,41.22139556,1.72968588,60.409,158.828,-0.78,-1.168,1695209193229999.0,1695209193234730,1.6370789141510613,-4.382285931147635,-0.017000000000003013,158.828,-0.78,-1.168
134,1593240000,2023-09-20,11:26:33.240,41.22139526,1.72968604,60.408,158.842,-0.7659999999999999,-1.204,1695209193240000.0,1695209193245127,1.6500037977821194,-4.415787129662931,-0.018000000000000682,158.842,-0.7659999999999999,-1.204
135,1593250000,2023-09-20,11:26:33.250,41.22139498,1.72968621,60.408,158.858,-0.747,-1.242,1695209193250000.0,1695209193254726,1.6637993488111533,-4.447080232203007,-0.018000000000000682,158.858,-0.747,-1.242
136,1593260000,2023-09-20,11:26:33.260,41.22139468,1.72968637,60.407,158.86700000000002,-0.727,-1.265,1695209193259999.0,1695209193264830,1.6767242326168343,-4.480581430718303,-0.019000000000005457,158.86700000000002,-0.727,-1.265
137,1593270000,2023-09-20,11:26:33.270,41.22139438,1.72968653,60.407,158.862,-0.723,-1.2690000000000001,1695209193270000.0,1695209193274944,1.6896491165389307,-4.514082632027566,-0.019000000000005457,158.862,-0.723,-1.2690000000000001
138,1593280000,2023-09-20,11:26:33.280,41.2213941,1.7296867,60.407,158.841,-0.7290000000000001,-1.265,1695209193280000.0,1695209193284745,1.7034446679754183,-4.545375732704997,-0.019000000000005457,158.841,-0.7290000000000001,-1.265
139,1593290000,2023-09-20,11:26:33.290,41.2213938,1.72968686,60.407,158.816,-0.7509999999999999,-1.235,1695209193289999.0,1695209193294934,1.7163695521303453,-4.578876932151616,-0.019000000000005457,158.816,-0.7509999999999999,-1.235
140,1593300000,2023-09-20,11:26:33.300,41.2213935,1.72968701,60.406000000000006,158.8,-0.777,-1.196,1695209193299999.0,1695209193304971,1.7284562141285278,-4.612365883775055,-0.01999999999999602,158.8,-0.777,-1.196
141,1593310000,2023-09-20,11:26:33.310,41.22139322,1.72968718,60.407,158.803,-0.789,-1.183,1695209193310000.0,1695209193315112,1.7422517659142613,-4.6436589835211635,-0.019000000000005457,158.803,-0.789,-1.183
142,1593320000,2023-09-20,11:26:33.320,41.22139292,1.72968733,60.407,158.819,-0.777,-1.216,1695209193320000.0,1695209193324961,1.7543384280870669,-4.677147935144603,-0.019000000000005457,158.819,-0.777,-1.216
143,1593330000,2023-09-20,11:26:33.330,41.22139262,1.72968748,60.406000000000006,158.83100000000002,-0.754,-1.264,1695209193329999.0,1695209193334802,1.7664250903762877,-4.710636886768043,-0.01999999999999602,158.83100000000002,-0.754,-1.264
144,1593340000,2023-09-20,11:26:33.340,41.22139233,1.72968765,60.407,158.828,-0.745,-1.291,1695209193340000.0,1695209193344739,1.7802044200943783,-4.743040161207318,-0.019000000000005457,158.828,-0.745,-1.291
145,1593350000,2023-09-20,11:26:33.350,41.22139203,1.7296878,60.407,158.812,-0.762,-1.284,1695209193350000.0,1695209193354723,1.7922910826164298,-4.776529112830758,-0.019000000000005457,158.812,-0.762,-1.284
146,1593360000,2023-09-20,11:26:33.360,41.22139173,1.72968795,60.407,158.8,-0.807,-1.24,1695209193359999.0,1695209193364745,1.8043777453131042,-4.810018064454198,-0.019000000000005457,158.8,-0.807,-1.24
147,1593370000,2023-09-20,11:26:33.370,41.22139144,1.72968812,60.408,158.799,-0.857,-1.186,1695209193369999.0,1695209193374728,1.8181570753804408,-4.842421338893473,-0.018000000000000682,158.799,-0.857,-1.186
148,1593380000,2023-09-20,11:26:33.380,41.22139114,1.72968827,60.408,158.799,-0.883,-1.166,1695209193380000.0,1695209193384773,1.8302437382517383,-4.875910290516913,-0.018000000000000682,158.799,-0.883,-1.166
149,1593390000,2023-09-20,11:26:33.390,41.22139084,1.72968842,60.408,158.795,-0.883,-1.176,1695209193390000.0,1695209193394772,1.8423304012976587,-4.90939924120903,-0.018000000000000682,158.795,-0.883,-1.176
150,1593400000,2023-09-20,11:26:33.400,41.22139055,1.72968857,60.409,158.785,-0.8909999999999999,-1.178,1695209193399999.0,1695209193404690,1.8544332868768834,-4.941778018139303,-0.017000000000003013,158.785,-0.8909999999999999,-1.178
151,1593410000,2023-09-20,11:26:33.410,41.22139024,1.72968872,60.409,158.774,-0.909,-1.177,1695209193409999.0,1695209193414804,1.8665037276805378,-4.976377145387232,-0.017000000000003013,158.774,-0.909,-1.177
152,1593420000,2023-09-20,11:26:33.420,41.22138994,1.72968888,60.409,158.778,-0.9470000000000001,-1.16,1695209193420000.0,1695209193424699,1.879428613523487,-5.009878343902528,-0.017000000000003013,158.778,-0.9470000000000001,-1.16
153,1593430000,2023-09-20,11:26:33.430,41.22138965,1.72968903,60.41,158.80100000000002,-0.978,-1.138,1695209193429999.0,1695209193434832,1.8915314995101653,-5.042257120832801,-0.016000000000005343,158.80100000000002,-0.978,-1.138
154,1593440000,2023-09-20,11:26:33.440,41.22138935,1.72968919,60.41,158.83,-0.986,-1.13,1695209193439999.0,1695209193444754,1.9044563855277374,-5.075758320279419,-0.016000000000005343,158.83,-0.986,-1.13
155,1593450000,2023-09-20,11:26:33.450,41.22138905,1.72968934,60.41,158.845,-0.981,-1.143,1695209193450000.0,1695209193454768,1.9165430492721498,-5.109247271902859,-0.016000000000005343,158.845,-0.981,-1.143
156,1593460000,2023-09-20,11:26:33.460,41.22138875,1.72968949,60.411,158.834,-0.9940000000000001,-1.131,1695209193460000.0,1695209193464817,1.9286297131329775,-5.142736222594976,-0.015000000000000568,158.834,-0.9940000000000001,-1.131
157,1593470000,2023-09-20,11:26:33.470,41.22138845,1.72968965,60.41,158.813,-1.037,-1.069,1695209193469999.0,1695209193474685,1.9415545994997956,-5.176237422972918,-0.016000000000005343,158.813,-1.037,-1.069
158,1593480000,2023-09-20,11:26:33.480,41.22138815,1.72968981,60.41,158.80100000000002,-1.0859999999999999,-0.992,1695209193479999.0,1695209193484706,1.9544794860994443,-5.209738622419536,-0.016000000000005343,158.80100000000002,-1.0859999999999999,-0.992
159,1593490000,2023-09-20,11:26:33.490,41.22138786,1.72968996,60.411,158.812,-1.11,-0.946,1695209193490000.0,1695209193494801,1.966582372726407,-5.242117399349809,-0.015000000000000568,158.812,-1.11,-0.946
160,1593500000,2023-09-20,11:26:33.500,41.22138755,1.72969011,60.411,158.834,-1.114,-0.937,1695209193500000.0,1695209193504790,1.9786528145777993,-5.2767165238037705,-0.015000000000000568,158.834,-1.114,-0.937
161,1593510000,2023-09-20,11:26:33.510,41.22138725,1.72969027,60.411,158.847,-1.112,-0.9740000000000001,1695209193509999.0,1695209193514757,1.9915777015849017,-5.310217724181712,-0.015000000000000568,158.847,-1.112,-0.9740000000000001
162,1593520000,2023-09-20,11:26:33.520,41.22138696,1.72969042,60.411,158.851,-1.123,-1.0170000000000001,1695209193520000.0,1695209193524646,2.00368058856111,-5.342596502974629,-0.015000000000000568,158.851,-1.123,-1.0170000000000001
163,1593530000,2023-09-20,11:26:33.530,41.22138666,1.72969058,60.41,158.858,-1.1420000000000001,-1.0270000000000001,1695209193530000.0,1695209193534721,2.016605475684628,-5.37609769962728,-0.016000000000005343,158.858,-1.1420000000000001,-1.0270000000000001
164,1593540000,2023-09-20,11:26:33.540,41.22138636,1.72969073,60.411,158.875,-1.171,-0.993,1695209193539999.0,1695209193544918,2.028692140476778,-5.40958665125072,-0.015000000000000568,158.875,-1.171,-0.993
165,1593550000,2023-09-20,11:26:33.550,41.22138606,1.72969088,60.411,158.878,-1.194,-0.96,1695209193549999.0,1695209193554690,2.0407788054435514,-5.44307560287416,-0.015000000000000568,158.878,-1.194,-0.96
166,1593560000,2023-09-20,11:26:33.560,41.22138576,1.72969103,60.41,158.842,-1.204,-0.9540000000000001,1695209193560000.0,1695209193564702,2.0528654704685323,-5.476564553566277,-0.016000000000005343,158.842,-1.204,-0.9540000000000001
167,1593570000,2023-09-20,11:26:33.570,41.22138546,1.72969119,60.41,158.791,-1.2309999999999999,-0.934,1695209193570000.0,1695209193574814,2.0657903580577113,-5.510065752081573,-0.016000000000005343,158.791,-1.2309999999999999,-0.934
168,1593580000,2023-09-20,11:26:33.580,41.22138517,1.72969134,60.41,158.77100000000002,-1.26,-0.91,1695209193579999.0,1695209193584834,2.077893245848827,-5.542444529943168,-0.016000000000005343,158.77100000000002,-1.26,-0.91
169,1593590000,2023-09-20,11:26:33.590,41.22138487,1.72969149,60.409,158.8,-1.261,-0.9229999999999999,1695209193590000.0,1695209193594855,2.0899799112812616,-5.575933479703963,-0.017000000000003013,158.8,-1.261,-0.9229999999999999
170,1593600000,2023-09-20,11:26:33.600,41.22138457,1.72969164,60.409,158.861,-1.228,-0.963,1695209193600000.0,1695209193604850,2.102066576713696,-5.609422431327403,-0.017000000000003013,158.861,-1.228,-0.963
171,1593610000,2023-09-20,11:26:33.610,41.22138427,1.72969179,60.409,158.895,-1.188,-0.9990000000000001,1695209193609999.0,1695209193614721,2.1141532423789613,-5.64291138201952,-0.017000000000003013,158.895,-1.188,-0.9990000000000001
172,1593620000,2023-09-20,11:26:33.620,41.22138397,1.72969195,60.408,158.878,-1.17,-1.002,1695209193619999.0,1695209193624749,2.127078130666632,-5.676412581466138,-0.018000000000000682,158.878,-1.17,-1.002
173,1593630000,2023-09-20,11:26:33.630,41.22138367,1.7296921,60.407,158.82299999999998,-1.204,-0.9209999999999999,1695209193630000.0,1695209193634693,2.139164796564728,-5.709901531226933,-0.019000000000005457,158.82299999999998,-1.204,-0.9209999999999999
174,1593640000,2023-09-20,11:26:33.640,41.22138338,1.72969225,60.407,158.779,-1.27,-0.785,1695209193640000.0,1695209193644845,2.1512676849379204,-5.742280309088528,-0.019000000000005457,158.779,-1.27,-0.785
175,1593650000,2023-09-20,11:26:33.650,41.22138307,1.7296924,60.406000000000006,158.77100000000002,-1.3119999999999998,-0.6920000000000001,1695209193649999.0,1695209193654850,2.163338128651958,-5.776879432611167,-0.01999999999999602,158.77100000000002,-1.3119999999999998,-0.6920000000000001
176,1593660000,2023-09-20,11:26:33.660,41.22138278,1.72969256,60.405,158.798,-1.278,-0.7070000000000001,1695209193659999.0,1695209193664746,2.1762792397639714,-5.809270459227264,-0.021000000000000796,158.798,-1.278,-0.7070000000000001
177,1593670000,2023-09-20,11:26:33.670,41.22138248,1.7296927,60.403,158.833,-1.207,-0.779,1695209193670000.0,1695209193674740,2.187527683621738,-5.842747160233557,-0.02300000000000324,158.833,-1.207,-0.779
178,1593680000,2023-09-20,11:26:33.680,41.22138218,1.72969285,60.403,158.84799999999998,-1.15,-0.828,1695209193679999.0,1695209193684783,2.199614350043703,-5.876236109994352,-0.02300000000000324,158.84799999999998,-1.15,-0.828
179,1593690000,2023-09-20,11:26:33.690,41.22138188,1.729693,60.402,158.84,-1.147,-0.799,1695209193689999.0,1695209193694779,2.2117010166984983,-5.909725061617792,-0.02400000000000091,158.84,-1.147,-0.799
180,1593700000,2023-09-20,11:26:33.700,41.22138159,1.72969315,60.4,158.82399999999998,-1.195,-0.691,1695209193700000.0,1695209193704761,2.223803905711975,-5.942103839479387,-0.026000000000003354,158.82399999999998,-1.195,-0.691
181,1593710000,2023-09-20,11:26:33.710,41.22138129,1.7296933,60.4,158.809,-1.26,-0.579,1695209193710000.0,1695209193714724,2.235890572599601,-5.9755927892401814,-0.026000000000003354,158.809,-1.26,-0.579
182,1593720000,2023-09-20,11:26:33.720,41.22138099,1.72969346,60.398999999999994,158.808,-1.272,-0.555,1695209193719999.0,1695209193724687,2.2488154619932175,-6.0090939886868,-0.02700000000000813,158.808,-1.272,-0.555
183,1593730000,2023-09-20,11:26:33.730,41.2213807,1.7296936,60.398,158.821,-1.2309999999999999,-0.612,1695209193729999.0,1695209193734786,2.2600801288499497,-6.041460516862571,-0.027999999999998693,158.821,-1.2309999999999999,-0.612
184,1593740000,2023-09-20,11:26:33.740,41.22138039,1.72969375,60.398,158.832,-1.171,-0.687,1695209193740000.0,1695209193744771,2.2721505737281404,-6.0760596403852105,-0.027999999999998693,158.832,-1.171,-0.687
185,1593750000,2023-09-20,11:26:33.750,41.2213801,1.72969391,60.397,158.829,-1.148,-0.7140000000000001,1695209193750000.0,1695209193754677,2.285091685887892,-6.108450665138662,-0.029000000000003467,158.829,-1.148,-0.7140000000000001
186,1593760000,2023-09-20,11:26:33.760,41.2213798,1.72969405,60.396,158.811,-1.178,-0.6659999999999999,1695209193759999.0,1695209193764688,2.2963401307933964,-6.141927367076278,-0.030000000000001137,158.811,-1.178,-0.6659999999999999
187,1593770000,2023-09-20,11:26:33.770,41.22137951,1.72969421,60.396,158.795,-1.246,-0.562,1695209193770000.0,1695209193774978,2.309281243244186,-6.174318392761052,-0.030000000000001137,158.795,-1.246,-0.562
188,1593780000,2023-09-20,11:26:33.780,41.2213792,1.72969436,60.396,158.796,-1.263,-0.517,1695209193780000.0,1695209193785083,2.3213516885298304,-6.208917516283691,-0.030000000000001137,158.796,-1.263,-0.517
189,1593790000,2023-09-20,11:26:33.790,41.22137891,1.72969451,60.395,158.826,-1.226,-0.5539999999999999,1695209193789999.0,1695209193794807,2.3334545786492527,-6.2412962932139635,-0.030999999999998806,158.826,-1.226,-0.5539999999999999
190,1593800000,2023-09-20,11:26:33.800,41.22137861,1.72969466,60.395,158.872,-1.168,-0.622,1695209193799999.0,1695209193804815,2.345541246526409,-6.274785242974758,-0.030999999999998806,158.872,-1.168,-0.622
191,1593810000,2023-09-20,11:26:33.810,41.22137831,1.72969482,60.394,158.89700000000002,-1.122,-0.6729999999999999,1695209193810000.0,1695209193814937,2.3584661370841786,-6.308286441490054,-0.03200000000000358,158.89700000000002,-1.122,-0.6729999999999999
192,1593820000,2023-09-20,11:26:33.820,41.22137802,1.72969497,60.394,158.876,-1.115,-0.675,1695209193820000.0,1695209193825007,2.370569027552847,-6.340665217489004,-0.03200000000000358,158.876,-1.115,-0.675
193,1593830000,2023-09-20,11:26:33.830,41.22137772,1.72969512,60.393,158.829,-1.16,-0.604,1695209193829999.0,1695209193835013,2.3826556957210414,-6.374154169112444,-0.03300000000000125,158.829,-1.16,-0.604
194,1593840000,2023-09-20,11:26:33.840,41.22137742,1.72969528,60.393,158.796,-1.227,-0.509,1695209193840000.0,1695209193844875,2.3955805867444724,-6.40765536762774,-0.03300000000000125,158.796,-1.227,-0.509
195,1593850000,2023-09-20,11:26:33.850,41.22137713,1.72969543,60.393,158.804,-1.234,-0.49200000000000005,1695209193850000.0,1695209193854820,2.407683477504179,-6.44003414362669,-0.03300000000000125,158.804,-1.234,-0.49200000000000005
196,1593860000,2023-09-20,11:26:33.860,41.22137684,1.72969559,60.393,158.845,-1.183,-0.562,1695209193859999.0,1695209193864830,2.420624591060914,-6.472425167448819,-0.03300000000000125,158.845,-1.183,-0.562
197,1593870000,2023-09-20,11:26:33.870,41.22137654,1.72969574,60.391999999999996,158.886,-1.104,-0.688,1695209193869999.0,1695209193874926,2.4327112597529776,-6.505914118140936,-0.034000000000006025,158.886,-1.104,-0.688
198,1593880000,2023-09-20,11:26:33.880,41.22137625,1.72969589,60.391000000000005,158.90200000000002,-1.041,-0.7859999999999999,1695209193880000.0,1695209193884738,2.4448141509201378,-6.538292893208563,-0.03499999999999659,158.90200000000002,-1.041,-0.7859999999999999
199,1593890000,2023-09-20,11:26:33.890,41.22137595,1.72969605,60.391000000000005,158.893,-1.03,-0.8059999999999999,1695209193890000.0,1695209193894884,2.4577390425256453,-6.571794092655182,-0.03499999999999659,158.893,-1.03,-0.8059999999999999
200,1593900000,2023-09-20,11:26:33.900,41.22137566,1.72969621,60.391000000000005,158.87,-1.061,-0.7609999999999999,1695209193899999.0,1695209193904784,2.4706801564316265,-6.604185117408633,-0.03499999999999659,158.87,-1.061,-0.7609999999999999
201,1593910000,2023-09-20,11:26:33.910,41.22137535,1.72969638,60.39,158.844,-1.1059999999999999,-0.6940000000000001,1695209193909999.0,1695209193914786,2.484427048591897,-6.638808737508953,-0.036000000000001364,158.844,-1.1059999999999999,-0.6940000000000001
202,1593920000,2023-09-20,11:26:33.920,41.22137506,1.72969654,60.39,158.81799999999998,-1.12,-0.654,1695209193920000.0,1695209193924739,2.497368162847124,-6.671199762262404,-0.036000000000001364,158.81799999999998,-1.12,-0.654
203,1593930000,2023-09-20,11:26:33.930,41.22137476,1.72969669,60.39,158.792,-1.089,-0.677,1695209193929999.0,1695209193934831,2.509454832295887,-6.704688712023199,-0.036000000000001364,158.792,-1.089,-0.677
204,1593940000,2023-09-20,11:26:33.940,41.22137446,1.72969686,60.388999999999996,158.783,-1.0390000000000001,-0.745,1695209193939999.0,1695209193944793,2.523217947105877,-6.7382021602243185,-0.03700000000000614,158.783,-1.0390000000000001,-0.745
205,1593950000,2023-09-20,11:26:33.950,41.22137417,1.72969701,60.388999999999996,158.799,-0.985,-0.8440000000000001,1695209193950000.0,1695209193954805,2.5353208390879445,-6.7705809362232685,-0.03700000000000614,158.799,-0.985,-0.8440000000000001
206,1593960000,2023-09-20,11:26:33.960,41.22137387,1.72969717,60.388000000000005,158.841,-0.9440000000000001,-0.932,1695209193960000.0,1695209193964760,2.5482457315083593,-6.804082133807242,-0.0379999999999967,158.841,-0.9440000000000001,-0.932
207,1593970000,2023-09-20,11:26:33.970,41.22137357,1.72969733,60.387,158.887,-0.912,-0.987,1695209193969999.0,1695209193974825,2.5611706240451895,-6.8375833332538605,-0.03900000000000148,158.887,-0.912,-0.987
208,1593980000,2023-09-20,11:26:33.980,41.22137327,1.7296975,60.387,158.89700000000002,-0.88,-1.011,1695209193979999.0,1695209193984790,2.5749337393790483,-6.871096778661013,-0.03900000000000148,158.89700000000002,-0.88,-1.011
209,1593990000,2023-09-20,11:26:33.990,41.22137298,1.72969765,60.386,158.861,-0.863,-0.998,1695209193990000.0,1695209193994686,2.587036631826777,-6.903475554659963,-0.03999999999999915,158.861,-0.863,-0.998
210,1594000000,2023-09-20,11:26:34.000,41.22137268,1.72969782,60.385,158.799,-0.879,-0.951,1695209194000000.0,1695209194004702,2.6007997473934665,-6.93698900192976,-0.04100000000000392,158.799,-0.879,-0.951
211,1594010000,2023-09-20,11:26:34.010,41.22137239,1.72969798,60.385,158.74,-0.9009999999999999,-0.904,1695209194009999.0,1695209194016041,2.6137408628710546,-6.969380025751889,-0.04100000000000392,158.74,-0.9009999999999999,-0.904
212,1594020000,2023-09-20,11:26:34.020,41.22137209,1.72969814,60.38399999999999,158.722,-0.907,-0.892,1695209194020000.0,1695209194024865,2.6266657559899613,-7.002881223335862,-0.0420000000000087,158.722,-0.907,-0.892
213,1594030000,2023-09-20,11:26:34.030,41.22137179,1.72969831,60.383,158.75,-0.8759999999999999,-0.9390000000000001,1695209194030000.0,1695209194034994,2.640428872022312,-7.036394669674337,-0.04299999999999926,158.75,-0.8759999999999999,-0.9390000000000001
214,1594040000,2023-09-20,11:26:34.040,41.22137149,1.72969846,60.382,158.803,-0.807,-1.041,1695209194039999.0,1695209194044863,2.652515542751644,-7.0698836194351315,-0.044000000000004036,158.803,-0.807,-1.041
215,1594050000,2023-09-20,11:26:34.050,41.2213712,1.72969862,60.382,158.845,-0.7240000000000001,-1.162,1695209194049999.0,1695209194054893,2.665456658578478,-7.102274644188583,-0.044000000000004036,158.845,-0.7240000000000001,-1.162
216,1594060000,2023-09-20,11:26:34.060,41.2213709,1.72969879,60.381,158.85399999999998,-0.67,-1.2409999999999999,1695209194060000.0,1695209194064908,2.6792197749600746,-7.13578809145838,-0.045000000000001705,158.85399999999998,-0.67,-1.2409999999999999
217,1594070000,2023-09-20,11:26:34.070,41.2213706,1.72969894,60.38,158.839,-0.6559999999999999,-1.253,1695209194070000.0,1695209194074852,2.691306446038652,-7.169277038425207,-0.045999999999999375,158.839,-0.6559999999999999,-1.253
218,1594080000,2023-09-20,11:26:34.080,41.22137031,1.7296991,60.379,158.813,-0.674,-1.208,1695209194079999.0,1695209194084814,2.70424756227294,-7.201668064109981,-0.04700000000000415,158.813,-0.674,-1.208
219,1594090000,2023-09-20,11:26:34.090,41.22137,1.72969927,60.378,158.797,-0.7040000000000001,-1.143,1695209194090000.0,1695209194094982,2.717994456703309,-7.236291685141623,-0.04800000000000182,158.797,-0.7040000000000001,-1.143
220,1594100000,2023-09-20,11:26:34.100,41.22136971,1.72969943,60.376999999999995,158.78799999999998,-0.711,-1.109,1695209194100000.0,1695209194104799,2.7309355731704272,-7.268682710826397,-0.049000000000006594,158.78799999999998,-0.711,-1.109
221,1594110000,2023-09-20,11:26:34.110,41.22136941,1.72969959,60.376000000000005,158.775,-0.6809999999999999,-1.125,1695209194109999.0,1695209194114893,2.743860467511695,-7.302183906547725,-0.04999999999999716,158.775,-0.6809999999999999,-1.125
222,1594120000,2023-09-20,11:26:34.120,41.22136911,1.72969975,60.375,158.766,-0.6509999999999999,-1.16,1695209194119999.0,1695209194124779,2.756785361969378,-7.335685105063021,-0.05100000000000193,158.766,-0.6509999999999999,-1.16
223,1594130000,2023-09-20,11:26:34.130,41.22136881,1.7296999,60.375,158.768,-0.619,-1.205,1695209194130000.0,1695209194134863,2.7688720337464474,-7.369174053892493,-0.05100000000000193,158.768,-0.619,-1.205
224,1594140000,2023-09-20,11:26:34.140,41.22136852,1.72970007,60.373999999999995,158.78799999999998,-0.591,-1.2429999999999999,1695209194140000.0,1695209194144851,2.7826513734762557,-7.401577326469123,-0.05200000000000671,158.78799999999998,-0.591,-1.2429999999999999
225,1594150000,2023-09-20,11:26:34.150,41.22136822,1.72970022,60.372,158.816,-0.573,-1.262,1695209194149999.0,1695209194154827,2.794738045602571,-7.435066276229918,-0.054000000000002046,158.816,-0.573,-1.262
226,1594160000,2023-09-20,11:26:34.160,41.22136793,1.72970037,60.371,158.83100000000002,-0.556,-1.2790000000000001,1695209194159999.0,1695209194164830,2.8068409400293604,-7.467445052228868,-0.054999999999999716,158.83100000000002,-0.556,-1.2790000000000001
227,1594170000,2023-09-20,11:26:34.170,41.22136763,1.72970053,60.37,158.832,-0.5329999999999999,-1.306,1695209194170000.0,1695209194174770,2.81976583506912,-7.500946248881519,-0.05600000000000449,158.832,-0.5329999999999999,-1.306
228,1594180000,2023-09-20,11:26:34.180,41.22136733,1.72970068,60.368,158.82,-0.519,-1.3130000000000002,1695209194179999.0,1695209194184731,2.831852507602889,-7.534435199573636,-0.05799999999999983,158.82,-0.519,-1.3130000000000002
229,1594190000,2023-09-20,11:26:34.190,41.22136703,1.72970084,60.367,158.797,-0.512,-1.278,1695209194189999.0,1695209194194924,2.8447774028172716,-7.567936396226287,-0.059000000000004604,158.797,-0.512,-1.278
230,1594200000,2023-09-20,11:26:34.200,41.22136673,1.72970099,60.36600000000001,158.764,-0.523,-1.22,1695209194200000.0,1695209194204831,2.856864075525664,-7.6014253459870815,-0.05999999999999517,158.764,-0.523,-1.22
231,1594210000,2023-09-20,11:26:34.210,41.22136644,1.72970115,60.364,158.732,-0.539,-1.189,1695209194210000.0,1695209194214815,2.8698051933315583,-7.633816370740533,-0.06200000000000472,158.732,-0.539,-1.189
232,1594220000,2023-09-20,11:26:34.220,41.22136614,1.7297013,60.363,158.714,-0.542,-1.172,1695209194219999.0,1695209194224834,2.881891866272781,-7.667305318638682,-0.06300000000000239,158.714,-0.542,-1.172
233,1594230000,2023-09-20,11:26:34.230,41.22136584,1.72970145,60.361999999999995,158.727,-0.527,-1.167,1695209194229999.0,1695209194234836,2.893978539330419,-7.700794267468154,-0.06400000000000716,158.727,-0.527,-1.167
234,1594240000,2023-09-20,11:26:34.240,41.22136554,1.7297016,60.36,158.763,-0.48,-1.208,1695209194240000.0,1695209194245185,2.9060652125044726,-7.734283217228949,-0.0660000000000025,158.763,-0.48,-1.208
235,1594250000,2023-09-20,11:26:34.250,41.22136525,1.72970176,60.358999999999995,158.80100000000002,-0.415,-1.2830000000000001,1695209194250000.0,1695209194254790,2.9190063307760283,-7.7666742419824,-0.06700000000000728,158.80100000000002,-0.415,-1.2830000000000001
236,1594260000,2023-09-20,11:26:34.260,41.22136495,1.7297019,60.358000000000004,158.822,-0.35600000000000004,-1.345,1695209194259999.0,1695209194264831,2.9302547814440913,-7.800150940194726,-0.06799999999999784,158.822,-0.35600000000000004,-1.345
237,1594270000,2023-09-20,11:26:34.270,41.22136465,1.72970206,60.356,158.817,-0.341,-1.3230000000000002,1695209194270000.0,1695209194274956,2.943179677706212,-7.8336521396413445,-0.07000000000000028,158.817,-0.341,-1.3230000000000002
238,1594280000,2023-09-20,11:26:34.280,41.22136435,1.72970222,60.354,158.80200000000002,-0.364,-1.22,1695209194280000.0,1695209194284869,2.9561045741429552,-7.867153335362673,-0.07200000000000273,158.80200000000002,-0.364,-1.22
239,1594290000,2023-09-20,11:26:34.290,41.22136405,1.72970237,60.353,158.762,-0.38,-1.117,1695209194289999.0,1695209194295066,2.9681912478408776,-7.90064228605479,-0.0730000000000004,158.762,-0.38,-1.117
240,1594300000,2023-09-20,11:26:34.300,41.22136376,1.72970252,60.351000000000006,158.715,-0.395,-1.04,1695209194299999.0,1695209194304939,2.980294143955689,-7.933021060191095,-0.07499999999999574,158.715,-0.395,-1.04
241,1594310000,2023-09-20,11:26:34.310,41.22136346,1.72970267,60.35,158.688,-0.426,-1.002,1695209194310000.0,1695209194315032,2.9923808180028573,-7.9665100099518895,-0.07600000000000051,158.688,-0.426,-1.002
242,1594320000,2023-09-20,11:26:34.320,41.22136316,1.72970283,60.349,158.705,-0.40399999999999997,-1.045,1695209194320000.0,1695209194324809,3.005305714905262,-8.000011207535863,-0.07700000000000529,158.705,-0.40399999999999997,-1.045
243,1594330000,2023-09-20,11:26:34.330,41.22136286,1.72970299,60.347,158.769,-0.327,-1.126,1695209194329999.0,1695209194334864,3.0182306118658744,-8.033512405119836,-0.07900000000000063,158.769,-0.327,-1.126
244,1594340000,2023-09-20,11:26:34.340,41.22136256,1.72970314,60.346000000000004,158.841,-0.252,-1.172,1695209194340000.0,1695209194344876,3.0303172862622887,-8.067001353017986,-0.0799999999999983,158.841,-0.252,-1.172
245,1594350000,2023-09-20,11:26:34.350,41.22136226,1.72970329,60.345,158.866,-0.214,-1.192,1695209194350000.0,1695209194354747,3.042403960658703,-8.100490303710103,-0.08100000000000307,158.866,-0.214,-1.192
246,1594360000,2023-09-20,11:26:34.360,41.22136196,1.72970344,60.343999999999994,158.82299999999998,-0.213,-1.179,1695209194359999.0,1695209194364789,3.0544906353461556,-8.133979249745607,-0.08200000000000784,158.82299999999998,-0.213,-1.179
247,1594370000,2023-09-20,11:26:34.370,41.22136166,1.72970359,60.343,158.757,-0.284,-1.0659999999999998,1695209194369999.0,1695209194374721,3.0665773099754006,-8.167468201369047,-0.08299999999999841,158.757,-0.284,-1.0659999999999998
248,1594380000,2023-09-20,11:26:34.380,41.22136136,1.72970375,60.342,158.71200000000002,-0.366,-0.9279999999999999,1695209194380000.0,1695209194384863,3.079502207634505,-8.200969397090375,-0.08400000000000318,158.71200000000002,-0.366,-0.9279999999999999
249,1594390000,2023-09-20,11:26:34.390,41.22136106,1.7297039,60.341,158.717,-0.358,-0.883,1695209194390000.0,1695209194394895,3.091588882554788,-8.23445834685117,-0.08500000000000085,158.717,-0.358,-0.883
250,1594400000,2023-09-20,11:26:34.400,41.22136076,1.72970405,60.34,158.749,-0.29600000000000004,-0.904,1695209194399999.0,1695209194404930,3.1036755576496944,-8.26794729474932,-0.08599999999999852,158.749,-0.29600000000000004,-0.904
251,1594410000,2023-09-20,11:26:34.410,41.22136046,1.7297042,60.34,158.757,-0.225,-0.9620000000000001,1695209194409999.0,1695209194414815,3.115762232861016,-8.301436244510114,-0.08599999999999852,158.757,-0.225,-0.9620000000000001
252,1594420000,2023-09-20,11:26:34.420,41.22136016,1.72970433,60.336000000000006,158.736,-0.191,-1.013,1695209194420000.0,1695209194424766,3.1261724625364877,-8.334900695830584,-0.0899999999999963,158.736,-0.191,-1.013
253,1594430000,2023-09-20,11:26:34.430,41.22135986,1.72970447,60.335,158.717,-0.215,-0.996,1695209194429999.0,1695209194434714,3.1374209151254036,-8.3683773977682,-0.09100000000000108,158.717,-0.215,-0.996
254,1594440000,2023-09-20,11:26:34.440,41.22135955,1.72970462,60.336000000000006,158.733,-0.26899999999999996,-0.897,1695209194439999.0,1695209194444686,3.1494913683854975,-8.402976519428194,-0.0899999999999963,158.733,-0.26899999999999996,-0.897
255,1594450000,2023-09-20,11:26:34.450,41.22135925,1.72970476,60.332,158.767,-0.272,-0.831,1695209194450000.0,1695209194454738,3.160739821207244,-8.436453219503164,-0.0940000000000012,158.767,-0.272,-0.831
256,1594460000,2023-09-20,11:26:34.460,41.22135894,1.72970491,60.332,158.779,-0.22899999999999998,-0.845,1695209194460000.0,1695209194464830,3.172810274758376,-8.471052343025804,-0.0940000000000012,158.779,-0.22899999999999998,-0.845
257,1594470000,2023-09-20,11:26:34.470,41.22135864,1.72970506,60.331,158.744,-0.188,-0.887,1695209194469999.0,1695209194474684,3.1848969506681897,-8.504541291855276,-0.09499999999999886,158.744,-0.188,-0.887
258,1594480000,2023-09-20,11:26:34.480,41.22135834,1.72970519,60.32899999999999,158.678,-0.20199999999999999,-0.882,1695209194479999.0,1695209194484735,3.195307180925738,-8.538005742244422,-0.09700000000000841,158.678,-0.20199999999999999,-0.882
259,1594490000,2023-09-20,11:26:34.490,41.22135804,1.72970534,60.328,158.631,-0.257,-0.807,1695209194490000.0,1695209194494706,3.207393857068382,-8.57149469293654,-0.09799999999999898,158.631,-0.257,-0.807
260,1594500000,2023-09-20,11:26:34.500,41.22135774,1.7297055,60.32899999999999,158.64,-0.324,-0.703,1695209194500000.0,1695209194504832,3.2203187561244704,-8.604995888657868,-0.09700000000000841,158.64,-0.324,-0.703
261,1594510000,2023-09-20,11:26:34.510,41.22135743,1.72970564,60.326,158.685,-0.33399999999999996,-0.684,1695209194509999.0,1695209194514721,3.231550987402443,-8.639582763426006,-0.10000000000000142,158.685,-0.33399999999999996,-0.684
262,1594520000,2023-09-20,11:26:34.520,41.22135713,1.72970579,60.327,158.72899999999998,-0.273,-0.789,1695209194520000.0,1695209194524715,3.2436376638361253,-8.673071712255478,-0.09900000000000375,158.72899999999998,-0.273,-0.789
263,1594530000,2023-09-20,11:26:34.530,41.22135683,1.72970594,60.326,158.748,-0.204,-0.92,1695209194530000.0,1695209194534639,3.2557243404444307,-8.70656066108495,-0.10000000000000142,158.748,-0.204,-0.92
