, Time(), Date, Local Time, Latitude(deg), Longitude(deg), Altitude(m), Heading(deg), Pitch(deg), Roll(deg),TimestampGPS,TimestampHDF,x,y,z,heading,pitch,roll
0,2161490000,2023-12-18,18:36:01.490,41.22123165,1.72971734,61.982,156.945,-0.941,-0.634,1702924561490000.0,1702924560497325,0.0,0.0,0.0,156.945,-0.941,-0.634
1,2161500000,2023-12-18,18:36:01.500,41.22123157,1.72971738,61.981,156.95600000000002,-0.945,-0.634,1702924561500000.0,1702924560507417,0.0032231216900981963,-0.008930384181439877,-0.0009999999999976694,156.95600000000002,-0.945,-0.634
2,2161510000,2023-12-18,18:36:01.510,41.2212315,1.72971742,61.981,156.965,-0.9420000000000001,-0.634,1702924561510000.0,1702924560517232,0.006462465389631689,-0.016750595532357693,-0.0009999999999976694,156.965,-0.9420000000000001,-0.634
3,2161520000,2023-12-18,18:36:01.520,41.22123142,1.72971746,61.981,156.974,-0.9309999999999999,-0.635,1702924561520000.0,1702924560527354,0.009685587021522224,-0.025680982507765293,-0.0009999999999976694,156.974,-0.9309999999999999,-0.635
4,2161530000,2023-12-18,18:36:01.530,41.22123135,1.72971749,61.98,156.984,-0.914,-0.637,1702924561530000.0,1702924560537411,0.01208670629421249,-0.03348894603550434,-0.0020000000000024443,156.984,-0.914,-0.637
5,2161540000,2023-12-18,18:36:01.540,41.22123127,1.72971753,61.98,156.993,-0.903,-0.636,1702924561540000.0,1702924560547498,0.015309827984310687,-0.04241933114826679,-0.0020000000000024443,156.993,-0.903,-0.636
6,2161550000,2023-12-18,18:36:01.550,41.22123119,1.72971757,61.98,157.003,-0.9079999999999999,-0.639,1702924561550000.0,1702924560557334,0.018532949674408883,-0.05134971812367439,-0.0020000000000024443,157.003,-0.9079999999999999,-0.639
7,2161560000,2023-12-18,18:36:01.560,41.22123112,1.72971761,61.979,157.012,-0.912,-0.64,1702924561560000.0,1702924560567464,0.021772293373942375,-0.05916992761194706,-0.0030000000000001137,157.012,-0.912,-0.64
8,2161570000,2023-12-18,18:36:01.570,41.22123104,1.72971765,61.978,157.02,-0.905,-0.642,1702924561570000.0,1702924560577466,0.024995415122248232,-0.06810031551867723,-0.003999999999997783,157.02,-0.905,-0.642
9,2161580000,2023-12-18,18:36:01.580,41.22123096,1.72971769,61.978,157.029,-0.89,-0.644,1702924561580000.0,1702924560587311,0.02821853681234643,-0.07703069876879454,-0.003999999999997783,157.029,-0.89,-0.644
10,2161590000,2023-12-18,18:36:01.590,41.22123088,1.72971772,61.978,157.037,-0.875,-0.6459999999999999,1702924561590000.0,1702924560597363,0.03060343413380906,-0.0859488369897008,-0.003999999999997783,157.037,-0.875,-0.6459999999999999
11,2161600000,2023-12-18,18:36:01.600,41.2212308,1.72971776,61.977,157.046,-0.8740000000000001,-0.648,1702924561600000.0,1702924560607252,0.033826555823907256,-0.09487922303378582,-0.005000000000002558,157.046,-0.8740000000000001,-0.648
12,2161610000,2023-12-18,18:36:01.610,41.22123073,1.7297178,61.977,157.055,-0.879,-0.65,1702924561610000.0,1702924560617295,0.03706589963985607,-0.10269943345338106,-0.005000000000002558,157.055,-0.879,-0.65
13,2161620000,2023-12-18,18:36:01.620,41.22123065,1.72971784,61.976000000000006,157.063,-0.8759999999999999,-0.649,1702924561620000.0,1702924560627366,0.04028902138816193,-0.11162981949746609,-0.005999999999993122,157.063,-0.8759999999999999,-0.649
14,2161630000,2023-12-18,18:36:01.630,41.22123057,1.72971788,61.976000000000006,157.072,-0.8640000000000001,-0.649,1702924561629999.0,1702924560637235,0.043512143078260124,-0.12056020554155111,-0.005999999999993122,157.072,-0.8640000000000001,-0.649
15,2161640000,2023-12-18,18:36:01.640,41.22123049,1.72971792,61.976000000000006,157.08100000000002,-0.847,-0.6509999999999999,1702924561639999.0,1702924560647271,0.04673526488477364,-0.12949059065431356,-0.005999999999993122,157.08100000000002,-0.847,-0.6509999999999999
16,2161650000,2023-12-18,18:36:01.650,41.2212304,1.72971796,61.975,157.09,-0.8420000000000001,-0.649,1702924561649999.0,1702924560657352,0.049942164681851864,-0.13953114952892065,-0.006999999999997897,157.09,-0.8420000000000001,-0.649
17,2161660000,2023-12-18,18:36:01.660,41.22123032,1.729718,61.975,157.1,-0.85,-0.65,1702924561659999.0,1702924560667441,0.05316528643015772,-0.14846153650432825,-0.006999999999997897,157.1,-0.85,-0.65
18,2161670000,2023-12-18,18:36:01.670,41.22123024,1.72971804,61.975,157.108,-0.855,-0.647,1702924561669999.0,1702924560677285,0.0563884082948789,-0.1573919216170907,-0.006999999999997897,157.108,-0.855,-0.647
19,2161680000,2023-12-18,18:36:01.680,41.22123016,1.72971808,61.975,157.11700000000002,-0.8490000000000001,-0.644,1702924561679999.0,1702924560687358,0.05961153010139242,-0.16632230766117573,-0.006999999999997897,157.11700000000002,-0.8490000000000001,-0.644
20,2161690000,2023-12-18,18:36:01.690,41.22123007,1.72971812,61.974,157.126,-0.8340000000000001,-0.643,1702924561690000.0,1702924560697234,0.06281842989847064,-0.1763628674671054,-0.008000000000002672,157.126,-0.8340000000000001,-0.643
21,2161700000,2023-12-18,18:36:01.700,41.22122999,1.72971816,61.974,157.134,-0.8240000000000001,-0.638,1702924561700000.0,1702924560707258,0.06604155170498416,-0.18529325257986784,-0.008000000000002672,157.134,-0.8240000000000001,-0.638
22,2161710000,2023-12-18,18:36:01.710,41.2212299,1.72971821,61.974,157.144,-0.826,-0.635,1702924561710000.0,1702924560717346,0.07008667598711327,-0.19534606114029884,-0.008000000000002672,157.144,-0.826,-0.635
23,2161720000,2023-12-18,18:36:01.720,41.22122982,1.72971824,61.973,157.15200000000002,-0.8270000000000001,-0.631,1702924561720000.0,1702924560727231,0.07247157336678356,-0.20426419842988253,-0.009000000000000341,157.15200000000002,-0.8270000000000001,-0.631
24,2161730000,2023-12-18,18:36:01.730,41.22122973,1.72971829,61.974,157.159,-0.8240000000000001,-0.625,1702924561730000.0,1702924560737245,0.07651669770712033,-0.21431700512766838,-0.008000000000002672,157.159,-0.8240000000000001,-0.625
25,2161740000,2023-12-18,18:36:01.740,41.22122965,1.72971833,61.973,157.167,-0.816,-0.622,1702924561740000.0,1702924560747327,0.07973981957184151,-0.2232473911717534,-0.009000000000000341,157.167,-0.816,-0.622
26,2161750000,2023-12-18,18:36:01.750,41.22122956,1.72971837,61.973,157.173,-0.8059999999999999,-0.616,1702924561750000.0,1702924560757222,0.08294671942712739,-0.23328795097768307,-0.009000000000000341,157.173,-0.8059999999999999,-0.616
27,2161760000,2023-12-18,18:36:01.760,41.22122947,1.72971841,61.973,157.18,-0.807,-0.61,1702924561760000.0,1702924560767266,0.08615361934062093,-0.24332850985229015,-0.009000000000000341,157.18,-0.807,-0.61
28,2161770000,2023-12-18,18:36:01.770,41.22122938,1.72971845,61.973,157.187,-0.8109999999999999,-0.604,1702924561770000.0,1702924560777387,0.08936051919590682,-0.2533690705895424,-0.009000000000000341,157.187,-0.8109999999999999,-0.604
29,2161780000,2023-12-18,18:36:01.780,41.2212293,1.72971849,61.972,157.192,-0.81,-0.596,1702924561780000.0,1702924560787401,0.092583641060628,-0.26229945570230484,-0.00999999999999801,157.192,-0.81,-0.596
30,2161790000,2023-12-18,18:36:01.790,41.22122921,1.72971853,61.972,157.19799999999998,-0.804,-0.589,1702924561790000.0,1702924560797489,0.09579054097412154,-0.2723400155082345,-0.00999999999999801,157.19799999999998,-0.804,-0.589
31,2161800000,2023-12-18,18:36:01.800,41.22122912,1.72971857,61.972,157.204,-0.795,-0.58,1702924561800000.0,1702924560807605,0.09899744088761508,-0.28238057531416416,-0.00999999999999801,157.204,-0.795,-0.58
32,2161810000,2023-12-18,18:36:01.810,41.22122903,1.72971861,61.972,157.209,-0.7929999999999999,-0.569,1702924561810000.0,1702924560817636,0.10220434080110863,-0.2924211351200938,-0.00999999999999801,157.209,-0.7929999999999999,-0.569
33,2161820000,2023-12-18,18:36:01.820,41.22122894,1.72971865,61.972,157.214,-0.792,-0.56,1702924561820000.0,1702924560827460,0.10541124071460217,-0.3024616939947009,-0.00999999999999801,157.214,-0.792,-0.56
34,2161830000,2023-12-18,18:36:01.830,41.22122885,1.72971869,61.972,157.218,-0.79,-0.547,1702924561830000.0,1702924560837343,0.10861814068630338,-0.312502252869308,-0.00999999999999801,157.218,-0.79,-0.547
35,2161840000,2023-12-18,18:36:01.840,41.22122877,1.72971873,61.971000000000004,157.222,-0.79,-0.536,1702924561840000.0,1702924560847378,0.11184126266743988,-0.321432638913393,-0.01099999999999568,157.222,-0.79,-0.536
36,2161850000,2023-12-18,18:36:01.850,41.22122867,1.72971877,61.971000000000004,157.227,-0.7879999999999999,-0.525,1702924561850000.0,1702924560857257,0.11503194062970579,-0.3325833734124899,-0.01099999999999568,157.227,-0.7879999999999999,-0.525
37,2161860000,2023-12-18,18:36:01.860,41.22122858,1.72971882,61.971000000000004,157.231,-0.784,-0.512,1702924561860000.0,1702924560867269,0.11907706508645788,-0.3426361810415983,-0.01099999999999568,157.231,-0.784,-0.512
38,2161870000,2023-12-18,18:36:01.870,41.22122849,1.72971886,61.971000000000004,157.235,-0.782,-0.502,1702924561870000.0,1702924560877343,0.12228396499995142,-0.352676740847528,-0.01099999999999568,157.235,-0.782,-0.502
39,2161880000,2023-12-18,18:36:01.880,41.2212284,1.7297189,61.971000000000004,157.239,-0.778,-0.491,1702924561879999.0,1702924560887250,0.1254908650298603,-0.36271730065345764,-0.01099999999999568,157.239,-0.778,-0.491
40,2161890000,2023-12-18,18:36:01.890,41.22122831,1.72971894,61.971000000000004,157.243,-0.7809999999999999,-0.48,1702924561889999.0,1702924560897268,0.1286977650015615,-0.37275785952806473,-0.01099999999999568,157.243,-0.7809999999999999,-0.48
41,2161900000,2023-12-18,18:36:01.900,41.22122822,1.72971898,61.97,157.247,-0.7829999999999999,-0.47200000000000003,1702924561899999.0,1702924560907373,0.13190466503147036,-0.3827984193339944,-0.012000000000000455,157.247,-0.7829999999999999,-0.47200000000000003
42,2161910000,2023-12-18,18:36:01.910,41.22122815,1.72971903,61.97,157.249,-0.778,-0.462,1702924561909999.0,1702924560917436,0.1359822335653007,-0.390630878508091,-0.012000000000000455,157.249,-0.778,-0.462
43,2161920000,2023-12-18,18:36:01.920,41.22122806,1.72971908,61.97,157.253,-0.774,-0.45399999999999996,1702924561919999.0,1702924560927277,0.14002735808026046,-0.400683687068522,-0.012000000000000455,157.253,-0.774,-0.45399999999999996
44,2161930000,2023-12-18,18:36:01.930,41.22122797,1.72971912,61.97,157.257,-0.7659999999999999,-0.44799999999999995,1702924561929999.0,1702924560937356,0.14323425811016932,-0.41072424594312906,-0.012000000000000455,157.257,-0.7659999999999999,-0.44799999999999995
45,2161940000,2023-12-18,18:36:01.940,41.2212279,1.72971917,61.97,157.26,-0.767,-0.44,1702924561940000.0,1702924560947249,0.14731182664399967,-0.4185567069798708,-0.012000000000000455,157.26,-0.767,-0.44
46,2161950000,2023-12-18,18:36:01.950,41.2212278,1.72971922,61.97,157.264,-0.774,-0.436,1702924561950000.0,1702924560957257,0.15134072920773178,-0.42971968930214643,-0.012000000000000455,157.264,-0.774,-0.436
47,2161960000,2023-12-18,18:36:01.960,41.22122771,1.72971926,61.968999999999994,157.267,-0.7759999999999999,-0.433,1702924561960000.0,1702924560967333,0.15454762923764065,-0.4397602481767535,-0.01300000000000523,157.267,-0.7759999999999999,-0.433
48,2161970000,2023-12-18,18:36:01.970,41.22122764,1.72971931,61.968999999999994,157.27,-0.774,-0.431,1702924561970000.0,1702924560977235,0.158625197771471,-0.4475927082821727,-0.01300000000000523,157.27,-0.774,-0.431
49,2161980000,2023-12-18,18:36:01.980,41.22122754,1.72971936,61.968999999999994,157.274,-0.768,-0.431,1702924561980000.0,1702924560987252,0.16265410045161843,-0.45875568874180317,-0.01300000000000523,157.274,-0.768,-0.431
50,2161990000,2023-12-18,18:36:01.990,41.22122745,1.72971941,61.968,157.27700000000002,-0.765,-0.429,1702924561990000.0,1702924560997317,0.16669922502478585,-0.46880849823355675,-0.013999999999995794,157.27700000000002,-0.765,-0.429
51,2162000000,2023-12-18,18:36:02.000,41.22122738,1.72971946,61.968,157.281,-0.768,-0.43,1702924562000000.0,1702924561007396,0.17077679361682385,-0.47664095740765333,-0.013999999999995794,157.281,-0.768,-0.43
52,2162010000,2023-12-18,18:36:02.010,41.22122728,1.72971951,61.968,157.284,-0.7659999999999999,-0.43200000000000005,1702924562009999.0,1702924561017251,0.17480569623876363,-0.4878039387986064,-0.013999999999995794,157.284,-0.7659999999999999,-0.43200000000000005
53,2162020000,2023-12-18,18:36:02.020,41.22122719,1.72971956,61.967,157.286,-0.762,-0.433,1702924562020000.0,1702924561027279,0.1788508208701387,-0.4978567473590374,-0.015000000000000568,157.286,-0.762,-0.433
54,2162030000,2023-12-18,18:36:02.030,41.22122712,1.72971961,61.967,157.29,-0.755,-0.441,1702924562029999.0,1702924561037356,0.1829283894621767,-0.505689206533134,-0.015000000000000568,157.29,-0.755,-0.441
55,2162040000,2023-12-18,18:36:02.040,41.22122702,1.72971966,61.967,157.291,-0.7559999999999999,-0.446,1702924562040000.0,1702924561048483,0.1869572922005318,-0.5168521888554096,-0.015000000000000568,157.291,-0.7559999999999999,-0.446
56,2162050000,2023-12-18,18:36:02.050,41.22122693,1.72971972,61.966,157.29399999999998,-0.764,-0.45399999999999996,1702924562049999.0,1702924561057523,0.19184064137516543,-0.5269172452390194,-0.015999999999998238,157.29399999999998,-0.764,-0.45399999999999996
57,2162060000,2023-12-18,18:36:02.060,41.22122685,1.72971977,61.966,157.297,-0.762,-0.465,1702924562060000.0,1702924561067591,0.1959019880159758,-0.5358598781749606,-0.015999999999998238,157.297,-0.762,-0.465
58,2162070000,2023-12-18,18:36:02.070,41.22122676,1.72971983,61.965,157.298,-0.753,-0.474,1702924562069999.0,1702924561077423,0.2007853372488171,-0.5459249345585704,-0.016999999999995907,157.298,-0.753,-0.474
59,2162080000,2023-12-18,18:36:02.080,41.22122666,1.72971988,61.965,157.30100000000002,-0.745,-0.488,1702924562080000.0,1702924561087337,0.2048142399871722,-0.557087916880846,-0.016999999999995907,157.30100000000002,-0.745,-0.488
60,2162090000,2023-12-18,18:36:02.090,41.22122658,1.72971994,61.964,157.30200000000002,-0.7390000000000001,-0.498,1702924562089999.0,1702924561097410,0.2097138111712411,-0.5660427985712886,-0.018000000000000682,157.30200000000002,-0.7390000000000001,-0.498
61,2162100000,2023-12-18,18:36:02.100,41.22122649,1.72971999,61.964,157.304,-0.7440000000000001,-0.509,1702924562100000.0,1702924561107393,0.21375893586082384,-0.5760956052690744,-0.018000000000000682,157.304,-0.7440000000000001,-0.509
62,2162110000,2023-12-18,18:36:02.110,41.22122639,1.72972005,61.963,157.306,-0.742,-0.522,1702924562109999.0,1702924561117295,0.21862606320064515,-0.587270837277174,-0.01899999999999835,157.306,-0.742,-0.522
63,2162120000,2023-12-18,18:36:02.120,41.22122631,1.72972011,61.963,157.306,-0.732,-0.532,1702924562120000.0,1702924561127306,0.2235256345011294,-0.596225718036294,-0.01899999999999835,157.306,-0.732,-0.532
64,2162130000,2023-12-18,18:36:02.130,41.22122621,1.72972016,61.961999999999996,157.30700000000002,-0.722,-0.545,1702924562129999.0,1702924561137382,0.2275545372394845,-0.6073887003585696,-0.020000000000003126,157.30700000000002,-0.722,-0.545
65,2162140000,2023-12-18,18:36:02.140,41.22122611,1.72972021,61.961999999999996,157.30700000000002,-0.713,-0.557,1702924562140000.0,1702924561147463,0.2315834400942549,-0.6185516808182001,-0.020000000000003126,157.30700000000002,-0.713,-0.557
66,2162150000,2023-12-18,18:36:02.150,41.22122603,1.72972027,61.961999999999996,157.30700000000002,-0.713,-0.568,1702924562149999.0,1702924561157295,0.23648301139473915,-0.6275065643712878,-0.020000000000003126,157.30700000000002,-0.713,-0.568
67,2162160000,2023-12-18,18:36:02.160,41.22122593,1.72972032,61.961999999999996,157.30700000000002,-0.7140000000000001,-0.5820000000000001,1702924562160000.0,1702924561167387,0.24051191424950957,-0.6386695448309183,-0.020000000000003126,157.30700000000002,-0.7140000000000001,-0.5820000000000001
68,2162170000,2023-12-18,18:36:02.170,41.22122583,1.72972038,61.961000000000006,157.305,-0.708,-0.5920000000000001,1702924562169999.0,1702924561177237,0.24537904153112322,-0.6498447759076953,-0.02099999999999369,157.305,-0.708,-0.5920000000000001
69,2162180000,2023-12-18,18:36:02.180,41.22122575,1.72972043,61.961000000000006,157.305,-0.6970000000000001,-0.604,1702924562180000.0,1702924561187280,0.24944038840476424,-0.6587874088436365,-0.02099999999999369,157.305,-0.6970000000000001,-0.604
70,2162190000,2023-12-18,18:36:02.190,41.22122565,1.72972048,61.96,157.303,-0.685,-0.617,1702924562189999.0,1702924561197371,0.25346929125953466,-0.6699503911659122,-0.021999999999998465,157.303,-0.685,-0.617
71,2162200000,2023-12-18,18:36:02.200,41.22122555,1.72972054,61.96,157.3,-0.68,-0.624,1702924562200000.0,1702924561207236,0.2583364186575636,-0.6811256213113666,-0.021999999999998465,157.3,-0.68,-0.624
72,2162210000,2023-12-18,18:36:02.210,41.22122546,1.72972059,61.96,157.299,-0.677,-0.636,1702924562209999.0,1702924561217287,0.26238154352176934,-0.691178428940475,-0.021999999999998465,157.299,-0.677,-0.636
73,2162220000,2023-12-18,18:36:02.220,41.22122536,1.72972064,61.96,157.295,-0.67,-0.643,1702924562220000.0,1702924561227368,0.2664104464347474,-0.7023414112627506,-0.021999999999998465,157.295,-0.67,-0.643
74,2162230000,2023-12-18,18:36:02.230,41.22122526,1.7297207,61.958999999999996,157.293,-0.662,-0.652,1702924562229999.0,1702924561237229,0.27127757389098406,-0.713516641408205,-0.02300000000000324,157.293,-0.662,-0.652
75,2162240000,2023-12-18,18:36:02.240,41.22122517,1.72972075,61.958999999999996,157.29,-0.6509999999999999,-0.6609999999999999,1702924562240000.0,1702924561247270,0.2753226987551898,-0.7235694490373135,-0.02300000000000324,157.29,-0.6509999999999999,-0.6609999999999999
76,2162250000,2023-12-18,18:36:02.250,41.22122506,1.7297208,61.958999999999996,157.286,-0.648,-0.664,1702924562250000.0,1702924561257345,0.2793353797751479,-0.7358426041901112,-0.02300000000000324,157.286,-0.648,-0.664
77,2161260000,2023-12-18,18:36:01.260,41.22122496,1.72972086,61.958,157.283,-0.652,-0.67,1702924561260000.0,1702924561267222,0.2842025072895922,-0.7470178343355656,-0.02400000000000091,157.283,-0.652,-0.67
78,2161270000,2023-12-18,18:36:01.270,41.22122487,1.72972091,61.958,157.281,-0.65,-0.672,1702924561270000.0,1702924561277258,0.28824763221200556,-0.757070641964674,-0.02400000000000091,157.281,-0.65,-0.672
79,2161280000,2023-12-18,18:36:01.280,41.22122476,1.72972097,61.958,157.278,-0.6409999999999999,-0.6729999999999999,1702924561280000.0,1702924561287604,0.29309853771701455,-0.7693560477346182,-0.02400000000000091,157.278,-0.6409999999999999,-0.6729999999999999
80,2161290000,2023-12-18,18:36:01.290,41.22122465,1.72972102,61.957,157.276,-0.629,-0.675,1702924561290000.0,1702924561297419,0.2971112187951803,-0.7816292019560933,-0.02499999999999858,157.276,-0.629,-0.675
81,2161300000,2023-12-18,18:36:01.300,41.22122456,1.72972107,61.957,157.273,-0.626,-0.67,1702924561300000.0,1702924561307500,0.30115634377580136,-0.7916820105165243,-0.02499999999999858,157.273,-0.626,-0.67
82,2161310000,2023-12-18,18:36:01.310,41.22122445,1.72972113,61.957,157.27100000000002,-0.634,-0.669,1702924561310000.0,1702924561317323,0.3060072493972257,-0.8039674144238234,-0.02499999999999858,157.27100000000002,-0.634,-0.669
83,2161320000,2023-12-18,18:36:01.320,41.22122434,1.72972118,61.956,157.269,-0.639,-0.665,1702924561320000.0,1702924561327419,0.31001993047539145,-0.8162405714392662,-0.02599999999999625,157.269,-0.639,-0.665
84,2161330000,2023-12-18,18:36:01.330,41.22122425,1.72972123,61.956,157.267,-0.634,-0.6579999999999999,1702924561330000.0,1702924561337487,0.31406505551422015,-0.8262933781370521,-0.02599999999999625,157.267,-0.634,-0.6579999999999999
85,2161340000,2023-12-18,18:36:01.340,41.22122414,1.72972128,61.956,157.266,-0.625,-0.655,1702924561340000.0,1702924561347576,0.31807773653417826,-0.8385665342211723,-0.02599999999999625,157.266,-0.625,-0.655
86,2161350000,2023-12-18,18:36:01.350,41.22122403,1.72972134,61.955,157.263,-0.623,-0.645,1702924561350000.0,1702924561357393,0.3229286422720179,-0.8508519381284714,-0.027000000000001023,157.263,-0.623,-0.645
87,2161360000,2023-12-18,18:36:01.360,41.22122393,1.72972139,61.955,157.262,-0.636,-0.64,1702924561360000.0,1702924561367261,0.32695754535961896,-0.8620149195194244,-0.027000000000001023,157.262,-0.636,-0.64
88,2161370000,2023-12-18,18:36:01.370,41.22122382,1.72972144,61.955,157.26,-0.6509999999999999,-0.635,1702924561370000.0,1702924561377348,0.3309702264959924,-0.8742880756035447,-0.027000000000001023,157.26,-0.6509999999999999,-0.635
89,2161380000,2023-12-18,18:36:01.380,41.22122371,1.7297215,61.95399999999999,157.257,-0.653,-0.629,1702924561379999.0,1702924561387393,0.33582113223383203,-0.8865734795108438,-0.028000000000005798,157.257,-0.653,-0.629
90,2161390000,2023-12-18,18:36:01.390,41.22122361,1.72972155,61.95399999999999,157.257,-0.642,-0.629,1702924561389999.0,1702924561397287,0.33985003537964076,-0.8977364618331194,-0.028000000000005798,157.257,-0.642,-0.629
91,2161400000,2023-12-18,18:36:01.400,41.22122349,1.72972161,61.95399999999999,157.255,-0.635,-0.624,1702924561399999.0,1702924561407313,0.34468471916625276,-0.9111320404335856,-0.028000000000005798,157.255,-0.635,-0.624
92,2161410000,2023-12-18,18:36:01.410,41.22122338,1.72972167,61.953,157.254,-0.648,-0.625,1702924561409999.0,1702924561417411,0.34953562496230006,-0.9234174443408847,-0.028999999999996362,157.254,-0.648,-0.625
93,2161420000,2023-12-18,18:36:01.420,41.22122327,1.72972171,61.953,157.255,-0.669,-0.627,1702924561419999.0,1702924561427271,0.3527100816136226,-0.935678350739181,-0.028999999999996362,157.255,-0.669,-0.627
94,2161430000,2023-12-18,18:36:01.430,41.22122316,1.72972177,61.953,157.253,-0.682,-0.629,1702924561429999.0,1702924561437342,0.3575609874096699,-0.9479637555778027,-0.028999999999996362,157.253,-0.682,-0.629
95,2161440000,2023-12-18,18:36:01.440,41.22122304,1.72972183,61.952,157.254,-0.685,-0.638,1702924561439999.0,1702924561447410,0.36239567125448957,-0.9613593351095915,-0.030000000000001137,157.254,-0.685,-0.638
96,2161450000,2023-12-18,18:36:01.450,41.22122294,1.72972188,61.952,157.254,-0.6890000000000001,-0.639,1702924561449999.0,1702924561457280,0.36642457445850596,-0.972522315569222,-0.030000000000001137,157.254,-0.6890000000000001,-0.639
97,2161460000,2023-12-18,18:36:01.460,41.22122282,1.72972194,61.952,157.252,-0.6970000000000001,-0.645,1702924561459999.0,1702924561467305,0.3712592583615333,-0.9859178951010108,-0.030000000000001137,157.252,-0.6970000000000001,-0.645
98,2161470000,2023-12-18,18:36:01.470,41.2212227,1.729722,61.951,157.249,-0.705,-0.649,1702924561470000.0,1702924561477394,0.3760939422645606,-0.9993134727701545,-0.030999999999998806,157.249,-0.705,-0.649
99,2161480000,2023-12-18,18:36:01.480,41.2212226,1.72972205,61.951,157.246,-0.7090000000000001,-0.65,1702924561480000.0,1702924561487256,0.38012284552678466,-1.0104764550924301,-0.030999999999998806,157.246,-0.7090000000000001,-0.65
100,2161490000,2023-12-18,18:36:01.490,41.22122248,1.72972211,61.951,157.24200000000002,-0.716,-0.6609999999999999,1702924561490000.0,1702924561497298,0.38495752948801965,-1.0238720308989286,-0.030999999999998806,157.24200000000002,-0.716,-0.6609999999999999
101,2161500000,2023-12-18,18:36:01.500,41.22122236,1.72972218,61.95,157.235,-0.728,-0.6659999999999999,1702924561500000.0,1702924561507386,0.3906304379925132,-1.0372798591852188,-0.031999999999996476,157.235,-0.728,-0.6659999999999999
102,2161510000,2023-12-18,18:36:01.510,41.22122225,1.72972223,61.95,157.22799999999998,-0.7390000000000001,-0.672,1702924561510000.0,1702924561517272,0.3946431194199249,-1.049553015269339,-0.031999999999996476,157.22799999999998,-0.7390000000000001,-0.672
103,2161520000,2023-12-18,18:36:01.520,41.22122213,1.72972229,61.949,157.221,-0.742,-0.6759999999999999,1702924561520000.0,1702924561527280,0.3994778033811599,-1.0629485920071602,-0.03300000000000125,157.221,-0.742,-0.6759999999999999
104,2161530000,2023-12-18,18:36:01.530,41.22122202,1.72972235,61.949,157.211,-0.738,-0.672,1702924561530000.0,1702924561537622,0.4043287093518302,-1.0752339959144592,-0.03300000000000125,157.211,-0.738,-0.672
105,2161540000,2023-12-18,18:36:01.540,41.22122191,1.7297224,61.948,157.202,-0.7340000000000001,-0.6709999999999999,1702924561540000.0,1702924561547224,0.4083413907792419,-1.0875071519985795,-0.03399999999999892,157.202,-0.7340000000000001,-0.6709999999999999
106,2161550000,2023-12-18,18:36:01.550,41.22122179,1.72972246,61.948,157.191,-0.737,-0.6629999999999999,1702924561550000.0,1702924561557550,0.41317607479868457,-1.1009027305990458,-0.03399999999999892,157.191,-0.737,-0.6629999999999999
107,2161560000,2023-12-18,18:36:01.560,41.22122167,1.72972252,61.946999999999996,157.18200000000002,-0.746,-0.6579999999999999,1702924561560000.0,1702924561567623,0.4180107588763349,-1.1142983082681894,-0.035000000000003695,157.18200000000002,-0.746,-0.6579999999999999
108,2161570000,2023-12-18,18:36:01.570,41.22122156,1.72972257,61.946999999999996,157.174,-0.754,-0.654,1702924561570000.0,1702924561577461,0.42202344036195427,-1.1265714643523097,-0.035000000000003695,157.174,-0.754,-0.654
109,2161580000,2023-12-18,18:36:01.580,41.22122144,1.72972263,61.946000000000005,157.16299999999998,-0.753,-0.648,1702924561580000.0,1702924561587519,0.4268581244396046,-1.139967042952776,-0.03599999999999426,157.16299999999998,-0.753,-0.648
110,2161590000,2023-12-18,18:36:01.590,41.22122132,1.7297227,61.946000000000005,157.153,-0.74,-0.643,1702924561590000.0,1702924561597368,0.43253103317692876,-1.1533748684450984,-0.03599999999999426,157.153,-0.74,-0.643
111,2161600000,2023-12-18,18:36:01.600,41.2212212,1.72972275,61.946000000000005,157.143,-0.727,-0.634,1702924561600000.0,1702924561607444,0.4365274927695282,-1.1667581982910633,-0.03599999999999426,157.143,-0.727,-0.634
112,2161610000,2023-12-18,18:36:01.610,41.22122108,1.72972281,61.945,157.13299999999998,-0.723,-0.63,1702924561610000.0,1702924561617286,0.44136217690538615,-1.1801537768915296,-0.036999999999999034,157.13299999999998,-0.723,-0.63
113,2161620000,2023-12-18,18:36:01.620,41.22122096,1.72972287,61.943999999999996,157.124,-0.732,-0.626,1702924561620000.0,1702924561627348,0.4461968610994518,-1.1935493554919958,-0.03800000000000381,157.124,-0.732,-0.626
114,2161630000,2023-12-18,18:36:01.630,41.22122085,1.72972292,61.943999999999996,157.11700000000002,-0.737,-0.622,1702924561629999.0,1702924561637440,0.4502095425850712,-1.205822509713471,-0.03800000000000381,157.11700000000002,-0.737,-0.622
115,2161640000,2023-12-18,18:36:01.640,41.22122073,1.72972298,61.943000000000005,157.11,-0.727,-0.62,1702924561639999.0,1702924561647276,0.45504422683734447,-1.2192180883139372,-0.03899999999999437,157.11,-0.727,-0.62
116,2161650000,2023-12-18,18:36:01.650,41.2212206,1.72972304,61.943000000000005,157.10399999999998,-0.71,-0.614,1702924561649999.0,1702924561657336,0.4598626891383901,-1.2337238397449255,-0.03899999999999437,157.10399999999998,-0.71,-0.614
117,2161660000,2023-12-18,18:36:01.660,41.22122049,1.7297231,61.945,157.1,-0.6990000000000001,-0.606,1702924561659999.0,1702924561667419,0.46471359534189105,-1.2460092445835471,-0.036999999999999034,157.1,-0.6990000000000001,-0.606
118,2161670000,2023-12-18,18:36:01.670,41.22122036,1.72972316,61.943999999999996,157.096,-0.703,-0.594,1702924561669999.0,1702924561677264,0.4695320576429367,-1.2605149978771806,-0.03800000000000381,157.096,-0.703,-0.594
119,2161680000,2023-12-18,18:36:01.680,41.22122024,1.72972322,61.943000000000005,157.093,-0.7070000000000001,-0.581,1702924561679999.0,1702924561687326,0.4743667420116253,-1.273910573683679,-0.03899999999999437,157.093,-0.7070000000000001,-0.581
120,2161690000,2023-12-18,18:36:01.690,41.22122012,1.72972328,61.945,157.091,-0.7,-0.5660000000000001,1702924561690000.0,1702924561697418,0.47920142632210627,-1.287306153215468,-0.036999999999999034,157.091,-0.7,-0.5660000000000001
121,2161700000,2023-12-18,18:36:01.700,41.22122,1.72972334,61.945,157.089,-0.6859999999999999,-0.547,1702924561700000.0,1702924561707266,0.4840361106907949,-1.3007017308846116,-0.036999999999999034,157.089,-0.6859999999999999,-0.547
122,2161710000,2023-12-18,18:36:01.710,41.22121987,1.7297234,61.943999999999996,157.08700000000002,-0.6779999999999999,-0.527,1702924561710000.0,1702924561717320,0.48885457299184054,-1.3152074832469225,-0.03800000000000381,157.08700000000002,-0.6779999999999999,-0.527
123,2161720000,2023-12-18,18:36:01.720,41.22121975,1.72972345,61.946000000000005,157.083,-0.6859999999999999,-0.5,1702924561720000.0,1702924561727409,0.4928510328172706,-1.3285908121615648,-0.03599999999999426,157.083,-0.6859999999999999,-0.5
124,2161730000,2023-12-18,18:36:01.730,41.22121962,1.72972351,61.945,157.079,-0.6970000000000001,-0.469,1702924561730000.0,1702924561737260,0.4976694951765239,-1.3430965645238757,-0.036999999999999034,157.079,-0.6970000000000001,-0.469
125,2161740000,2023-12-18,18:36:01.740,41.2212195,1.72972357,61.945,157.075,-0.6990000000000001,-0.43200000000000005,1702924561740000.0,1702924561747330,0.5025041796616279,-1.356492143124342,-0.036999999999999034,157.075,-0.6990000000000001,-0.43200000000000005
126,2161750000,2023-12-18,18:36:01.750,41.22121937,1.72972362,61.946000000000005,157.071,-0.6990000000000001,-0.39399999999999996,1702924561750000.0,1702924561757433,0.5064844175358303,-1.3709856467321515,-0.03599999999999426,157.071,-0.6990000000000001,-0.39399999999999996
127,2161760000,2023-12-18,18:36:01.760,41.22121924,1.72972368,61.946000000000005,157.066,-0.705,-0.35700000000000004,1702924561760000.0,1702924561767269,0.5113028800697066,-1.3854913981631398,-0.03599999999999426,157.066,-0.705,-0.35700000000000004
128,2161770000,2023-12-18,18:36:01.770,41.22121912,1.72972374,61.946000000000005,157.062,-0.7190000000000001,-0.318,1702924561770000.0,1702924561777332,0.5161375645548105,-1.3988869758322835,-0.03599999999999426,157.062,-0.7190000000000001,-0.318
129,2161780000,2023-12-18,18:36:01.780,41.22121899,1.72972379,61.946999999999996,157.059,-0.7290000000000001,-0.28300000000000003,1702924561780000.0,1702924561787221,0.520117802429013,-1.4133804803714156,-0.035000000000003695,157.059,-0.7290000000000001,-0.28300000000000003
130,2161790000,2023-12-18,18:36:01.790,41.22121886,1.72972385,61.946999999999996,157.056,-0.731,-0.249,1702924561790000.0,1702924561797485,0.5249362650210969,-1.427886231802404,-0.035000000000003695,157.056,-0.731,-0.249
131,2161800000,2023-12-18,18:36:01.800,41.22121873,1.72972391,61.946000000000005,157.053,-0.731,-0.222,1702924561800000.0,1702924561807598,0.5297547276131809,-1.4423919850960374,-0.03599999999999426,157.053,-0.731,-0.222
132,2161810000,2023-12-18,18:36:01.810,41.2212186,1.72972397,61.948,157.05,-0.741,-0.195,1702924561810000.0,1702924561817206,0.5345731902052648,-1.4568977374583483,-0.03399999999999892,157.05,-0.741,-0.195
133,2161820000,2023-12-18,18:36:01.820,41.22121847,1.72972403,61.946999999999996,157.045,-0.7609999999999999,-0.175,1702924561820000.0,1702924561827503,0.5393916529137641,-1.4714034898206592,-0.035000000000003695,157.045,-0.7609999999999999,-0.175
134,2161830000,2023-12-18,18:36:01.830,41.22121834,1.72972409,61.946999999999996,157.041,-0.7809999999999999,-0.159,1702924561830000.0,1702924561837323,0.5442101155058481,-1.4859092412516475,-0.035000000000003695,157.041,-0.7809999999999999,-0.159
135,2161840000,2023-12-18,18:36:01.840,41.22121821,1.72972415,61.948,157.037,-0.784,-0.145,1702924561840000.0,1702924561847434,0.5490285781561397,-1.5004149926826358,-0.03399999999999892,157.037,-0.784,-0.145
136,2161850000,2023-12-18,18:36:01.850,41.22121808,1.72972422,61.948,157.032,-0.777,-0.13699999999999998,1702924561850000.0,1702924561857263,0.5546852655243129,-1.514932993799448,-0.03399999999999892,157.032,-0.777,-0.13699999999999998
137,2161860000,2023-12-18,18:36:01.860,41.22121795,1.72972428,61.946999999999996,157.026,-0.7809999999999999,-0.126,1702924561860000.0,1702924561867323,0.5595037281746045,-1.5294387452304363,-0.035000000000003695,157.026,-0.7809999999999999,-0.126
138,2161870000,2023-12-18,18:36:01.870,41.22121782,1.72972434,61.949,157.02200000000002,-0.8009999999999999,-0.11699999999999999,1702924561870000.0,1702924561877413,0.5643221909413114,-1.5439444975927472,-0.03300000000000125,157.02200000000002,-0.8009999999999999,-0.11699999999999999
139,2161880000,2023-12-18,18:36:01.880,41.22121769,1.72972441,61.948,157.016,-0.823,-0.10800000000000001,1702924561879999.0,1702924561887278,0.5699788783676922,-1.5584624968469143,-0.03399999999999892,157.016,-0.823,-0.10800000000000001
140,2161890000,2023-12-18,18:36:01.890,41.22121756,1.72972447,61.948,157.01,-0.823,-0.098,1702924561889999.0,1702924561897295,0.5747973410761915,-1.5729682501405478,-0.03399999999999892,157.01,-0.823,-0.098
141,2161900000,2023-12-18,18:36:01.900,41.22121742,1.72972453,61.948,157.004,-0.81,-0.087,1702924561899999.0,1702924561907386,0.5795995820080861,-1.5885841762647033,-0.03399999999999892,157.004,-0.81,-0.087
142,2161910000,2023-12-18,18:36:01.910,41.22121729,1.7297246,61.948,156.997,-0.802,-0.076,1702924561909999.0,1702924561917261,0.585256269434467,-1.6031021755188704,-0.03399999999999892,156.997,-0.802,-0.076
143,2161920000,2023-12-18,18:36:01.920,41.22121716,1.72972466,61.946999999999996,156.991,-0.8140000000000001,-0.067,1702924561919999.0,1702924561927290,0.5900747323175892,-1.6176079278811812,-0.035000000000003695,156.991,-0.8140000000000001,-0.067
144,2161930000,2023-12-18,18:36:01.930,41.22121703,1.72972473,61.946999999999996,156.985,-0.835,-0.059000000000000004,1702924561929999.0,1702924561937365,0.5957314198021777,-1.632125928066671,-0.035000000000003695,156.985,-0.835,-0.059000000000000004
145,2161940000,2023-12-18,18:36:01.940,41.2212169,1.7297248,61.946999999999996,156.977,-0.841,-0.053,1702924561940000.0,1702924561947249,0.6013881072867662,-1.6466439282521605,-0.035000000000003695,156.977,-0.841,-0.053
146,2161950000,2023-12-18,18:36:01.950,41.22121677,1.72972486,61.946999999999996,156.971,-0.823,-0.052000000000000005,1702924561950000.0,1702924561957277,0.6062065701698884,-1.661149681545794,-0.035000000000003695,156.971,-0.823,-0.052000000000000005
147,2161960000,2023-12-18,18:36:01.960,41.22121663,1.72972493,61.946999999999996,156.965,-0.8,-0.054000000000000006,1702924561960000.0,1702924561967351,0.6118470358196646,-1.6767778554931283,-0.035000000000003695,156.965,-0.8,-0.054000000000000006
148,2161970000,2023-12-18,18:36:01.970,41.2212165,1.729725,61.946999999999996,156.958,-0.795,-0.061,1702924561970000.0,1702924561977265,0.6175037234206684,-1.6912958547472954,-0.035000000000003695,156.958,-0.795,-0.061
149,2161980000,2023-12-18,18:36:01.980,41.22121637,1.72972507,61.946000000000005,156.951,-0.81,-0.071,1702924561980000.0,1702924561987256,0.6231604110798799,-1.7058138558641076,-0.03599999999999426,156.951,-0.81,-0.071
150,2161990000,2023-12-18,18:36:01.990,41.22121624,1.72972514,61.946000000000005,156.944,-0.8240000000000001,-0.086,1702924561990000.0,1702924561997339,0.6288170987390913,-1.7203318551182747,-0.03599999999999426,156.944,-0.8240000000000001,-0.086
151,2162000000,2023-12-18,18:36:02.000,41.22121611,1.72972522,61.946000000000005,156.938,-0.81,-0.107,1702924562000000.0,1702924562007431,0.635312010999769,-1.7348621040582657,-0.03599999999999426,156.938,-0.81,-0.107
152,2162010000,2023-12-18,18:36:02.010,41.22121598,1.72972529,61.946000000000005,156.93,-0.7829999999999999,-0.129,1702924562009999.0,1702924562017253,0.6409686987171881,-1.749380105175078,-0.03599999999999426,156.93,-0.7829999999999999,-0.129
153,2162020000,2023-12-18,18:36:02.020,41.22121584,1.72972537,61.946000000000005,156.922,-0.764,-0.153,1702924562020000.0,1702924562027329,0.6474473892012611,-1.7650205260142684,-0.03599999999999426,156.922,-0.764,-0.153
154,2162030000,2023-12-18,18:36:02.030,41.22121571,1.72972544,61.945,156.91299999999998,-0.7659999999999999,-0.179,1702924562029999.0,1702924562037417,0.6531040769186802,-1.779538526199758,-0.036999999999999034,156.91299999999998,-0.7659999999999999,-0.179
155,2162040000,2023-12-18,18:36:02.040,41.22121559,1.72972552,61.945,156.905,-0.7709999999999999,-0.203,1702924562040000.0,1702924562048790,0.6596152112470008,-1.7929586004465818,-0.036999999999999034,156.905,-0.7709999999999999,-0.203
156,2162050000,2023-12-18,18:36:02.050,41.22121545,1.72972559,61.945,156.89700000000002,-0.7609999999999999,-0.228,1702924562049999.0,1702924562057324,0.6652556771296076,-1.8085867743939161,-0.036999999999999034,156.89700000000002,-0.7609999999999999,-0.228
157,2162060000,2023-12-18,18:36:02.060,41.22121532,1.72972567,61.945,156.889,-0.7440000000000001,-0.251,1702924562060000.0,1702924562067422,0.671750589623116,-1.8231170242652297,-0.036999999999999034,156.889,-0.7440000000000001,-0.251
158,2162070000,2023-12-18,18:36:02.070,41.22121519,1.72972575,61.943999999999996,156.882,-0.735,-0.27399999999999997,1702924562069999.0,1702924562077490,0.6782455021748319,-1.8376472713425756,-0.03800000000000381,156.882,-0.735,-0.27399999999999997
159,2162080000,2023-12-18,18:36:02.080,41.22121506,1.72972582,61.943999999999996,156.875,-0.735,-0.294,1702924562080000.0,1702924562087355,0.6839021899504587,-1.8521652715280652,-0.03800000000000381,156.875,-0.735,-0.294
160,2162090000,2023-12-18,18:36:02.090,41.22121492,1.7297259,61.943999999999996,156.869,-0.731,-0.311,1702924562089999.0,1702924562097435,0.6903808806091547,-1.8678056951612234,-0.03800000000000381,156.869,-0.731,-0.311
161,2162100000,2023-12-18,18:36:02.100,41.22121479,1.72972598,61.943999999999996,156.863,-0.7170000000000001,-0.33,1702924562100000.0,1702924562107494,0.6968757931608707,-1.8823359431698918,-0.03800000000000381,156.863,-0.7170000000000001,-0.33
162,2162110000,2023-12-18,18:36:02.110,41.22121466,1.72972605,61.943000000000005,156.858,-0.7,-0.35,1702924562109999.0,1702924562117328,0.7025324811693281,-1.8968539414927363,-0.03899999999999437,156.858,-0.7,-0.35
163,2162120000,2023-12-18,18:36:02.120,41.22121452,1.72972613,61.943000000000005,156.85299999999998,-0.695,-0.37,1702924562120000.0,1702924562127400,0.7090111718862318,-1.9124943651258945,-0.03899999999999437,156.85299999999998,-0.695,-0.37
164,2162130000,2023-12-18,18:36:02.130,41.22121439,1.72972621,61.943000000000005,156.85,-0.6990000000000001,-0.39,1702924562129999.0,1702924562137268,0.715506084554363,-1.927024613134563,-0.03899999999999437,156.85,-0.6990000000000001,-0.39
165,2162140000,2023-12-18,18:36:02.140,41.22121425,1.72972628,61.942,156.84799999999998,-0.6990000000000001,-0.41,1702924562140000.0,1702924562147317,0.7211465507280082,-1.9426527870818973,-0.03999999999999915,156.84799999999998,-0.6990000000000001,-0.41
166,2162150000,2023-12-18,18:36:02.150,41.22121412,1.72972636,61.942,156.845,-0.684,-0.43,1702924562149999.0,1702924562157390,0.7276414633961394,-1.9571830369532108,-0.03999999999999915,156.845,-0.684,-0.43
167,2162160000,2023-12-18,18:36:02.160,41.22121399,1.72972644,61.942,156.843,-0.67,-0.45,1702924562160000.0,1702924562167317,0.7341363761806861,-1.971713283099234,-0.03999999999999915,156.843,-0.67,-0.45
168,2162170000,2023-12-18,18:36:02.170,41.22121386,1.72972651,61.94,156.842,-0.669,-0.47100000000000003,1702924562169999.0,1702924562177318,0.7397930642473511,-1.9862312842160463,-0.04200000000000159,156.842,-0.669,-0.47100000000000003
169,2162180000,2023-12-18,18:36:02.180,41.22121372,1.72972659,61.93899999999999,156.841,-0.677,-0.494,1702924562180000.0,1702924562187401,0.7462717551970854,-2.001871706917882,-0.043000000000006366,156.841,-0.677,-0.494
170,2162190000,2023-12-18,18:36:02.190,41.22121359,1.72972666,61.93899999999999,156.84,-0.67,-0.517,1702924562189999.0,1702924562197267,0.7519284433219582,-2.016389706172049,-0.043000000000006366,156.84,-0.67,-0.517
171,2162200000,2023-12-18,18:36:02.200,41.22121345,1.72972674,61.937,156.839,-0.649,-0.54,1702924562200000.0,1702924562207297,0.7584071342716925,-2.032030127942562,-0.045000000000001705,156.839,-0.649,-0.54
172,2162210000,2023-12-18,18:36:02.210,41.22121332,1.72972681,61.93600000000001,156.838,-0.634,-0.56,1702924562209999.0,1702924562217368,0.7640638224547729,-2.0465481290593743,-0.04599999999999227,156.838,-0.634,-0.56
173,2162220000,2023-12-18,18:36:02.220,41.22121318,1.72972689,61.93600000000001,156.835,-0.639,-0.579,1702924562220000.0,1702924562227272,0.7705425135209225,-2.0621885508298874,-0.04599999999999227,156.835,-0.639,-0.579
174,2162230000,2023-12-18,18:36:02.230,41.22121305,1.72972696,61.934,156.832,-0.6559999999999999,-0.593,1702924562229999.0,1702924562237275,0.7761992017622106,-2.076706551015377,-0.04800000000000182,156.832,-0.6559999999999999,-0.593
175,2162240000,2023-12-18,18:36:02.240,41.22121291,1.72972704,61.934,156.829,-0.662,-0.606,1702924562240000.0,1702924562247358,0.7826778928283602,-2.0923469737172127,-0.04800000000000182,156.829,-0.662,-0.606
176,2162250000,2023-12-18,18:36:02.250,41.22121277,1.72972712,61.933,156.827,-0.648,-0.613,1702924562250000.0,1702924562257431,0.7891565838945098,-2.1079873964190483,-0.04899999999999949,156.827,-0.648,-0.613
177,2162260000,2023-12-18,18:36:02.260,41.22121263,1.72972719,61.933,156.82399999999998,-0.636,-0.62,1702924562259999.0,1702924562267246,0.7947970503009856,-2.1236155703663826,-0.04899999999999949,156.82399999999998,-0.636,-0.62
178,2162270000,2023-12-18,18:36:02.270,41.22121249,1.72972726,61.931999999999995,156.821,-0.639,-0.621,1702924562270000.0,1702924562277333,0.800437516765669,-2.1392437433823943,-0.05000000000000426,156.821,-0.639,-0.621
179,2162280000,2023-12-18,18:36:02.280,41.22121235,1.72972734,61.931999999999995,156.81799999999998,-0.655,-0.621,1702924562279999.0,1702924562287696,0.8069162080064416,-2.1548841670155525,-0.05000000000000426,156.81799999999998,-0.655,-0.621
180,2162290000,2023-12-18,18:36:02.290,41.22121221,1.72972741,61.931000000000004,156.815,-0.6629999999999999,-0.617,1702924562290000.0,1702924562297518,0.812556674471125,-2.170512340962887,-0.05099999999999483,156.815,-0.6629999999999999,-0.617
181,2162300000,2023-12-18,18:36:02.300,41.22121207,1.72972748,61.931000000000004,156.812,-0.65,-0.61,1702924562299999.0,1702924562307565,0.8181971409940161,-2.186140514910221,-0.05099999999999483,156.812,-0.65,-0.61
182,2162310000,2023-12-18,18:36:02.310,41.22121193,1.72972756,61.93,156.808,-0.63,-0.602,1702924562310000.0,1702924562317643,0.8246758322929963,-2.201780936680734,-0.0519999999999996,156.808,-0.63,-0.602
183,2162320000,2023-12-18,18:36:02.320,41.22121178,1.72972763,61.93,156.804,-0.632,-0.591,1702924562319999.0,1702924562327468,0.8303000769810751,-2.2185192853212357,-0.0519999999999996,156.804,-0.632,-0.591
184,2162330000,2023-12-18,18:36:02.330,41.22121164,1.7297277,61.93,156.798,-0.654,-0.5760000000000001,1702924562330000.0,1702924562337348,0.8359405435621738,-2.2341474583372474,-0.0519999999999996,156.798,-0.654,-0.5760000000000001
185,2162340000,2023-12-18,18:36:02.340,41.2212115,1.72972777,61.928999999999995,156.792,-0.669,-0.5579999999999999,1702924562339999.0,1702924562347375,0.8415810102596879,-2.2497756322845817,-0.05300000000000438,156.792,-0.669,-0.5579999999999999
186,2162350000,2023-12-18,18:36:02.350,41.22121135,1.72972784,61.928999999999995,156.786,-0.6609999999999999,-0.539,1702924562350000.0,1702924562357456,0.8472052550059743,-2.2665139818564057,-0.05300000000000438,156.786,-0.6609999999999999,-0.539
187,2162360000,2023-12-18,18:36:02.360,41.22121121,1.7297279,61.928000000000004,156.78,-0.6409999999999999,-0.516,1702924562359999.0,1702924562367540,0.8520074970438145,-2.2821299070492387,-0.05399999999999494,156.78,-0.6409999999999999,-0.516
188,2162370000,2023-12-18,18:36:02.370,41.22121106,1.72972798,61.928000000000004,156.774,-0.639,-0.491,1702924562370000.0,1702924562377348,0.8584699665661901,-2.2988805025815964,-0.05399999999999494,156.774,-0.639,-0.491
189,2162380000,2023-12-18,18:36:02.380,41.22121091,1.72972804,61.928000000000004,156.769,-0.66,-0.46299999999999997,1702924562379999.0,1702924562387430,0.8632559867110103,-2.3156066024675965,-0.05399999999999494,156.769,-0.66,-0.46299999999999997
190,2162390000,2023-12-18,18:36:02.390,41.22121076,1.72972811,61.928000000000004,156.764,-0.6829999999999999,-0.43700000000000006,1702924562390000.0,1702924562397301,0.8688802316319197,-2.3323449520394206,-0.05399999999999494,156.764,-0.6829999999999999,-0.43700000000000006
191,2162400000,2023-12-18,18:36:02.400,41.22121062,1.72972818,61.927,156.759,-0.684,-0.409,1702924562399999.0,1702924562407343,0.8745206984458491,-2.3479731250554323,-0.054999999999999716,156.759,-0.684,-0.409
192,2162410000,2023-12-18,18:36:02.410,41.22121046,1.72972823,61.928000000000004,156.757,-0.67,-0.385,1702924562410000.0,1702924562417421,0.8784522720379755,-2.3657971508800983,-0.05399999999999494,156.757,-0.67,-0.385
193,2162420000,2023-12-18,18:36:02.420,41.22121031,1.7297283,61.928000000000004,156.754,-0.6609999999999999,-0.358,1702924562419999.0,1702924562427302,0.8840765170753002,-2.3825354995206,-0.05399999999999494,156.754,-0.6609999999999999,-0.358
194,2162430000,2023-12-18,18:36:02.430,41.22121016,1.72972837,61.927,156.751,-0.6779999999999999,-0.33399999999999996,1702924562430000.0,1702924562437326,0.8897007620544173,-2.3992738481611013,-0.054999999999999716,156.751,-0.6779999999999999,-0.33399999999999996
195,2162440000,2023-12-18,18:36:02.440,41.22121,1.72972843,61.928000000000004,156.751,-0.7040000000000001,-0.31,1702924562439999.0,1702924562447419,0.8944705604808405,-2.4171101208776236,-0.05399999999999494,156.751,-0.7040000000000001,-0.31
196,2162450000,2023-12-18,18:36:02.450,41.22120985,1.7297285,61.928000000000004,156.751,-0.716,-0.289,1702924562450000.0,1702924562457289,0.9000948055763729,-2.4338484685868025,-0.05399999999999494,156.751,-0.716,-0.289
197,2162460000,2023-12-18,18:36:02.460,41.2212097,1.72972857,61.928000000000004,156.752,-0.705,-0.26899999999999996,1702924562459999.0,1702924562467318,0.9057190506136976,-2.450586817227304,-0.05399999999999494,156.752,-0.705,-0.26899999999999996
198,2162470000,2023-12-18,18:36:02.470,41.22120954,1.72972863,61.928999999999995,156.755,-0.6940000000000001,-0.25,1702924562470000.0,1702924562477392,0.9104888491565362,-2.4684230918064713,-0.05300000000000438,156.755,-0.6940000000000001,-0.25
199,2162480000,2023-12-18,18:36:02.480,41.22120938,1.72972871,61.928000000000004,156.75799999999998,-0.698,-0.233,1702924562480000.0,1702924562487285,0.9169350970769301,-2.4862838620319963,-0.05399999999999494,156.75799999999998,-0.698,-0.233
200,2162490000,2023-12-18,18:36:02.490,41.22120923,1.72972878,61.928000000000004,156.76,-0.7190000000000001,-0.215,1702924562490000.0,1702924562497280,0.9225593422306702,-2.503022209741175,-0.05399999999999494,156.76,-0.7190000000000001,-0.215
201,2162500000,2023-12-18,18:36:02.500,41.22120907,1.72972884,61.928999999999995,156.764,-0.733,-0.19699999999999998,1702924562500000.0,1702924562507351,0.927329140889924,-2.52085848338902,-0.05300000000000438,156.764,-0.733,-0.19699999999999998
202,2162510000,2023-12-18,18:36:02.510,41.22120892,1.72972892,61.928999999999995,156.766,-0.727,-0.18100000000000002,1702924562509999.0,1702924562517441,0.9337916108779609,-2.5376090798527002,-0.05300000000000438,156.766,-0.727,-0.18100000000000002
203,2162520000,2023-12-18,18:36:02.520,41.22120877,1.72972899,61.928000000000004,156.768,-0.71,-0.166,1702924562520000.0,1702924562527542,0.9394158560899086,-2.5543474294245243,-0.05399999999999494,156.768,-0.71,-0.166
204,2162530000,2023-12-18,18:36:02.530,41.22120861,1.72972906,61.928999999999995,156.77100000000002,-0.7040000000000001,-0.152,1702924562529999.0,1702924562537418,0.9450238795252517,-2.5721959499642253,-0.05300000000000438,156.77100000000002,-0.7040000000000001,-0.152
205,2162540000,2023-12-18,18:36:02.540,41.22120846,1.72972914,61.928999999999995,156.77100000000002,-0.72,-0.13699999999999998,1702924562540000.0,1702924562547478,0.9514863495714962,-2.588946545496583,-0.05300000000000438,156.77100000000002,-0.72,-0.13699999999999998
206,2162550000,2023-12-18,18:36:02.550,41.2212083,1.72972921,61.928000000000004,156.77200000000002,-0.746,-0.125,1702924562549999.0,1702924562557522,0.957094373065047,-2.6067950688302517,-0.05399999999999494,156.77200000000002,-0.746,-0.125
207,2162560000,2023-12-18,18:36:02.560,41.22120814,1.72972928,61.928999999999995,156.773,-0.752,-0.114,1702924562560000.0,1702924562567409,0.9627023965585977,-2.6246435903012753,-0.05300000000000438,156.773,-0.752,-0.114
208,2162570000,2023-12-18,18:36:02.570,41.22120799,1.72972936,61.928999999999995,156.77200000000002,-0.733,-0.107,1702924562569999.0,1702924562577419,0.9691648667212576,-2.641394185833633,-0.05300000000000438,156.77200000000002,-0.733,-0.107
209,2162580000,2023-12-18,18:36:02.580,41.22120784,1.72972944,61.928999999999995,156.77,-0.715,-0.099,1702924562580000.0,1702924562587289,0.9756273369421251,-2.658144782297313,-0.05300000000000438,156.77,-0.715,-0.099
210,2162590000,2023-12-18,18:36:02.590,41.22120768,1.72972951,61.928999999999995,156.767,-0.72,-0.094,1702924562589999.0,1702924562597326,0.9812353604938835,-2.675993305630982,-0.05300000000000438,156.767,-0.72,-0.094
211,2162600000,2023-12-18,18:36:02.600,41.22120752,1.72972959,61.928999999999995,156.762,-0.7440000000000001,-0.08900000000000001,1702924562600000.0,1702924562607390,0.9876816088799387,-2.6938540739938617,-0.05300000000000438,156.762,-0.7440000000000001,-0.08900000000000001
212,2162610000,2023-12-18,18:36:02.610,41.22120737,1.72972967,61.928000000000004,156.756,-0.762,-0.087,1702924562609999.0,1702924562617270,0.9941440791590139,-2.7106046695262194,-0.05399999999999494,156.756,-0.762,-0.087
213,2162620000,2023-12-18,18:36:02.620,41.2212072,1.72972975,61.928999999999995,156.751,-0.7559999999999999,-0.087,1702924562620000.0,1702924562627309,1.0005741057102568,-2.7295756144449115,-0.05300000000000438,156.751,-0.7559999999999999,-0.087
214,2162630000,2023-12-18,18:36:02.630,41.22120705,1.72972983,61.928999999999995,156.745,-0.7340000000000001,-0.08800000000000001,1702924562629999.0,1702924562637384,1.0070365761057474,-2.746326212771237,-0.05300000000000438,156.745,-0.7340000000000001,-0.08800000000000001
215,2162640000,2023-12-18,18:36:02.640,41.22120689,1.72972991,61.928000000000004,156.737,-0.723,-0.08900000000000001,1702924562640000.0,1702924562647484,1.013482824608218,-2.7641869820654392,-0.05399999999999494,156.737,-0.723,-0.08900000000000001
216,2162650000,2023-12-18,18:36:02.650,41.22120673,1.72972997,61.928999999999995,156.732,-0.738,-0.09,1702924562649999.0,1702924562657305,1.0182526236167178,-2.782023255713284,-0.05300000000000438,156.732,-0.738,-0.09
217,2162660000,2023-12-18,18:36:02.660,41.22120658,1.72973006,61.928999999999995,156.724,-0.7659999999999999,-0.098,1702924562660000.0,1702924562667379,1.0255533188465051,-2.798786100000143,-0.05300000000000438,156.724,-0.7659999999999999,-0.098
218,2162670000,2023-12-18,18:36:02.670,41.22120642,1.72973014,61.928999999999995,156.717,-0.7709999999999999,-0.102,1702924562669999.0,1702924562677262,1.031999567465391,-2.816646870225668,-0.05300000000000438,156.717,-0.7709999999999999,-0.102
219,2162680000,2023-12-18,18:36:02.680,41.22120626,1.72973021,61.928999999999995,156.713,-0.752,-0.109,1702924562680000.0,1702924562687282,1.0376075913663954,-2.8344953916966915,-0.05300000000000438,156.713,-0.752,-0.109
220,2162690000,2023-12-18,18:36:02.690,41.2212061,1.72973029,61.928999999999995,156.709,-0.737,-0.114,1702924562690000.0,1702924562697360,1.044053840043489,-2.8523561619222164,-0.05300000000000438,156.709,-0.737,-0.114
221,2162700000,2023-12-18,18:36:02.700,41.22120594,1.72973038,61.928999999999995,156.705,-0.746,-0.122,1702924562700000.0,1702924562707252,1.0513383134966716,-2.8702291809022427,-0.05300000000000438,156.705,-0.746,-0.122
222,2162710000,2023-12-18,18:36:02.710,41.22120578,1.72973044,61.93,156.703,-0.774,-0.127,1702924562710000.0,1702924562717268,1.0561081126797944,-2.8880654545500875,-0.0519999999999996,156.703,-0.774,-0.127
223,2162720000,2023-12-18,18:36:02.720,41.22120562,1.72973053,61.928999999999995,156.702,-0.792,-0.135,1702924562720000.0,1702924562727320,1.0633925863076001,-2.905938472598791,-0.05300000000000438,156.702,-0.792,-0.135
224,2162730000,2023-12-18,18:36:02.730,41.22120546,1.72973061,61.928999999999995,156.702,-0.79,-0.142,1702924562730000.0,1702924562737415,1.0698388351593167,-2.923799242824316,-0.05300000000000438,156.702,-0.79,-0.142
225,2162740000,2023-12-18,18:36:02.740,41.2212053,1.72973068,61.93,156.707,-0.774,-0.15,1702924562740000.0,1702924562747273,1.0754468591767363,-2.941647765226662,-0.0519999999999996,156.707,-0.774,-0.15
226,2162750000,2023-12-18,18:36:02.750,41.22120514,1.72973077,61.928999999999995,156.71,-0.772,-0.157,1702924562750000.0,1702924562757328,1.0827313328627497,-2.959520783275366,-0.05300000000000438,156.71,-0.772,-0.157
227,2162760000,2023-12-18,18:36:02.760,41.22120498,1.72973086,61.928999999999995,156.714,-0.789,-0.162,1702924562759999.0,1702924562767407,1.090015806548763,-2.977393800392747,-0.05300000000000438,156.714,-0.789,-0.162
228,2162770000,2023-12-18,18:36:02.770,41.22120481,1.72973093,61.928999999999995,156.72,-0.809,-0.16899999999999998,1702924562770000.0,1702924562777232,1.0956076089059934,-2.9963524965569377,-0.05300000000000438,156.72,-0.809,-0.16899999999999998
229,2162780000,2023-12-18,18:36:02.780,41.22120465,1.72973102,61.928999999999995,156.725,-0.812,-0.17300000000000001,1702924562779999.0,1702924562787368,1.1028920826502144,-3.014225515536964,-0.05300000000000438,156.725,-0.812,-0.17300000000000001
230,2162790000,2023-12-18,18:36:02.790,41.22120448,1.72973111,61.928999999999995,156.732,-0.7959999999999999,-0.179,1702924562790000.0,1702924562797414,1.1101603346178308,-3.033208708278835,-0.05300000000000438,156.732,-0.7959999999999999,-0.179
231,2162800000,2023-12-18,18:36:02.800,41.22120432,1.72973118,61.928999999999995,156.741,-0.785,-0.182,1702924562799999.0,1702924562807251,1.1157683588680811,-3.0510572297498584,-0.05300000000000438,156.741,-0.785,-0.182
232,2162810000,2023-12-18,18:36:02.810,41.22120415,1.72973127,61.928999999999995,156.749,-0.7959999999999999,-0.18600000000000003,1702924562810000.0,1702924562817542,1.1230366109521128,-3.0700404215604067,-0.05300000000000438,156.749,-0.7959999999999999,-0.18600000000000003
233,2162820000,2023-12-18,18:36:02.820,41.22120399,1.72973136,61.928000000000004,156.756,-0.8190000000000001,-0.18899999999999997,1702924562819999.0,1702924562827412,1.1303210848709568,-3.0879134396091104,-0.05399999999999494,156.756,-0.8190000000000001,-0.18899999999999997
234,2162830000,2023-12-18,18:36:02.830,41.22120383,1.72973143,61.928999999999995,156.765,-0.8290000000000001,-0.19399999999999998,1702924562830000.0,1702924562837462,1.1359291092376225,-3.105761961080134,-0.05300000000000438,156.765,-0.8290000000000001,-0.19399999999999998
235,2162840000,2023-12-18,18:36:02.840,41.22120366,1.72973152,61.928000000000004,156.77100000000002,-0.816,-0.20199999999999999,1702924562839999.0,1702924562847320,1.1431973613798618,-3.124745153822005,-0.05399999999999494,156.77100000000002,-0.816,-0.20199999999999999
236,2162850000,2023-12-18,18:36:02.850,41.22120349,1.72973161,61.928000000000004,156.778,-0.7959999999999999,-0.21,1702924562850000.0,1702924562857360,1.1504656136385165,-3.1437283474951982,-0.05399999999999494,156.778,-0.7959999999999999,-0.21
237,2162860000,2023-12-18,18:36:02.860,41.22120333,1.72973169,61.928000000000004,156.786,-0.797,-0.22,1702924562859999.0,1702924562867434,1.1569118628976867,-3.1615891167894006,-0.05399999999999494,156.786,-0.797,-0.22
238,2162870000,2023-12-18,18:36:02.870,41.22120316,1.72973178,61.928000000000004,156.791,-0.8170000000000001,-0.22899999999999998,1702924562870000.0,1702924562877281,1.1641801151563413,-3.1805723076686263,-0.05399999999999494,156.791,-0.8170000000000001,-0.22899999999999998
239,2162880000,2023-12-18,18:36:02.880,41.22120299,1.72973187,61.927,156.795,-0.83,-0.243,1702924562879999.0,1702924562887329,1.1714483675314113,-3.1995554994791746,-0.054999999999999716,156.795,-0.83,-0.243
240,2162890000,2023-12-18,18:36:02.890,41.22120282,1.72973195,61.927,156.799,-0.821,-0.255,1702924562890000.0,1702924562897408,1.1778783950721845,-3.2185264453291893,-0.054999999999999716,156.799,-0.821,-0.255
241,2162900000,2023-12-18,18:36:02.900,41.22120265,1.72973204,61.927,156.803,-0.797,-0.26899999999999996,1702924562899999.0,1702924562907271,1.1851466475054622,-3.237509636208415,-0.054999999999999716,156.803,-0.797,-0.26899999999999996
242,2162910000,2023-12-18,18:36:02.910,41.22120248,1.72973213,61.926,156.805,-0.785,-0.28,1702924562910000.0,1702924562917298,1.1924148999387398,-3.256492828950286,-0.055999999999997385,156.805,-0.785,-0.28
243,2162920000,2023-12-18,18:36:02.920,41.22120231,1.7297322,61.927,156.809,-0.7929999999999999,-0.28800000000000003,1702924562919999.0,1702924562927383,1.1980067027034238,-3.275451524183154,-0.054999999999999716,156.809,-0.7929999999999999,-0.28800000000000003
244,2162930000,2023-12-18,18:36:02.930,41.22120213,1.72973229,61.926,156.809,-0.804,-0.293,1702924562930000.0,1702924562937282,1.2052587334765121,-3.2955448906868696,-0.055999999999997385,156.809,-0.804,-0.293
245,2162940000,2023-12-18,18:36:02.940,41.22120196,1.72973238,61.925,156.81,-0.8009999999999999,-0.297,1702924562940000.0,1702924562947287,1.2125269860262051,-3.3145280834287405,-0.05700000000000216,156.81,-0.8009999999999999,-0.297
246,2162950000,2023-12-18,18:36:02.950,41.22120179,1.72973245,61.926,156.813,-0.784,-0.3,1702924562950000.0,1702924562957366,1.218118788965512,-3.3334867795929313,-0.055999999999997385,156.813,-0.784,-0.3
247,2162960000,2023-12-18,18:36:02.960,41.22120161,1.72973254,61.925,156.814,-0.772,-0.3,1702924562960000.0,1702924562967277,1.225370819796808,-3.353580145165324,-0.05700000000000216,156.814,-0.772,-0.3
248,2162970000,2023-12-18,18:36:02.970,41.22120144,1.72973264,61.924,156.814,-0.772,-0.304,1702924562970000.0,1702924562977304,1.2334772972972132,-3.3725755847990513,-0.05799999999999983,156.814,-0.772,-0.304
249,2162980000,2023-12-18,18:36:02.980,41.22120126,1.72973271,61.924,156.81799999999998,-0.78,-0.306,1702924562980000.0,1702924562987391,1.2390528784599155,-3.3926444556564093,-0.05799999999999983,156.81799999999998,-0.78,-0.306
250,2162990000,2023-12-18,18:36:02.990,41.22120109,1.7297328,61.924,156.819,-0.775,-0.315,1702924562990000.0,1702924562997295,1.2463211313588545,-3.41162764839828,-0.05799999999999983,156.819,-0.775,-0.315
251,2163000000,2023-12-18,18:36:03.000,41.22120091,1.7297329,61.923,156.82,-0.76,-0.326,1702924563000000.0,1702924563007299,1.254411387082655,-3.4317332627251744,-0.0589999999999975,156.82,-0.76,-0.326
252,2163010000,2023-12-18,18:36:03.010,41.22120073,1.72973297,61.923,156.82399999999998,-0.7440000000000001,-0.341,1702924563009999.0,1702924563017395,1.259986968478188,-3.4518021317198873,-0.0589999999999975,156.82399999999998,-0.7440000000000001,-0.341
253,2163020000,2023-12-18,18:36:03.020,41.22120056,1.72973307,61.922,156.828,-0.733,-0.361,1702924563020000.0,1702924563027458,1.2680934462114237,-3.470797572284937,-0.060000000000002274,156.828,-0.733,-0.361
254,2163030000,2023-12-18,18:36:03.030,41.22120038,1.72973317,61.92100000000001,156.833,-0.728,-0.379,1702924563029999.0,1702924563037331,1.2761837021680549,-3.490903186611831,-0.06099999999999284,156.833,-0.728,-0.379
255,2163040000,2023-12-18,18:36:03.040,41.2212002,1.72973325,61.92100000000001,156.84,-0.7290000000000001,-0.402,1702924563040000.0,1702924563048713,1.2825975084560923,-3.5109843043610454,-0.06099999999999284,156.84,-0.7290000000000001,-0.402
256,2163050000,2023-12-18,18:36:03.050,41.22120003,1.72973334,61.92,156.843,-0.728,-0.419,1702924563049999.0,1702924563057439,1.2898657615296543,-3.5299674971029162,-0.06199999999999761,156.843,-0.728,-0.419
257,2163060000,2023-12-18,18:36:03.060,41.22119985,1.72973344,61.919,156.847,-0.703,-0.436,1702924563060000.0,1702924563067568,1.297956017544493,-3.5500731114298105,-0.06300000000000239,156.847,-0.703,-0.436
258,2163070000,2023-12-18,18:36:03.070,41.22119967,1.72973352,61.919,156.855,-0.6609999999999999,-0.43799999999999994,1702924563069999.0,1702924563077357,1.3043698240071535,-3.5701542301103473,-0.06300000000000239,156.855,-0.6609999999999999,-0.43799999999999994
