, Time(), Date, Local Time, Latitude(deg), Longitude(deg), Altitude(m), Heading(deg), Pitch(deg), Roll(deg),TimestampGPS,TimestampHDF,x,y,z,heading,pitch,roll
0,1314390000,2023-12-18,18:21:54.390,41.21406283,1.72478531,54.505,243.956,0.252,-0.9540000000000001,1702923714390000.0,1702923713395466,0.0,0.0,0.0,243.956,0.252,-0.9540000000000001
1,1314400000,2023-12-18,18:21:54.400,41.21406282,1.72478531,54.505,243.956,0.253,-0.9540000000000001,1702923714399999.0,1702923713405586,-1.628266181796789e-05,-0.0011101728305220604,0.0,243.956,0.253,-0.9540000000000001
2,1314410000,2023-12-18,18:21:54.410,41.21406283,1.72478531,54.506,243.957,0.251,-0.955,1702923714409999.0,1702923713415376,0.0,0.0,0.0009999999999976694,243.957,0.251,-0.955
3,1314420000,2023-12-18,18:21:54.420,41.21406283,1.72478531,54.506,243.957,0.248,-0.955,1702923714420000.0,1702923713425466,0.0,0.0,0.0009999999999976694,243.957,0.248,-0.955
4,1314430000,2023-12-18,18:21:54.430,41.21406283,1.72478531,54.506,243.957,0.249,-0.955,1702923714429999.0,1702923713435347,0.0,0.0,0.0009999999999976694,243.957,0.249,-0.955
5,1314440000,2023-12-18,18:21:54.440,41.21406283,1.72478531,54.506,243.956,0.253,-0.9540000000000001,1702923714439999.0,1702923713445385,0.0,0.0,0.0009999999999976694,243.956,0.253,-0.9540000000000001
6,1314450000,2023-12-18,18:21:54.450,41.21406283,1.72478531,54.506,243.956,0.253,-0.956,1702923714450000.0,1702923713455454,0.0,0.0,0.0009999999999976694,243.956,0.253,-0.956
7,1314460000,2023-12-18,18:21:54.460,41.21406283,1.72478531,54.506,243.956,0.25,-0.9570000000000001,1702923714460000.0,1702923713465326,0.0,0.0,0.0009999999999976694,243.956,0.25,-0.9570000000000001
8,1314470000,2023-12-18,18:21:54.470,41.21406283,1.72478531,54.506,243.955,0.248,-0.958,1702923714469999.0,1702923713475350,0.0,0.0,0.0009999999999976694,243.955,0.248,-0.958
9,1314480000,2023-12-18,18:21:54.480,41.21406283,1.72478531,54.506,243.955,0.248,-0.958,1702923714479999.0,1702923713485420,0.0,0.0,0.0009999999999976694,243.955,0.248,-0.958
10,1314490000,2023-12-18,18:21:54.490,41.21406282,1.72478531,54.506,243.954,0.252,-0.961,1702923714490000.0,1702923713495327,-1.628266181796789e-05,-0.0011101728305220604,0.0009999999999976694,243.954,0.252,-0.961
11,1314500000,2023-12-18,18:21:54.500,41.21406283,1.72478531,54.506,243.953,0.255,-0.9640000000000001,1702923714500000.0,1702923713505343,0.0,0.0,0.0009999999999976694,243.953,0.255,-0.9640000000000001
12,1314510000,2023-12-18,18:21:54.510,41.21406282,1.72478531,54.506,243.953,0.255,-0.966,1702923714509999.0,1702923713515398,-1.628266181796789e-05,-0.0011101728305220604,0.0009999999999976694,243.953,0.255,-0.966
13,1314520000,2023-12-18,18:21:54.520,41.21406282,1.72478531,54.506,243.952,0.252,-0.9670000000000001,1702923714520000.0,1702923713525489,-1.628266181796789e-05,-0.0011101728305220604,0.0009999999999976694,243.952,0.252,-0.9670000000000001
14,1314530000,2023-12-18,18:21:54.530,41.21406283,1.72478531,54.506,243.951,0.248,-0.968,1702923714530000.0,1702923713535580,0.0,0.0,0.0009999999999976694,243.951,0.248,-0.968
15,1314540000,2023-12-18,18:21:54.540,41.21406282,1.72478531,54.506,243.951,0.245,-0.97,1702923714539999.0,1702923713545640,-1.628266181796789e-05,-0.0011101728305220604,0.0009999999999976694,243.951,0.245,-0.97
16,1314550000,2023-12-18,18:21:54.550,41.21406282,1.7247853,54.506,243.951,0.245,-0.972,1702923714549999.0,1702923713555455,-0.0008545989403501153,-0.0010978775098919868,0.0009999999999976694,243.951,0.245,-0.972
17,1314560000,2023-12-18,18:21:54.560,41.21406282,1.72478531,54.506,243.951,0.248,-0.9740000000000001,1702923714560000.0,1702923713565346,-1.628266181796789e-05,-0.0011101728305220604,0.0009999999999976694,243.951,0.248,-0.9740000000000001
18,1314570000,2023-12-18,18:21:54.570,41.21406282,1.72478531,54.506,243.951,0.249,-0.975,1702923714570000.0,1702923713575626,-1.628266181796789e-05,-0.0011101728305220604,0.0009999999999976694,243.951,0.249,-0.975
19,1314580000,2023-12-18,18:21:54.580,41.21406282,1.7247853,54.507,243.952,0.243,-0.978,1702923714579999.0,1702923713585479,-0.0008545989403501153,-0.0010978775098919868,0.001999999999995339,243.952,0.243,-0.978
20,1314590000,2023-12-18,18:21:54.590,41.21406282,1.72478531,54.507,243.952,0.23600000000000002,-0.981,1702923714590000.0,1702923713595508,-1.628266181796789e-05,-0.0011101728305220604,0.001999999999995339,243.952,0.23600000000000002,-0.981
21,1314600000,2023-12-18,18:21:54.600,41.21406282,1.72478531,54.507,243.953,0.235,-0.983,1702923714600000.0,1702923713605371,-1.628266181796789e-05,-0.0011101728305220604,0.001999999999995339,243.953,0.235,-0.983
22,1314610000,2023-12-18,18:21:54.610,41.21406282,1.7247853,54.507,243.953,0.24100000000000002,-0.9840000000000001,1702923714609999.0,1702923713615407,-0.0008545989403501153,-0.0010978775098919868,0.001999999999995339,243.953,0.24100000000000002,-0.9840000000000001
23,1314620000,2023-12-18,18:21:54.620,41.21406282,1.72478531,54.507,243.954,0.24600000000000002,-0.985,1702923714619999.0,1702923713625488,-1.628266181796789e-05,-0.0011101728305220604,0.001999999999995339,243.954,0.24600000000000002,-0.985
24,1314630000,2023-12-18,18:21:54.630,41.21406282,1.72478531,54.507,243.954,0.243,-0.988,1702923714630000.0,1702923713635350,-1.628266181796789e-05,-0.0011101728305220604,0.001999999999995339,243.954,0.243,-0.988
25,1314640000,2023-12-18,18:21:54.640,41.21406282,1.72478531,54.507,243.955,0.23399999999999999,-0.99,1702923714640000.0,1702923713645409,-1.628266181796789e-05,-0.0011101728305220604,0.001999999999995339,243.955,0.23399999999999999,-0.99
26,1314650000,2023-12-18,18:21:54.650,41.21406282,1.72478531,54.507,243.955,0.231,-0.9890000000000001,1702923714649999.0,1702923713655477,-1.628266181796789e-05,-0.0011101728305220604,0.001999999999995339,243.955,0.231,-0.9890000000000001
27,1314660000,2023-12-18,18:21:54.660,41.21406282,1.72478531,54.507,243.956,0.235,-0.9890000000000001,1702923714659999.0,1702923713665337,-1.628266181796789e-05,-0.0011101728305220604,0.001999999999995339,243.956,0.235,-0.9890000000000001
28,1314670000,2023-12-18,18:21:54.670,41.21406282,1.72478531,54.507,243.956,0.242,-0.9890000000000001,1702923714670000.0,1702923713675370,-1.628266181796789e-05,-0.0011101728305220604,0.001999999999995339,243.956,0.242,-0.9890000000000001
29,1314680000,2023-12-18,18:21:54.680,41.21406282,1.72478531,54.507,243.956,0.242,-0.99,1702923714679999.0,1702923713685462,-1.628266181796789e-05,-0.0011101728305220604,0.001999999999995339,243.956,0.242,-0.99
30,1314690000,2023-12-18,18:21:54.690,41.21406282,1.72478531,54.507,243.957,0.23800000000000002,-0.9890000000000001,1702923714689999.0,1702923713695321,-1.628266181796789e-05,-0.0011101728305220604,0.001999999999995339,243.957,0.23800000000000002,-0.9890000000000001
31,1314700000,2023-12-18,18:21:54.700,41.21406282,1.72478531,54.507,243.957,0.23600000000000002,-0.987,1702923714700000.0,1702923713705351,-1.628266181796789e-05,-0.0011101728305220604,0.001999999999995339,243.957,0.23600000000000002,-0.987
32,1314710000,2023-12-18,18:21:54.710,41.21406283,1.72478531,54.507,243.957,0.239,-0.986,1702923714710000.0,1702923713715441,0.0,0.0,0.001999999999995339,243.957,0.239,-0.986
33,1314720000,2023-12-18,18:21:54.720,41.21406283,1.72478531,54.507,243.957,0.247,-0.986,1702923714719999.0,1702923713725341,0.0,0.0,0.001999999999995339,243.957,0.247,-0.986
34,1314730000,2023-12-18,18:21:54.730,41.21406283,1.72478531,54.507,243.957,0.251,-0.985,1702923714729999.0,1702923713735348,0.0,0.0,0.001999999999995339,243.957,0.251,-0.985
35,1314740000,2023-12-18,18:21:54.740,41.21406283,1.72478531,54.507,243.957,0.25,-0.9840000000000001,1702923714740000.0,1702923713745704,0.0,0.0,0.001999999999995339,243.957,0.25,-0.9840000000000001
36,1314750000,2023-12-18,18:21:54.750,41.21406283,1.72478531,54.507,243.957,0.245,-0.983,1702923714750000.0,1702923713755335,0.0,0.0,0.001999999999995339,243.957,0.245,-0.983
37,1314760000,2023-12-18,18:21:54.760,41.21406283,1.72478531,54.507,243.957,0.243,-0.983,1702923714759999.0,1702923713765369,0.0,0.0,0.001999999999995339,243.957,0.243,-0.983
38,1314770000,2023-12-18,18:21:54.770,41.21406283,1.72478532,54.507,243.956,0.24600000000000002,-0.983,1702923714770000.0,1702923713775429,0.0008383162785321474,-1.2295320630073547e-05,0.001999999999995339,243.956,0.24600000000000002,-0.983
39,1314780000,2023-12-18,18:21:54.780,41.21406283,1.72478531,54.507,243.956,0.252,-0.982,1702923714780000.0,1702923713785515,0.0,0.0,0.001999999999995339,243.956,0.252,-0.982
40,1314790000,2023-12-18,18:21:54.790,41.21406283,1.72478531,54.507,243.956,0.257,-0.981,1702923714789999.0,1702923713795595,0.0,0.0,0.001999999999995339,243.956,0.257,-0.981
41,1314800000,2023-12-18,18:21:54.800,41.21406284,1.72478532,54.508,243.956,0.254,-0.981,1702923714799999.0,1702923713805445,0.0008545989403501153,0.0010978775098919868,0.0030000000000001137,243.956,0.254,-0.981
42,1314810000,2023-12-18,18:21:54.810,41.21406284,1.72478532,54.508,243.955,0.25,-0.981,1702923714810000.0,1702923713815513,0.0008545989403501153,0.0010978775098919868,0.0030000000000001137,243.955,0.25,-0.981
43,1314820000,2023-12-18,18:21:54.820,41.21406284,1.72478532,54.508,243.955,0.252,-0.9790000000000001,1702923714820000.0,1702923713825331,0.0008545989403501153,0.0010978775098919868,0.0030000000000001137,243.955,0.252,-0.9790000000000001
44,1314830000,2023-12-18,18:21:54.830,41.21406284,1.72478532,54.508,243.955,0.258,-0.977,1702923714829999.0,1702923713835438,0.0008545989403501153,0.0010978775098919868,0.0030000000000001137,243.955,0.258,-0.977
45,1314840000,2023-12-18,18:21:54.840,41.21406284,1.72478532,54.508,243.956,0.26,-0.977,1702923714840000.0,1702923713845487,0.0008545989403501153,0.0010978775098919868,0.0030000000000001137,243.956,0.26,-0.977
46,1314850000,2023-12-18,18:21:54.850,41.21406284,1.72478532,54.508,243.956,0.256,-0.977,1702923714850000.0,1702923713855372,0.0008545989403501153,0.0010978775098919868,0.0030000000000001137,243.956,0.256,-0.977
47,1314860000,2023-12-18,18:21:54.860,41.21406284,1.72478532,54.508,243.957,0.249,-0.976,1702923714859999.0,1702923713865398,0.0008545989403501153,0.0010978775098919868,0.0030000000000001137,243.957,0.249,-0.976
48,1314870000,2023-12-18,18:21:54.870,41.21406284,1.72478532,54.508,243.957,0.249,-0.975,1702923714869999.0,1702923713875489,0.0008545989403501153,0.0010978775098919868,0.0030000000000001137,243.957,0.249,-0.975
49,1314880000,2023-12-18,18:21:54.880,41.21406284,1.72478532,54.508,243.957,0.255,-0.975,1702923714880000.0,1702923713885316,0.0008545989403501153,0.0010978775098919868,0.0030000000000001137,243.957,0.255,-0.975
50,1314890000,2023-12-18,18:21:54.890,41.21406284,1.72478532,54.508,243.958,0.258,-0.976,1702923714890000.0,1702923713895384,0.0008545989403501153,0.0010978775098919868,0.0030000000000001137,243.958,0.258,-0.976
51,1314900000,2023-12-18,18:21:54.900,41.21406284,1.72478532,54.508,243.959,0.257,-0.976,1702923714899999.0,1702923713905468,0.0008545989403501153,0.0010978775098919868,0.0030000000000001137,243.959,0.257,-0.976
52,1314910000,2023-12-18,18:21:54.910,41.21406284,1.72478532,54.508,243.959,0.255,-0.977,1702923714909999.0,1702923713915367,0.0008545989403501153,0.0010978775098919868,0.0030000000000001137,243.959,0.255,-0.977
53,1314920000,2023-12-18,18:21:54.920,41.21406284,1.72478532,54.508,243.959,0.254,-0.976,1702923714920000.0,1702923713925378,0.0008545989403501153,0.0010978775098919868,0.0030000000000001137,243.959,0.254,-0.976
54,1314930000,2023-12-18,18:21:54.930,41.21406284,1.72478532,54.508,243.96,0.255,-0.978,1702923714929999.0,1702923713935453,0.0008545989403501153,0.0010978775098919868,0.0030000000000001137,243.96,0.255,-0.978
55,1314940000,2023-12-18,18:21:54.940,41.21406284,1.72478532,54.508,243.96,0.254,-0.9790000000000001,1702923714939999.0,1702923713945303,0.0008545989403501153,0.0010978775098919868,0.0030000000000001137,243.96,0.254,-0.9790000000000001
56,1314950000,2023-12-18,18:21:54.950,41.21406285,1.72478533,54.50899999999999,243.96,0.253,-0.98,1702923714950000.0,1702923713955345,0.0017091979389078915,0.0021957550197839737,0.003999999999990678,243.96,0.253,-0.98
57,1314960000,2023-12-18,18:21:54.960,41.21406284,1.72478533,54.50899999999999,243.96,0.25,-0.98,1702923714960000.0,1702923713965449,0.0016929152188822627,0.0010855812579393387,0.003999999999990678,243.96,0.25,-0.98
58,1314970000,2023-12-18,18:21:54.970,41.21406284,1.72478533,54.50899999999999,243.96,0.249,-0.981,1702923714969999.0,1702923713975316,0.0016929152188822627,0.0010855812579393387,0.003999999999990678,243.96,0.249,-0.981
59,1314980000,2023-12-18,18:21:54.980,41.21406285,1.72478533,54.50899999999999,243.96,0.249,-0.983,1702923714979999.0,1702923713985333,0.0017091979389078915,0.0021957550197839737,0.003999999999990678,243.96,0.249,-0.983
60,1314990000,2023-12-18,18:21:54.990,41.21406285,1.72478533,54.50899999999999,243.96,0.252,-0.9840000000000001,1702923714990000.0,1702923713995427,0.0017091979389078915,0.0021957550197839737,0.003999999999990678,243.96,0.252,-0.9840000000000001
61,1315000000,2023-12-18,18:21:55.000,41.21406285,1.72478533,54.50899999999999,243.959,0.255,-0.9840000000000001,1702923715000000.0,1702923714005299,0.0017091979389078915,0.0021957550197839737,0.003999999999990678,243.959,0.255,-0.9840000000000001
62,1315010000,2023-12-18,18:21:55.010,41.21406285,1.72478533,54.50899999999999,243.959,0.255,-0.9840000000000001,1702923715009999.0,1702923714015337,0.0017091979389078915,0.0021957550197839737,0.003999999999990678,243.959,0.255,-0.9840000000000001
63,1315020000,2023-12-18,18:21:55.020,41.21406285,1.72478533,54.50899999999999,243.959,0.252,-0.986,1702923715020000.0,1702923714025475,0.0017091979389078915,0.0021957550197839737,0.003999999999990678,243.959,0.252,-0.986
64,1315030000,2023-12-18,18:21:55.030,41.21406285,1.72478533,54.50899999999999,243.959,0.249,-0.986,1702923715030000.0,1702923714035483,0.0017091979389078915,0.0021957550197839737,0.003999999999990678,243.959,0.249,-0.986
65,1315040000,2023-12-18,18:21:55.040,41.21406285,1.72478533,54.50899999999999,243.96,0.251,-0.986,1702923715039999.0,1702923714046634,0.0017091979389078915,0.0021957550197839737,0.003999999999990678,243.96,0.251,-0.986
66,1315050000,2023-12-18,18:21:55.050,41.21406285,1.72478533,54.50899999999999,243.96,0.253,-0.986,1702923715049999.0,1702923714055428,0.0017091979389078915,0.0021957550197839737,0.003999999999990678,243.96,0.253,-0.986
67,1315060000,2023-12-18,18:21:55.060,41.21406285,1.72478533,54.50899999999999,243.959,0.253,-0.986,1702923715060000.0,1702923714065487,0.0017091979389078915,0.0021957550197839737,0.003999999999990678,243.959,0.253,-0.986
68,1315070000,2023-12-18,18:21:55.070,41.21406285,1.72478533,54.50899999999999,243.96,0.25,-0.986,1702923715070000.0,1702923714075565,0.0017091979389078915,0.0021957550197839737,0.003999999999990678,243.96,0.25,-0.986
69,1315080000,2023-12-18,18:21:55.080,41.21406285,1.72478533,54.50899999999999,243.96,0.249,-0.985,1702923715079999.0,1702923714085657,0.0017091979389078915,0.0021957550197839737,0.003999999999990678,243.96,0.249,-0.985
70,1315090000,2023-12-18,18:21:55.090,41.21406285,1.72478533,54.50899999999999,243.96,0.254,-0.985,1702923715090000.0,1702923714095560,0.0017091979389078915,0.0021957550197839737,0.003999999999990678,243.96,0.254,-0.985
71,1315100000,2023-12-18,18:21:55.100,41.21406285,1.72478534,54.50899999999999,243.96099999999998,0.259,-0.985,1702923715100000.0,1702923714105377,0.002547514159232378,0.0021834596991539,0.003999999999990678,243.96099999999998,0.259,-0.985
72,1315110000,2023-12-18,18:21:55.110,41.21406285,1.72478534,54.50899999999999,243.96099999999998,0.26,-0.986,1702923715109999.0,1702923714115395,0.002547514159232378,0.0021834596991539,0.003999999999990678,243.96099999999998,0.26,-0.986
73,1315120000,2023-12-18,18:21:55.120,41.21406285,1.72478534,54.50899999999999,243.96200000000002,0.257,-0.986,1702923715119999.0,1702923714125484,0.002547514159232378,0.0021834596991539,0.003999999999990678,243.96200000000002,0.257,-0.986
74,1315130000,2023-12-18,18:21:55.130,41.21406286,1.72478534,54.50899999999999,243.963,0.256,-0.985,1702923715130000.0,1702923714135355,0.002563796762842685,0.0032936325296759605,0.003999999999990678,243.963,0.256,-0.985
75,1315140000,2023-12-18,18:21:55.140,41.21406286,1.72478534,54.50899999999999,243.963,0.258,-0.985,1702923715140000.0,1702923714145422,0.002563796762842685,0.0032936325296759605,0.003999999999990678,243.963,0.258,-0.985
76,1315150000,2023-12-18,18:21:55.150,41.21406286,1.72478534,54.50899999999999,243.963,0.259,-0.985,1702923715149999.0,1702923714155480,0.002563796762842685,0.0032936325296759605,0.003999999999990678,243.963,0.259,-0.985
77,1315160000,2023-12-18,18:21:55.160,41.21406286,1.72478534,54.50899999999999,243.963,0.26,-0.985,1702923715159999.0,1702923714165342,0.002563796762842685,0.0032936325296759605,0.003999999999990678,243.963,0.26,-0.985
78,1315170000,2023-12-18,18:21:55.170,41.21406286,1.72478534,54.50899999999999,243.96400000000003,0.26,-0.985,1702923715170000.0,1702923714175407,0.002563796762842685,0.0032936325296759605,0.003999999999990678,243.96400000000003,0.26,-0.985
79,1315180000,2023-12-18,18:21:55.180,41.21406286,1.72478534,54.50899999999999,243.96400000000003,0.261,-0.9840000000000001,1702923715179999.0,1702923714185464,0.002563796762842685,0.0032936325296759605,0.003999999999990678,243.96400000000003,0.261,-0.9840000000000001
80,1315190000,2023-12-18,18:21:55.190,41.21406286,1.72478534,54.50899999999999,243.96400000000003,0.261,-0.985,1702923715189999.0,1702923714195367,0.002563796762842685,0.0032936325296759605,0.003999999999990678,243.96400000000003,0.261,-0.985
81,1315200000,2023-12-18,18:21:55.200,41.21406286,1.72478534,54.50899999999999,243.96400000000003,0.26,-0.986,1702923715200000.0,1702923714205379,0.002563796762842685,0.0032936325296759605,0.003999999999990678,243.96400000000003,0.26,-0.986
82,1315210000,2023-12-18,18:21:55.210,41.21406286,1.72478534,54.50899999999999,243.96400000000003,0.262,-0.987,1702923715210000.0,1702923714215468,0.002563796762842685,0.0032936325296759605,0.003999999999990678,243.96400000000003,0.262,-0.987
83,1315220000,2023-12-18,18:21:55.220,41.21406286,1.72478534,54.50899999999999,243.96400000000003,0.264,-0.985,1702923715219999.0,1702923714225358,0.002563796762842685,0.0032936325296759605,0.003999999999990678,243.96400000000003,0.264,-0.985
84,1315230000,2023-12-18,18:21:55.230,41.21406286,1.72478534,54.50899999999999,243.963,0.263,-0.986,1702923715229999.0,1702923714235392,0.002563796762842685,0.0032936325296759605,0.003999999999990678,243.963,0.263,-0.986
85,1315240000,2023-12-18,18:21:55.240,41.21406286,1.72478534,54.50899999999999,243.963,0.259,-0.986,1702923715240000.0,1702923714245463,0.002563796762842685,0.0032936325296759605,0.003999999999990678,243.963,0.259,-0.986
86,1315250000,2023-12-18,18:21:55.250,41.21406287,1.72478535,54.50899999999999,243.96400000000003,0.257,-0.986,1702923715250000.0,1702923714255339,0.0034183957031928003,0.004391510970890522,0.003999999999990678,243.96400000000003,0.257,-0.986
87,1314260000,2023-12-18,18:21:54.260,41.21406287,1.72478534,54.50899999999999,243.96400000000003,0.259,-0.986,1702923714259999.0,1702923714265371,0.002580079482868314,0.0044038062915205956,0.003999999999990678,243.96400000000003,0.259,-0.986
88,1314270000,2023-12-18,18:21:54.270,41.21406286,1.72478534,54.50899999999999,243.963,0.262,-0.987,1702923714270000.0,1702923714275705,0.002563796762842685,0.0032936325296759605,0.003999999999990678,243.963,0.262,-0.987
89,1314280000,2023-12-18,18:21:54.280,41.21406287,1.72478535,54.50899999999999,243.963,0.262,-0.988,1702923714280000.0,1702923714285523,0.0034183957031928003,0.004391510970890522,0.003999999999990678,243.963,0.262,-0.988
90,1314290000,2023-12-18,18:21:54.290,41.21406287,1.72478535,54.50899999999999,243.96400000000003,0.259,-0.9890000000000001,1702923714289999.0,1702923714295642,0.0034183957031928003,0.004391510970890522,0.003999999999990678,243.96400000000003,0.259,-0.9890000000000001
91,1314300000,2023-12-18,18:21:54.300,41.21406287,1.72478535,54.50899999999999,243.96400000000003,0.256,-0.9890000000000001,1702923714299999.0,1702923714305476,0.0034183957031928003,0.004391510970890522,0.003999999999990678,243.96400000000003,0.256,-0.9890000000000001
92,1314310000,2023-12-18,18:21:54.310,41.21406287,1.72478535,54.50899999999999,243.96400000000003,0.257,-0.9890000000000001,1702923714310000.0,1702923714315302,0.0034183957031928003,0.004391510970890522,0.003999999999990678,243.96400000000003,0.257,-0.9890000000000001
93,1314320000,2023-12-18,18:21:54.320,41.21406287,1.72478535,54.50899999999999,243.96400000000003,0.261,-0.991,1702923714320000.0,1702923714325608,0.0034183957031928003,0.004391510970890522,0.003999999999990678,243.96400000000003,0.261,-0.991
94,1314330000,2023-12-18,18:21:54.330,41.21406287,1.72478535,54.50899999999999,243.96400000000003,0.263,-0.993,1702923714329999.0,1702923714335524,0.0034183957031928003,0.004391510970890522,0.003999999999990678,243.96400000000003,0.263,-0.993
95,1314340000,2023-12-18,18:21:54.340,41.21406287,1.72478535,54.50899999999999,243.965,0.262,-0.993,1702923714340000.0,1702923714345532,0.0034183957031928003,0.004391510970890522,0.003999999999990678,243.965,0.262,-0.993
96,1314350000,2023-12-18,18:21:54.350,41.21406287,1.72478535,54.50899999999999,243.965,0.257,-0.993,1702923714350000.0,1702923714355608,0.0034183957031928003,0.004391510970890522,0.003999999999990678,243.965,0.257,-0.993
97,1314360000,2023-12-18,18:21:54.360,41.21406287,1.72478535,54.50899999999999,243.965,0.253,-0.9940000000000001,1702923714359999.0,1702923714365447,0.0034183957031928003,0.004391510970890522,0.003999999999990678,243.965,0.253,-0.9940000000000001
98,1314370000,2023-12-18,18:21:54.370,41.21406287,1.72478535,54.50899999999999,243.965,0.253,-0.996,1702923714369999.0,1702923714375511,0.0034183957031928003,0.004391510970890522,0.003999999999990678,243.965,0.253,-0.996
99,1314380000,2023-12-18,18:21:54.380,41.21406287,1.72478535,54.50899999999999,243.96599999999998,0.256,-0.996,1702923714380000.0,1702923714385395,0.0034183957031928003,0.004391510970890522,0.003999999999990678,243.96599999999998,0.256,-0.996
100,1314390000,2023-12-18,18:21:54.390,41.21406287,1.72478535,54.50899999999999,243.96599999999998,0.261,-0.997,1702923714390000.0,1702923714395455,0.0034183957031928003,0.004391510970890522,0.003999999999990678,243.96599999999998,0.261,-0.997
101,1314400000,2023-12-18,18:21:54.400,41.21406287,1.72478535,54.50899999999999,243.96599999999998,0.26,-0.997,1702923714399999.0,1702923714405535,0.0034183957031928003,0.004391510970890522,0.003999999999990678,243.96599999999998,0.26,-0.997
102,1314410000,2023-12-18,18:21:54.410,41.21406287,1.72478535,54.50899999999999,243.96599999999998,0.255,-0.998,1702923714409999.0,1702923714415388,0.0034183957031928003,0.004391510970890522,0.003999999999990678,243.96599999999998,0.255,-0.998
103,1314420000,2023-12-18,18:21:54.420,41.21406287,1.72478535,54.50899999999999,243.96599999999998,0.252,-0.9990000000000001,1702923714420000.0,1702923714425453,0.0034183957031928003,0.004391510970890522,0.003999999999990678,243.96599999999998,0.252,-0.9990000000000001
104,1314430000,2023-12-18,18:21:54.430,41.21406288,1.72478536,54.50899999999999,243.96599999999998,0.253,-0.9990000000000001,1702923714429999.0,1702923714435524,0.004272994643542916,0.005489387549459934,0.003999999999990678,243.96599999999998,0.253,-0.9990000000000001
105,1314440000,2023-12-18,18:21:54.440,41.21406288,1.72478536,54.50899999999999,243.96599999999998,0.26,-0.9990000000000001,1702923714439999.0,1702923714445379,0.004272994643542916,0.005489387549459934,0.003999999999990678,243.96599999999998,0.26,-0.9990000000000001
106,1314450000,2023-12-18,18:21:54.450,41.21406288,1.72478536,54.50899999999999,243.96599999999998,0.262,-1.001,1702923714450000.0,1702923714455416,0.004272994643542916,0.005489387549459934,0.003999999999990678,243.96599999999998,0.262,-1.001
107,1314460000,2023-12-18,18:21:54.460,41.21406288,1.72478536,54.50899999999999,243.96599999999998,0.257,-1.002,1702923714460000.0,1702923714465507,0.004272994643542916,0.005489387549459934,0.003999999999990678,243.96599999999998,0.257,-1.002
108,1314470000,2023-12-18,18:21:54.470,41.21406288,1.72478536,54.50899999999999,243.967,0.25,-1.001,1702923714469999.0,1702923714475351,0.004272994643542916,0.005489387549459934,0.003999999999990678,243.967,0.25,-1.001
109,1314480000,2023-12-18,18:21:54.480,41.21406288,1.72478536,54.50899999999999,243.96599999999998,0.249,-1.002,1702923714479999.0,1702923714485433,0.004272994643542916,0.005489387549459934,0.003999999999990678,243.96599999999998,0.249,-1.002
110,1314490000,2023-12-18,18:21:54.490,41.21406288,1.72478536,54.50899999999999,243.96599999999998,0.257,-1.003,1702923714490000.0,1702923714495516,0.004272994643542916,0.005489387549459934,0.003999999999990678,243.96599999999998,0.257,-1.003
111,1314500000,2023-12-18,18:21:54.500,41.21406288,1.72478536,54.50899999999999,243.96599999999998,0.265,-1.004,1702923714500000.0,1702923714505357,0.004272994643542916,0.005489387549459934,0.003999999999990678,243.96599999999998,0.265,-1.004
112,1314510000,2023-12-18,18:21:54.510,41.21406288,1.72478536,54.50899999999999,243.965,0.265,-1.005,1702923714509999.0,1702923714515437,0.004272994643542916,0.005489387549459934,0.003999999999990678,243.965,0.265,-1.005
113,1314520000,2023-12-18,18:21:54.520,41.21406288,1.72478536,54.50899999999999,243.965,0.259,-1.006,1702923714520000.0,1702923714525515,0.004272994643542916,0.005489387549459934,0.003999999999990678,243.965,0.259,-1.006
114,1314530000,2023-12-18,18:21:54.530,41.21406288,1.72478536,54.50899999999999,243.965,0.257,-1.005,1702923714530000.0,1702923714535584,0.004272994643542916,0.005489387549459934,0.003999999999990678,243.965,0.257,-1.005
115,1314540000,2023-12-18,18:21:54.540,41.21406288,1.72478536,54.50899999999999,243.96400000000003,0.257,-1.0070000000000001,1702923714539999.0,1702923714545460,0.004272994643542916,0.005489387549459934,0.003999999999990678,243.96400000000003,0.257,-1.0070000000000001
116,1314550000,2023-12-18,18:21:54.550,41.21406288,1.72478536,54.508,243.96400000000003,0.26,-1.0090000000000001,1702923714549999.0,1702923714555496,0.004272994643542916,0.005489387549459934,0.0030000000000001137,243.96400000000003,0.26,-1.0090000000000001
117,1314560000,2023-12-18,18:21:54.560,41.21406288,1.72478536,54.508,243.963,0.262,-1.01,1702923714560000.0,1702923714565584,0.004272994643542916,0.005489387549459934,0.0030000000000001137,243.963,0.262,-1.01
118,1314570000,2023-12-18,18:21:54.570,41.21406288,1.72478536,54.508,243.963,0.259,-1.012,1702923714570000.0,1702923714575430,0.004272994643542916,0.005489387549459934,0.0030000000000001137,243.963,0.259,-1.012
119,1314580000,2023-12-18,18:21:54.580,41.21406289,1.72478536,54.508,243.963,0.254,-1.012,1702923714579999.0,1702923714585482,0.004289277363568544,0.006599561311304569,0.0030000000000001137,243.963,0.254,-1.012
120,1314590000,2023-12-18,18:21:54.590,41.21406289,1.72478536,54.508,243.96200000000002,0.25,-1.014,1702923714590000.0,1702923714595596,0.004289277363568544,0.006599561311304569,0.0030000000000001137,243.96200000000002,0.25,-1.014
121,1314600000,2023-12-18,18:21:54.600,41.21406289,1.72478536,54.508,243.963,0.253,-1.015,1702923714600000.0,1702923714605404,0.004289277363568544,0.006599561311304569,0.0030000000000001137,243.963,0.253,-1.015
122,1314610000,2023-12-18,18:21:54.610,41.21406289,1.72478536,54.508,243.963,0.26,-1.0170000000000001,1702923714609999.0,1702923714615488,0.004289277363568544,0.006599561311304569,0.0030000000000001137,243.963,0.26,-1.0170000000000001
123,1314620000,2023-12-18,18:21:54.620,41.21406289,1.72478536,54.508,243.963,0.261,-1.018,1702923714619999.0,1702923714625362,0.004289277363568544,0.006599561311304569,0.0030000000000001137,243.963,0.261,-1.018
124,1314630000,2023-12-18,18:21:54.630,41.21406289,1.72478536,54.508,243.96400000000003,0.255,-1.021,1702923714630000.0,1702923714635392,0.004289277363568544,0.006599561311304569,0.0030000000000001137,243.96400000000003,0.255,-1.021
125,1314640000,2023-12-18,18:21:54.640,41.21406289,1.72478536,54.508,243.96400000000003,0.247,-1.022,1702923714640000.0,1702923714645471,0.004289277363568544,0.006599561311304569,0.0030000000000001137,243.96400000000003,0.247,-1.022
126,1314650000,2023-12-18,18:21:54.650,41.21406289,1.72478536,54.508,243.965,0.244,-1.023,1702923714649999.0,1702923714655351,0.004289277363568544,0.006599561311304569,0.0030000000000001137,243.965,0.244,-1.023
127,1314660000,2023-12-18,18:21:54.660,41.21406289,1.72478536,54.508,243.96599999999998,0.249,-1.023,1702923714659999.0,1702923714665371,0.004289277363568544,0.006599561311304569,0.0030000000000001137,243.96599999999998,0.249,-1.023
128,1314670000,2023-12-18,18:21:54.670,41.21406289,1.72478536,54.508,243.96599999999998,0.256,-1.025,1702923714670000.0,1702923714675443,0.004289277363568544,0.006599561311304569,0.0030000000000001137,243.96599999999998,0.256,-1.025
129,1314680000,2023-12-18,18:21:54.680,41.21406289,1.72478536,54.508,243.967,0.254,-1.025,1702923714679999.0,1702923714685323,0.004289277363568544,0.006599561311304569,0.0030000000000001137,243.967,0.254,-1.025
130,1314690000,2023-12-18,18:21:54.690,41.21406289,1.72478536,54.507,243.968,0.248,-1.026,1702923714689999.0,1702923714695364,0.004289277363568544,0.006599561311304569,0.001999999999995339,243.968,0.248,-1.026
131,1314700000,2023-12-18,18:21:54.700,41.21406289,1.72478536,54.507,243.96900000000002,0.24600000000000002,-1.026,1702923714700000.0,1702923714705445,0.004289277363568544,0.006599561311304569,0.001999999999995339,243.96900000000002,0.24600000000000002,-1.026
132,1314710000,2023-12-18,18:21:54.710,41.21406289,1.72478536,54.507,243.97,0.251,-1.0270000000000001,1702923714710000.0,1702923714715338,0.004289277363568544,0.006599561311304569,0.001999999999995339,243.97,0.251,-1.0270000000000001
133,1314720000,2023-12-18,18:21:54.720,41.21406289,1.72478536,54.507,243.97,0.257,-1.028,1702923714719999.0,1702923714725370,0.004289277363568544,0.006599561311304569,0.001999999999995339,243.97,0.257,-1.028
134,1314730000,2023-12-18,18:21:54.730,41.21406289,1.72478536,54.507,243.97099999999998,0.257,-1.0290000000000001,1702923714729999.0,1702923714735423,0.004289277363568544,0.006599561311304569,0.001999999999995339,243.97099999999998,0.257,-1.0290000000000001
135,1314740000,2023-12-18,18:21:54.740,41.21406289,1.72478536,54.507,243.97099999999998,0.252,-1.03,1702923714740000.0,1702923714745574,0.004289277363568544,0.006599561311304569,0.001999999999995339,243.97099999999998,0.252,-1.03
136,1314750000,2023-12-18,18:21:54.750,41.21406289,1.72478537,54.507,243.97,0.248,-1.03,1702923714750000.0,1702923714755344,0.005127593583893031,0.006587265059351921,0.001999999999995339,243.97,0.248,-1.03
137,1314760000,2023-12-18,18:21:54.760,41.2140629,1.72478537,54.507,243.97,0.247,-1.031,1702923714759999.0,1702923714765448,0.005143876245710999,0.007697438821196556,0.001999999999995339,243.97,0.247,-1.031
138,1314770000,2023-12-18,18:21:54.770,41.2140629,1.72478537,54.507,243.96900000000002,0.25,-1.034,1702923714770000.0,1702923714775587,0.005143876245710999,0.007697438821196556,0.001999999999995339,243.96900000000002,0.25,-1.034
139,1314780000,2023-12-18,18:21:54.780,41.2140629,1.72478537,54.507,243.96900000000002,0.255,-1.036,1702923714780000.0,1702923714785611,0.005143876245710999,0.007697438821196556,0.001999999999995339,243.96900000000002,0.255,-1.036
140,1314790000,2023-12-18,18:21:54.790,41.2140629,1.72478537,54.506,243.967,0.258,-1.037,1702923714789999.0,1702923714795477,0.005143876245710999,0.007697438821196556,0.0009999999999976694,243.967,0.258,-1.037
141,1314800000,2023-12-18,18:21:54.800,41.2140629,1.72478537,54.506,243.965,0.255,-1.041,1702923714799999.0,1702923714805577,0.005143876245710999,0.007697438821196556,0.0009999999999976694,243.965,0.255,-1.041
142,1314810000,2023-12-18,18:21:54.810,41.2140629,1.72478537,54.506,243.963,0.251,-1.046,1702923714810000.0,1702923714815608,0.005143876245710999,0.007697438821196556,0.0009999999999976694,243.963,0.251,-1.046
143,1314820000,2023-12-18,18:21:54.820,41.2140629,1.72478537,54.506,243.96099999999998,0.251,-1.051,1702923714820000.0,1702923714825445,0.005143876245710999,0.007697438821196556,0.0009999999999976694,243.96099999999998,0.251,-1.051
144,1314830000,2023-12-18,18:21:54.830,41.2140629,1.72478537,54.506,243.958,0.256,-1.056,1702923714829999.0,1702923714835535,0.005143876245710999,0.007697438821196556,0.0009999999999976694,243.958,0.256,-1.056
145,1314840000,2023-12-18,18:21:54.840,41.2140629,1.72478537,54.506,243.954,0.26,-1.062,1702923714840000.0,1702923714845609,0.005143876245710999,0.007697438821196556,0.0009999999999976694,243.954,0.26,-1.062
146,1314850000,2023-12-18,18:21:54.850,41.2140629,1.72478537,54.505,243.949,0.257,-1.069,1702923714850000.0,1702923714855437,0.005143876245710999,0.007697438821196556,0.0,243.949,0.257,-1.069
147,1314860000,2023-12-18,18:21:54.860,41.2140629,1.72478537,54.505,243.945,0.251,-1.074,1702923714859999.0,1702923714865527,0.005143876245710999,0.007697438821196556,0.0,243.945,0.251,-1.074
148,1314870000,2023-12-18,18:21:54.870,41.2140629,1.72478537,54.505,243.94099999999997,0.251,-1.081,1702923714869999.0,1702923714875344,0.005143876245710999,0.007697438821196556,0.0,243.94099999999997,0.251,-1.081
149,1314880000,2023-12-18,18:21:54.880,41.21406291,1.72478537,54.504,243.93599999999998,0.258,-1.085,1702923714880000.0,1702923714885428,0.005160158965736628,0.008807609789073467,-0.0010000000000047748,243.93599999999998,0.258,-1.085
150,1314890000,2023-12-18,18:21:54.890,41.21406291,1.72478537,54.504,243.93099999999998,0.266,-1.089,1702923714890000.0,1702923714895518,0.005160158965736628,0.008807609789073467,-0.0010000000000047748,243.93099999999998,0.266,-1.089
151,1314900000,2023-12-18,18:21:54.900,41.2140629,1.72478537,54.504,243.928,0.266,-1.092,1702923714899999.0,1702923714905370,0.005143876245710999,0.007697438821196556,-0.0010000000000047748,243.928,0.266,-1.092
152,1314910000,2023-12-18,18:21:54.910,41.21406291,1.72478538,54.504,243.924,0.262,-1.094,1702923714909999.0,1702923714915426,0.005998475186061114,0.008795316331088543,-0.0010000000000047748,243.924,0.262,-1.094
153,1314920000,2023-12-18,18:21:54.920,41.21406291,1.72478538,54.504,243.921,0.262,-1.094,1702923714920000.0,1702923714925497,0.005998475186061114,0.008795316331088543,-0.0010000000000047748,243.921,0.262,-1.094
154,1314930000,2023-12-18,18:21:54.930,41.21406291,1.72478538,54.504,243.919,0.268,-1.095,1702923714929999.0,1702923714935331,0.005998475186061114,0.008795316331088543,-0.0010000000000047748,243.919,0.268,-1.095
155,1314940000,2023-12-18,18:21:54.940,41.21406291,1.72478538,54.503,243.917,0.275,-1.0959999999999999,1702923714939999.0,1702923714945419,0.005998475186061114,0.008795316331088543,-0.0020000000000024443,243.917,0.275,-1.0959999999999999
156,1314950000,2023-12-18,18:21:54.950,41.21406291,1.72478538,54.503,243.915,0.27699999999999997,-1.097,1702923714950000.0,1702923714955509,0.005998475186061114,0.008795316331088543,-0.0020000000000024443,243.915,0.27699999999999997,-1.097
157,1314960000,2023-12-18,18:21:54.960,41.21406291,1.72478538,54.503,243.91400000000002,0.27399999999999997,-1.0979999999999999,1702923714960000.0,1702923714965342,0.005998475186061114,0.008795316331088543,-0.0020000000000024443,243.91400000000002,0.27399999999999997,-1.0979999999999999
158,1314970000,2023-12-18,18:21:54.970,41.21406291,1.72478538,54.503,243.91299999999998,0.275,-1.099,1702923714969999.0,1702923714975425,0.005998475186061114,0.008795316331088543,-0.0020000000000024443,243.91299999999998,0.275,-1.099
159,1314980000,2023-12-18,18:21:54.980,41.21406291,1.72478538,54.503,243.912,0.282,-1.102,1702923714979999.0,1702923714985507,0.005998475186061114,0.008795316331088543,-0.0020000000000024443,243.912,0.282,-1.102
160,1314990000,2023-12-18,18:21:54.990,41.21406291,1.72478538,54.503,243.912,0.29,-1.1059999999999999,1702923714990000.0,1702923714995339,0.005998475186061114,0.008795316331088543,-0.0020000000000024443,243.912,0.29,-1.1059999999999999
161,1315000000,2023-12-18,18:21:55.000,41.21406291,1.72478538,54.501999999999995,243.912,0.295,-1.11,1702923715000000.0,1702923715005398,0.005998475186061114,0.008795316331088543,-0.003000000000007219,243.912,0.295,-1.11
162,1315010000,2023-12-18,18:21:55.010,41.21406291,1.72478538,54.501999999999995,243.91099999999997,0.293,-1.115,1702923715009999.0,1702923715015470,0.005998475186061114,0.008795316331088543,-0.003000000000007219,243.91099999999997,0.293,-1.115
163,1315020000,2023-12-18,18:21:55.020,41.21406291,1.72478538,54.501999999999995,243.91099999999997,0.294,-1.121,1702923715020000.0,1702923715025818,0.005998475186061114,0.008795316331088543,-0.003000000000007219,243.91099999999997,0.294,-1.121
164,1315030000,2023-12-18,18:21:55.030,41.21406291,1.72478538,54.501999999999995,243.91,0.302,-1.127,1702923715030000.0,1702923715035395,0.005998475186061114,0.008795316331088543,-0.003000000000007219,243.91,0.302,-1.127
165,1315040000,2023-12-18,18:21:55.040,41.2140629,1.72478538,54.501999999999995,243.91,0.309,-1.1340000000000001,1702923715039999.0,1702923715046995,0.005982192524243146,0.0076851435005664825,-0.003000000000007219,243.91,0.309,-1.1340000000000001
166,1315050000,2023-12-18,18:21:55.050,41.2140629,1.72478538,54.501000000000005,243.908,0.309,-1.139,1702923715049999.0,1702923715055529,0.005982192524243146,0.0076851435005664825,-0.003999999999997783,243.908,0.309,-1.139
167,1315060000,2023-12-18,18:21:55.060,41.2140629,1.72478538,54.501000000000005,243.90599999999998,0.308,-1.1440000000000001,1702923715060000.0,1702923715065406,0.005982192524243146,0.0076851435005664825,-0.003999999999997783,243.90599999999998,0.308,-1.1440000000000001
168,1315070000,2023-12-18,18:21:55.070,41.2140629,1.72478538,54.501000000000005,243.905,0.31,-1.147,1702923715070000.0,1702923715075456,0.005982192524243146,0.0076851435005664825,-0.003999999999997783,243.905,0.31,-1.147
169,1315080000,2023-12-18,18:21:55.080,41.2140629,1.72478538,54.501000000000005,243.903,0.313,-1.15,1702923715079999.0,1702923715085524,0.005982192524243146,0.0076851435005664825,-0.003999999999997783,243.903,0.313,-1.15
170,1315090000,2023-12-18,18:21:55.090,41.2140629,1.72478538,54.5,243.9,0.315,-1.153,1702923715090000.0,1702923715095605,0.005982192524243146,0.0076851435005664825,-0.005000000000002558,243.9,0.315,-1.153
171,1315100000,2023-12-18,18:21:55.100,41.2140629,1.72478538,54.5,243.89700000000002,0.319,-1.1540000000000001,1702923715100000.0,1702923715105435,0.005982192524243146,0.0076851435005664825,-0.005000000000002558,243.89700000000002,0.319,-1.1540000000000001
172,1315110000,2023-12-18,18:21:55.110,41.2140629,1.72478538,54.5,243.894,0.32299999999999995,-1.155,1702923715109999.0,1702923715115519,0.005982192524243146,0.0076851435005664825,-0.005000000000002558,243.894,0.32299999999999995,-1.155
173,1315120000,2023-12-18,18:21:55.120,41.2140629,1.72478537,54.5,243.889,0.325,-1.156,1702923715119999.0,1702923715125399,0.005143876245710999,0.007697438821196556,-0.005000000000002558,243.889,0.325,-1.156
174,1315130000,2023-12-18,18:21:55.130,41.2140629,1.72478537,54.5,243.885,0.32299999999999995,-1.155,1702923715130000.0,1702923715135436,0.005143876245710999,0.007697438821196556,-0.005000000000002558,243.885,0.32299999999999995,-1.155
175,1315140000,2023-12-18,18:21:55.140,41.2140629,1.72478537,54.5,243.88,0.321,-1.153,1702923715140000.0,1702923715145513,0.005143876245710999,0.007697438821196556,-0.005000000000002558,243.88,0.321,-1.153
176,1315150000,2023-12-18,18:21:55.150,41.2140629,1.72478536,54.498999999999995,243.87400000000002,0.325,-1.151,1702923715149999.0,1702923715155368,0.004305560025386512,0.00770973414182663,-0.006000000000007333,243.87400000000002,0.325,-1.151
177,1315160000,2023-12-18,18:21:55.160,41.2140629,1.72478536,54.498999999999995,243.86700000000002,0.32899999999999996,-1.149,1702923715159999.0,1702923715165401,0.004305560025386512,0.00770973414182663,-0.006000000000007333,243.86700000000002,0.32899999999999996,-1.149
178,1315170000,2023-12-18,18:21:55.170,41.21406289,1.72478536,54.498999999999995,243.86,0.326,-1.147,1702923715170000.0,1702923715175487,0.004289277363568544,0.006599561311304569,-0.006000000000007333,243.86,0.326,-1.147
179,1315180000,2023-12-18,18:21:55.180,41.21406289,1.72478535,54.498999999999995,243.852,0.32,-1.1440000000000001,1702923715179999.0,1702923715185371,0.003450961085036397,0.006611855700612068,-0.006000000000007333,243.852,0.32,-1.1440000000000001
180,1315190000,2023-12-18,18:21:55.190,41.21406289,1.72478535,54.498999999999995,243.84400000000002,0.322,-1.141,1702923715189999.0,1702923715195380,0.003450961085036397,0.006611855700612068,-0.006000000000007333,243.84400000000002,0.322,-1.141
181,1315200000,2023-12-18,18:21:55.200,41.21406289,1.72478534,54.498999999999995,243.83599999999998,0.331,-1.14,1702923715200000.0,1702923715205454,0.0026126448065042496,0.006624151952564716,-0.006000000000007333,243.83599999999998,0.331,-1.14
182,1315210000,2023-12-18,18:21:55.210,41.21406289,1.72478534,54.498999999999995,243.827,0.336,-1.139,1702923715210000.0,1702923715215349,0.0026126448065042496,0.006624151952564716,-0.006000000000007333,243.827,0.336,-1.139
183,1315220000,2023-12-18,18:21:55.220,41.21406289,1.72478533,54.498999999999995,243.817,0.33,-1.139,1702923715219999.0,1702923715225373,0.001774328586179763,0.00663644727319479,-0.006000000000007333,243.817,0.33,-1.139
184,1315230000,2023-12-18,18:21:55.230,41.21406289,1.72478533,54.498000000000005,243.808,0.324,-1.138,1702923715229999.0,1702923715235454,0.001774328586179763,0.00663644727319479,-0.006999999999997897,243.808,0.324,-1.138
185,1315240000,2023-12-18,18:21:55.240,41.21406289,1.72478532,54.498000000000005,243.798,0.326,-1.14,1702923715240000.0,1702923715245350,0.0009360123658552766,0.006648743525147438,-0.006999999999997897,243.798,0.326,-1.14
186,1315250000,2023-12-18,18:21:55.250,41.21406288,1.72478531,54.498000000000005,243.78799999999998,0.332,-1.14,1702923715250000.0,1702923715255626,8.141342550516129e-05,0.005550865083932877,-0.006999999999997897,243.78799999999998,0.332,-1.14
187,1315260000,2023-12-18,18:21:55.260,41.21406288,1.72478531,54.498000000000005,243.778,0.332,-1.14,1702923715259999.0,1702923715265463,8.141342550516129e-05,0.005550865083932877,-0.006999999999997897,243.778,0.332,-1.14
188,1315270000,2023-12-18,18:21:55.270,41.21406288,1.7247853,54.498000000000005,243.768,0.32799999999999996,-1.14,1702923715270000.0,1702923715275565,-0.0007569028530269861,0.005563161335885525,-0.006999999999997897,243.768,0.32799999999999996,-1.14
189,1315280000,2023-12-18,18:21:55.280,41.21406288,1.7247853,54.498000000000005,243.75900000000001,0.32799999999999996,-1.141,1702923715280000.0,1702923715285612,-0.0007569028530269861,0.005563161335885525,-0.006999999999997897,243.75900000000001,0.32799999999999996,-1.141
190,1315290000,2023-12-18,18:21:55.290,41.21406287,1.72478529,54.498000000000005,243.74900000000002,0.332,-1.14,1702923715289999.0,1702923715295457,-0.0016115017351694405,0.004465282894670963,-0.006999999999997897,243.74900000000002,0.332,-1.14
191,1315300000,2023-12-18,18:21:55.300,41.21406287,1.72478528,54.498000000000005,243.739,0.335,-1.139,1702923715299999.0,1702923715305353,-0.002449818013701588,0.004477577283978462,-0.006999999999997897,243.739,0.335,-1.139
192,1315310000,2023-12-18,18:21:55.310,41.21406287,1.72478527,54.498000000000005,243.73,0.336,-1.139,1702923715310000.0,1702923715315615,-0.0032881342340260744,0.004489874467253685,-0.006999999999997897,243.73,0.336,-1.139
193,1315320000,2023-12-18,18:21:55.320,41.21406286,1.72478527,54.498000000000005,243.71900000000002,0.33799999999999997,-1.139,1702923715320000.0,1702923715325503,-0.003304416954051703,0.0033796997740864754,-0.006999999999997897,243.71900000000002,0.33799999999999997,-1.139
194,1315330000,2023-12-18,18:21:55.330,41.21406286,1.72478526,54.498000000000005,243.709,0.33899999999999997,-1.138,1702923715329999.0,1702923715335525,-0.00414273317437619,0.0033919960260391235,-0.006999999999997897,243.709,0.33899999999999997,-1.138
195,1315340000,2023-12-18,18:21:55.340,41.21406286,1.72478525,54.498000000000005,243.699,0.336,-1.137,1702923715340000.0,1702923715345646,-0.004981049394700676,0.003404291346669197,-0.006999999999997897,243.699,0.336,-1.137
196,1315350000,2023-12-18,18:21:55.350,41.21406285,1.72478524,54.497,243.688,0.335,-1.137,1702923715350000.0,1702923715355701,-0.0058356483350507915,0.0023064138367772102,-0.008000000000002672,243.688,0.335,-1.137
197,1315360000,2023-12-18,18:21:55.360,41.21406285,1.72478523,54.497,243.67700000000002,0.34,-1.138,1702923715359999.0,1702923715365523,-0.006673964613582939,0.0023187100887298584,-0.008000000000002672,243.67700000000002,0.34,-1.138
198,1315370000,2023-12-18,18:21:55.370,41.21406284,1.72478522,54.497,243.665,0.34600000000000003,-1.138,1702923715369999.0,1702923715375612,-0.007528563553933054,0.001220831647515297,-0.008000000000002672,243.665,0.34600000000000003,-1.138
199,1315380000,2023-12-18,18:21:55.380,41.21406284,1.72478522,54.497,243.653,0.344,-1.138,1702923715380000.0,1702923715385429,-0.007528563553933054,0.001220831647515297,-0.008000000000002672,243.653,0.344,-1.138
200,1315390000,2023-12-18,18:21:55.390,41.21406283,1.72478521,54.497,243.641,0.34,-1.14,1702923715390000.0,1702923715395500,-0.008383162436075509,0.0001229541376233101,-0.008000000000002672,243.641,0.34,-1.14
201,1315400000,2023-12-18,18:21:55.400,41.21406283,1.7247852,54.497,243.627,0.342,-1.143,1702923715399999.0,1702923715405397,-0.009221478714607656,0.00013524945825338364,-0.008000000000002672,243.627,0.342,-1.143
202,1315410000,2023-12-18,18:21:55.410,41.21406282,1.72478519,54.497,243.613,0.348,-1.145,1702923715409999.0,1702923715415411,-0.01007607759675011,-0.0009626280516386032,-0.008000000000002672,243.613,0.348,-1.145
203,1315420000,2023-12-18,18:21:55.420,41.21406282,1.72478518,54.497,243.59799999999998,0.35,-1.145,1702923715420000.0,1702923715425479,-0.010914393875282258,-0.0009503327310085297,-0.008000000000002672,243.59799999999998,0.35,-1.145
204,1315430000,2023-12-18,18:21:55.430,41.21406281,1.72478516,54.497,243.583,0.34700000000000003,-1.147,1702923715429999.0,1702923715435401,-0.01260730903595686,-0.0020359158515930176,-0.008000000000002672,243.583,0.34700000000000003,-1.147
205,1315440000,2023-12-18,18:21:55.440,41.21406281,1.72478515,54.497,243.567,0.345,-1.15,1702923715439999.0,1702923715445406,-0.013445625314489007,-0.002023618668317795,-0.008000000000002672,243.567,0.345,-1.15
206,1315450000,2023-12-18,18:21:55.450,41.2140628,1.72478514,54.497,243.55,0.34700000000000003,-1.151,1702923715450000.0,1702923715455488,-0.014300224196631461,-0.0031214971095323563,-0.008000000000002672,243.55,0.34700000000000003,-1.151
207,1315460000,2023-12-18,18:21:55.460,41.21406279,1.72478513,54.497,243.533,0.349,-1.151,1702923715460000.0,1702923715465392,-0.015154823136981577,-0.004219374619424343,-0.008000000000002672,243.533,0.349,-1.151
208,1315470000,2023-12-18,18:21:55.470,41.21406279,1.72478512,54.497,243.516,0.349,-1.153,1702923715469999.0,1702923715475380,-0.015993139415513724,-0.004207080230116844,-0.008000000000002672,243.516,0.349,-1.153
209,1315480000,2023-12-18,18:21:55.480,41.21406278,1.72478511,54.496,243.497,0.35100000000000003,-1.155,1702923715479999.0,1702923715485464,-0.01684773835586384,-0.005304957740008831,-0.009000000000000341,243.497,0.35100000000000003,-1.155
210,1315490000,2023-12-18,18:21:55.490,41.21406278,1.72478509,54.496,243.477,0.35,-1.155,1702923715490000.0,1702923715495540,-0.018524370854720473,-0.005280366167426109,-0.009000000000000341,243.477,0.35,-1.155
211,1315500000,2023-12-18,18:21:55.500,41.21406277,1.72478508,54.496,243.458,0.349,-1.1540000000000001,1702923715500000.0,1702923715505372,-0.01937896979507059,-0.006378244608640671,-0.009000000000000341,243.458,0.349,-1.1540000000000001
212,1315510000,2023-12-18,18:21:55.510,41.21406276,1.72478507,54.496,243.437,0.35200000000000004,-1.156,1702923715509999.0,1702923715515439,-0.020233568735420704,-0.007476122118532658,-0.009000000000000341,243.437,0.35200000000000004,-1.156
213,1315520000,2023-12-18,18:21:55.520,41.21406276,1.72478505,54.496,243.417,0.35700000000000004,-1.157,1702923715520000.0,1702923715525585,-0.021910201234277338,-0.0074515314772725105,-0.009000000000000341,243.417,0.35700000000000004,-1.157
214,1315530000,2023-12-18,18:21:55.530,41.21406275,1.72478504,54.496,243.396,0.359,-1.1540000000000001,1702923715530000.0,1702923715535603,-0.022764800116419792,-0.008549408987164497,-0.009000000000000341,243.396,0.359,-1.1540000000000001
215,1315540000,2023-12-18,18:21:55.540,41.21406274,1.72478503,54.496,243.37400000000002,0.35600000000000004,-1.1540000000000001,1702923715539999.0,1702923715545499,-0.02361939911497757,-0.009647286497056484,-0.009000000000000341,243.37400000000002,0.35600000000000004,-1.1540000000000001
216,1315550000,2023-12-18,18:21:55.550,41.21406273,1.72478501,54.496,243.352,0.354,-1.156,1702923715549999.0,1702923715555495,-0.02531231427565217,-0.010732868686318398,-0.009000000000000341,243.352,0.354,-1.156
217,1315560000,2023-12-18,18:21:55.560,41.21406273,1.724785,54.496,243.33,0.354,-1.157,1702923715560000.0,1702923715565575,-0.026150630495976657,-0.01072057243436575,-0.009000000000000341,243.33,0.354,-1.157
218,1315570000,2023-12-18,18:21:55.570,41.21406272,1.72478498,54.496,243.30700000000002,0.35600000000000004,-1.157,1702923715570000.0,1702923715575658,-0.02784354571485892,-0.011806154623627663,-0.009000000000000341,243.30700000000002,0.35600000000000004,-1.157
219,1315580000,2023-12-18,18:21:55.580,41.21406271,1.72478497,54.496,243.285,0.359,-1.158,1702923715579999.0,1702923715585490,-0.028698144655209035,-0.01290403213351965,-0.009000000000000341,243.285,0.359,-1.158
220,1315590000,2023-12-18,18:21:55.590,41.2140627,1.72478495,54.496,243.261,0.361,-1.16,1702923715590000.0,1702923715595554,-0.030391059815883636,-0.013989615254104137,-0.009000000000000341,243.261,0.361,-1.16
221,1315600000,2023-12-18,18:21:55.600,41.21406269,1.72478493,54.496,243.238,0.36200000000000004,-1.16,1702923715600000.0,1702923715605420,-0.0320839750347659,-0.01507519744336605,-0.009000000000000341,243.238,0.36200000000000004,-1.16
222,1315610000,2023-12-18,18:21:55.610,41.21406269,1.72478492,54.496,243.21400000000003,0.363,-1.16,1702923715609999.0,1702923715615449,-0.032922291196882725,-0.015062901191413403,-0.009000000000000341,243.21400000000003,0.363,-1.16
223,1315620000,2023-12-18,18:21:55.620,41.21406268,1.7247849,54.496,243.19,0.365,-1.163,1702923715619999.0,1702923715625533,-0.03461520641576499,-0.016148483380675316,-0.009000000000000341,243.19,0.365,-1.163
224,1315630000,2023-12-18,18:21:55.630,41.21406267,1.72478488,54.496,243.165,0.366,-1.166,1702923715630000.0,1702923715635386,-0.03630812163464725,-0.017234066501259804,-0.009000000000000341,243.165,0.366,-1.166
225,1315640000,2023-12-18,18:21:55.640,41.21406266,1.72478487,54.496,243.141,0.36700000000000005,-1.166,1702923715640000.0,1702923715645449,-0.037162720574997365,-0.018331943079829216,-0.009000000000000341,243.141,0.36700000000000005,-1.166
226,1315650000,2023-12-18,18:21:55.650,41.21406265,1.72478485,54.496,243.11599999999999,0.365,-1.166,1702923715649999.0,1702923715655549,-0.03885563573567197,-0.01941752526909113,-0.009000000000000341,243.11599999999999,0.365,-1.166
227,1315660000,2023-12-18,18:21:55.660,41.21406264,1.72478483,54.496,243.09,0.366,-1.169,1702923715659999.0,1702923715665385,-0.04054855089634657,-0.020503107458353043,-0.009000000000000341,243.09,0.366,-1.169
228,1315670000,2023-12-18,18:21:55.670,41.21406263,1.72478481,54.496,243.06400000000002,0.36700000000000005,-1.171,1702923715670000.0,1702923715675452,-0.04224146605702117,-0.02158869057893753,-0.009000000000000341,243.06400000000002,0.36700000000000005,-1.171
229,1315680000,2023-12-18,18:21:55.680,41.21406262,1.7247848,54.496,243.03799999999998,0.371,-1.171,1702923715679999.0,1702923715685348,-0.04309606505557895,-0.022686567157506943,-0.009000000000000341,243.03799999999998,0.371,-1.171
230,1315690000,2023-12-18,18:21:55.690,41.21406261,1.72478478,54.496,243.011,0.374,-1.173,1702923715689999.0,1702923715695415,-0.04478898015804589,-0.02377215027809143,-0.009000000000000341,243.011,0.374,-1.173
231,1315700000,2023-12-18,18:21:55.700,41.2140626,1.72478476,54.496,242.984,0.375,-1.177,1702923715700000.0,1702923715705451,-0.04648189543513581,-0.02485773339867592,-0.009000000000000341,242.984,0.375,-1.177
232,1315710000,2023-12-18,18:21:55.710,41.21406259,1.72478474,54.496,242.957,0.374,-1.178,1702923715710000.0,1702923715715354,-0.04817481059581041,-0.025943314656615257,-0.009000000000000341,242.957,0.374,-1.178
233,1315720000,2023-12-18,18:21:55.720,41.21406258,1.72478472,54.496,242.929,0.375,-1.178,1702923715719999.0,1702923715725355,-0.049867725814692676,-0.02702889684587717,-0.009000000000000341,242.929,0.375,-1.178
234,1315730000,2023-12-18,18:21:55.730,41.21406256,1.7247847,54.496,242.90099999999998,0.38,-1.181,1702923715729999.0,1702923715735437,-0.05157692369539291,-0.029224651865661144,-0.009000000000000341,242.90099999999998,0.38,-1.181
235,1315740000,2023-12-18,18:21:55.740,41.21406255,1.72478468,54.496,242.872,0.384,-1.1840000000000002,1702923715740000.0,1702923715745524,-0.05326983885606751,-0.030310234054923058,-0.009000000000000341,242.872,0.384,-1.1840000000000002
236,1315750000,2023-12-18,18:21:55.750,41.21406254,1.72478466,54.496,242.84400000000002,0.384,-1.185,1702923715750000.0,1702923715755383,-0.05496275407494977,-0.031395817175507545,-0.009000000000000341,242.84400000000002,0.384,-1.185
237,1315760000,2023-12-18,18:21:55.760,41.21406253,1.72478463,54.496,242.81400000000002,0.384,-1.186,1702923715759999.0,1702923715765427,-0.05749398551415652,-0.032469104044139385,-0.009000000000000341,242.81400000000002,0.384,-1.186
238,1315770000,2023-12-18,18:21:55.770,41.21406252,1.72478461,54.496,242.78400000000002,0.384,-1.189,1702923715770000.0,1702923715775567,-0.05918690067483112,-0.0335546862334013,-0.009000000000000341,242.78400000000002,0.384,-1.189
239,1315780000,2023-12-18,18:21:55.780,41.21406251,1.72478459,54.496,242.75400000000002,0.38299999999999995,-1.192,1702923715780000.0,1702923715785395,-0.060879815893713385,-0.03464026842266321,-0.009000000000000341,242.75400000000002,0.38299999999999995,-1.192
240,1315790000,2023-12-18,18:21:55.790,41.21406249,1.72478457,54.497,242.72400000000002,0.386,-1.194,1702923715789999.0,1702923715795695,-0.06258901377441362,-0.036836021579802036,-0.008000000000002672,242.72400000000002,0.386,-1.194
241,1315800000,2023-12-18,18:21:55.800,41.21406248,1.72478455,54.496,242.692,0.39299999999999996,-1.195,1702923715799999.0,1702923715805510,-0.06428192893508822,-0.03792160376906395,-0.009000000000000341,242.692,0.39299999999999996,-1.195
242,1315810000,2023-12-18,18:21:55.810,41.21406247,1.72478452,54.497,242.66,0.395,-1.199,1702923715810000.0,1702923715815604,-0.06681316037429497,-0.038994891569018364,-0.008000000000002672,242.66,0.395,-1.199
243,1315820000,2023-12-18,18:21:55.820,41.21406245,1.7247845,54.497,242.62900000000002,0.39299999999999996,-1.2009999999999998,1702923715820000.0,1702923715825682,-0.06852235831320286,-0.04119064565747976,-0.008000000000002672,242.62900000000002,0.39299999999999996,-1.2009999999999998
244,1315830000,2023-12-18,18:21:55.830,41.21406244,1.72478448,54.497,242.59599999999998,0.39399999999999996,-1.204,1702923715829999.0,1702923715835521,-0.07021527347387746,-0.04227622877806425,-0.008000000000002672,242.59599999999998,0.39399999999999996,-1.204
245,1315840000,2023-12-18,18:21:55.840,41.21406243,1.72478445,54.497,242.563,0.397,-1.207,1702923715840000.0,1702923715845584,-0.07274650497129187,-0.04334951564669609,-0.008000000000002672,242.563,0.397,-1.207
246,1315850000,2023-12-18,18:21:55.850,41.21406241,1.72478443,54.497,242.53099999999998,0.396,-1.209,1702923715850000.0,1702923715855444,-0.0744557028519921,-0.04554527159780264,-0.008000000000002672,242.53099999999998,0.396,-1.209
247,1315860000,2023-12-18,18:21:55.860,41.2140624,1.7247844,54.497,242.498,0.39399999999999996,-1.21,1702923715859999.0,1702923715865505,-0.07698693429119885,-0.046618557535111904,-0.008000000000002672,242.498,0.39399999999999996,-1.21
248,1315870000,2023-12-18,18:21:55.870,41.21406239,1.72478438,54.497,242.463,0.397,-1.212,1702923715869999.0,1702923715875397,-0.07867984951008111,-0.04770414065569639,-0.008000000000002672,242.463,0.397,-1.212
249,1315880000,2023-12-18,18:21:55.880,41.21406237,1.72478435,54.497,242.429,0.4,-1.214,1702923715880000.0,1702923715885401,-0.08122736366931349,-0.04988759942352772,-0.008000000000002672,242.429,0.4,-1.214
250,1315890000,2023-12-18,18:21:55.890,41.21406236,1.72478433,54.497,242.396,0.401,-1.216,1702923715890000.0,1702923715895473,-0.08292027882998809,-0.05097318161278963,-0.008000000000002672,242.396,0.401,-1.216
251,1315900000,2023-12-18,18:21:55.900,41.21406234,1.7247843,54.498000000000005,242.361,0.40399999999999997,-1.218,1702923715899999.0,1702923715905558,-0.08546779298922047,-0.05315664317458868,-0.006999999999997897,242.361,0.40399999999999997,-1.218
252,1315910000,2023-12-18,18:21:55.910,41.21406233,1.72478427,54.497,242.326,0.408,-1.219,1702923715909999.0,1702923715915397,-0.08799902442842722,-0.054229929111897945,-0.008000000000002672,242.326,0.408,-1.219
253,1315920000,2023-12-18,18:21:55.920,41.21406232,1.72478425,54.497,242.291,0.406,-1.22,1702923715920000.0,1702923715925456,-0.08969193964730948,-0.055315510369837284,-0.008000000000002672,242.291,0.406,-1.22
254,1315930000,2023-12-18,18:21:55.930,41.2140623,1.72478422,54.498000000000005,242.25599999999997,0.405,-1.222,1702923715929999.0,1702923715935536,-0.0922394537483342,-0.05749897100031376,-0.006999999999997897,242.25599999999997,0.405,-1.222
255,1315940000,2023-12-18,18:21:55.940,41.21406229,1.72478419,54.498000000000005,242.22,0.409,-1.2229999999999999,1702923715939999.0,1702923715945367,-0.09477068524574861,-0.0585722578689456,-0.006999999999997897,242.22,0.409,-1.2229999999999999
256,1315950000,2023-12-18,18:21:55.950,41.21406227,1.72478416,54.497,242.183,0.41200000000000003,-1.224,1702923715950000.0,1702923715955453,-0.09731819940498099,-0.060755716636776924,-0.008000000000002672,242.183,0.41200000000000003,-1.224
257,1315960000,2023-12-18,18:21:55.960,41.21406225,1.72478413,54.498000000000005,242.14700000000002,0.41,-1.224,1702923715960000.0,1702923715965357,-0.0998657135060057,-0.0629391772672534,-0.006999999999997897,242.14700000000002,0.41,-1.224
258,1315970000,2023-12-18,18:21:55.970,41.21406224,1.7247841,54.498000000000005,242.11,0.41,-1.226,1702923715969999.0,1702923715975381,-0.10239694500342011,-0.06401246413588524,-0.006999999999997897,242.11,0.41,-1.226
259,1315980000,2023-12-18,18:21:55.980,41.21406222,1.72478408,54.497,242.072,0.41200000000000003,-1.226,1702923715979999.0,1702923715985433,-0.10410614288412035,-0.06620821822434664,-0.008000000000002672,242.072,0.41200000000000003,-1.226
260,1315990000,2023-12-18,18:21:55.990,41.21406221,1.72478405,54.498000000000005,242.03400000000002,0.41100000000000003,-1.228,1702923715990000.0,1702923715995523,-0.10663737438153476,-0.06728150602430105,-0.006999999999997897,242.03400000000002,0.41100000000000003,-1.228
261,1316000000,2023-12-18,18:21:56.000,41.21406219,1.72478402,54.498000000000005,241.995,0.41100000000000003,-1.229,1702923716000000.0,1702923716005367,-0.10918488854076713,-0.06946496572345495,-0.006999999999997897,241.995,0.41100000000000003,-1.229
262,1316010000,2023-12-18,18:21:56.010,41.21406218,1.72478399,54.498000000000005,241.956,0.41600000000000004,-1.23,1702923716009999.0,1702923716015444,-0.11171612003818154,-0.07053825166076422,-0.006999999999997897,241.956,0.41600000000000004,-1.23
