, Time(), Date, Local Time, Latitude(deg), Longitude(deg), Altitude(m), Heading(deg), Pitch(deg), Roll(deg),TimestampGPS,TimestampHDF,x,y,z,heading,pitch,roll
0,1988300000,2023-09-20,11:33:08.300,41.22070882,1.73107144,59.722,338.329,0.021,0.16,1695209588300000.0,1695209587300233,0.0,0.0,0.0,338.329,0.021,0.16
1,1988310000,2023-09-20,11:33:08.310,41.22070889,1.73107141,59.722,338.329,0.019,0.16,1695209588310000.0,1695209587309959,-0.002401261415798217,0.0078079234808683395,0.0,338.329,0.019,0.16
2,1988320000,2023-09-20,11:33:08.320,41.22070895,1.73107137,59.722,338.332,0.019,0.154,1695209588320000.0,1695209587320101,-0.005656958383042365,0.014517907984554768,0.0,338.332,0.019,0.154
3,1988330000,2023-09-20,11:33:08.330,41.22070902,1.73107133,59.722,338.335,0.021,0.145,1695209588330000.0,1695209587330073,-0.008896450803149492,0.022338065318763256,0.0,338.335,0.021,0.145
4,1988340000,2023-09-20,11:33:08.340,41.22070909,1.73107129,59.722,338.337,0.02,0.138,1695209588339999.0,1695209587340152,-0.012135943223256618,0.03015822358429432,0.0,338.337,0.02,0.138
5,1988350000,2023-09-20,11:33:08.350,41.22070916,1.73107126,59.722,338.338,0.019,0.134,1695209588349999.0,1695209587349999,-0.014537204580847174,0.03796614520251751,0.0,338.338,0.019,0.134
6,1988360000,2023-09-20,11:33:08.360,41.22070922,1.73107122,59.722,338.338,0.021,0.128,1695209588359999.0,1695209587359900,-0.017792901548091322,0.04467612970620394,0.0,338.338,0.021,0.128
7,1988370000,2023-09-20,11:33:08.370,41.2207093,1.73107118,59.722,338.338,0.02,0.124,1695209588369999.0,1695209587370066,-0.021016189421061426,0.05360646266490221,0.0,338.338,0.02,0.124
8,1988380000,2023-09-20,11:33:08.380,41.22070936,1.73107114,59.722,338.337,0.018000000000000002,0.121,1695209588380000.0,1695209587380112,-0.024271886271890253,0.06031644716858864,0.0,338.337,0.018000000000000002,0.121
9,1988390000,2023-09-20,11:33:08.390,41.22070943,1.7310711,59.722,338.337,0.015,0.12,1695209588390000.0,1695209587389908,-0.02751137869199738,0.06813660450279713,0.0,338.337,0.015,0.12
10,1988400000,2023-09-20,11:33:08.400,41.22070951,1.73107106,59.722,338.336,0.012,0.122,1695209588400000.0,1695209587399914,-0.030734666506759822,0.07706693559885025,0.0,338.336,0.012,0.122
11,1988410000,2023-09-20,11:33:08.410,41.22070958,1.73107102,59.722,338.337,0.011000000000000001,0.11900000000000001,1695209588410000.0,1695209587410008,-0.03397415892686695,0.08488709293305874,0.0,338.337,0.011000000000000001,0.11900000000000001
12,1988420000,2023-09-20,11:33:08.420,41.22070965,1.73107098,59.722,338.339,0.012,0.11599999999999999,1695209588419999.0,1695209587419925,-0.037213651288766414,0.09270725212991238,0.0,338.339,0.012,0.11599999999999999
13,1988430000,2023-09-20,11:33:08.430,41.22070972,1.73107094,59.722,338.343,0.012,0.11599999999999999,1695209588429999.0,1695209587430177,-0.04045314359245822,0.10052740946412086,0.0,338.343,0.012,0.11599999999999999
14,1988440000,2023-09-20,11:33:08.440,41.22070979,1.7310709,59.722,338.349,0.013000000000000001,0.11199999999999999,1695209588439999.0,1695209587439967,-0.043692635954357684,0.10834756772965193,0.0,338.349,0.013000000000000001,0.11199999999999999
15,1988450000,2023-09-20,11:33:08.450,41.22070987,1.73107086,59.722,338.356,0.018000000000000002,0.107,1695209588449999.0,1695209587449900,-0.046915923710912466,0.11727789882570505,0.0,338.356,0.018000000000000002,0.107
16,1988460000,2023-09-20,11:33:08.460,41.22070994,1.73107082,59.722,338.36,0.019,0.10300000000000001,1695209588460000.0,1695209587460067,-0.05015541607281193,0.12509805895388126,0.0,338.36,0.019,0.10300000000000001
17,1988470000,2023-09-20,11:33:08.470,41.22071001,1.73107077,59.722,338.35900000000004,0.018000000000000002,0.10300000000000001,1695209588470000.0,1695209587470092,-0.05423313949722797,0.13293045107275248,0.0,338.35900000000004,0.018000000000000002,0.10300000000000001
18,1988480000,2023-09-20,11:33:08.480,41.22071009,1.73107073,59.722,338.355,0.016,0.109,1695209588480000.0,1695209587479914,-0.05745642725378275,0.14186078310012817,0.0,338.355,0.016,0.109
19,1988490000,2023-09-20,11:33:08.490,41.22071016,1.73107069,59.722,338.352,0.006999999999999999,0.122,1695209588490000.0,1695209587489912,-0.060695919557474554,0.14968094136565924,0.0,338.352,0.006999999999999999,0.122
20,1988500000,2023-09-20,11:33:08.500,41.22071024,1.73107065,59.722,338.355,0.001,0.126,1695209588500000.0,1695209587500057,-0.06391920731402934,0.15861127339303493,0.0,338.355,0.001,0.126
21,1988510000,2023-09-20,11:33:08.510,41.22071031,1.73107061,59.722,338.36199999999997,0.006,0.111,1695209588509999.0,1695209587509889,-0.06715869955951348,0.166431431658566,0.0,338.36199999999997,0.006,0.111
22,1988520000,2023-09-20,11:33:08.520,41.22071039,1.73107056,59.722,338.36800000000005,0.013999999999999999,0.095,1695209588519999.0,1695209587519840,-0.07122021837858483,0.17537399753928185,0.0,338.36800000000005,0.013999999999999999,0.095
23,1988530000,2023-09-20,11:33:08.530,41.22071047,1.73107052,59.722,338.37,0.016,0.08800000000000001,1695209588529999.0,1695209587529969,-0.07444350607693195,0.18430432956665754,0.0,338.37,0.016,0.08800000000000001
24,1988540000,2023-09-20,11:33:08.540,41.22071054,1.73107048,59.722,338.37,0.017,0.086,1695209588539999.0,1695209587540132,-0.0776829983224161,0.1921244878321886,0.0,338.37,0.017,0.086
25,1988550000,2023-09-20,11:33:08.550,41.22071062,1.73107043,59.722,338.37,0.011000000000000001,0.096,1695209588550000.0,1695209587550061,-0.08174451714148745,0.20106705371290445,0.0,338.37,0.011000000000000001,0.096
26,1988560000,2023-09-20,11:33:08.560,41.2207107,1.73107039,59.722,338.37,0.003,0.10300000000000001,1695209588560000.0,1695209587559966,-0.08496780478162691,0.20999738667160273,0.0,338.37,0.003,0.10300000000000001
27,1988570000,2023-09-20,11:33:08.570,41.22071078,1.73107035,59.722,338.36800000000005,0.002,0.10300000000000001,1695209588570000.0,1695209587569998,-0.08819109247997403,0.21892771869897842,0.0,338.36800000000005,0.002,0.10300000000000001
28,1988580000,2023-09-20,11:33:08.580,41.22071086,1.7310703,59.722,338.36699999999996,0.002,0.099,1695209588580000.0,1695209587580155,-0.09225261118263006,0.22787028551101685,0.0,338.36699999999996,0.002,0.099
29,1988590000,2023-09-20,11:33:08.590,41.22071094,1.73107026,59.722,338.36800000000005,0.001,0.09300000000000001,1695209588589999.0,1695209587590008,-0.09547589888097718,0.23680061660706997,0.0,338.36800000000005,0.001,0.09300000000000001
30,1988600000,2023-09-20,11:33:08.600,41.22071102,1.73107022,59.722,338.374,0.005,0.08,1695209588599999.0,1695209587599967,-0.09869918652111664,0.24573094863444567,0.0,338.374,0.005,0.08
31,1988610000,2023-09-20,11:33:08.610,41.2207111,1.73107017,59.722,338.37699999999995,0.006999999999999999,0.07400000000000001,1695209588609999.0,1695209587609911,-0.10276070516556501,0.25467351730912924,0.0,338.37699999999995,0.006999999999999999,0.07400000000000001
32,1988620000,2023-09-20,11:33:08.620,41.22071118,1.73107013,59.722,338.37699999999995,0.006999999999999999,0.075,1695209588619999.0,1695209587620062,-0.10598399286391214,0.2636038502678275,0.0,338.37699999999995,0.006999999999999999,0.075
33,1988630000,2023-09-20,11:33:08.630,41.22071126,1.73107008,59.722,338.37300000000005,0.005,0.073,1695209588630000.0,1695209587630196,-0.1100455115083605,0.2725464152172208,0.0,338.37300000000005,0.005,0.073
34,1988640000,2023-09-20,11:33:08.640,41.22071134,1.73107004,59.722,338.37,-0.002,0.076,1695209588640000.0,1695209587640031,-0.11326879914849997,0.2814767472445965,0.0,338.37,-0.002,0.076
35,1988650000,2023-09-20,11:33:08.650,41.22071143,1.73106999,59.722,338.369,-0.01,0.08199999999999999,1695209588650000.0,1695209587650074,-0.11731411324581131,0.29152948781847954,0.0,338.369,-0.01,0.08199999999999999
36,1988660000,2023-09-20,11:33:08.660,41.22071151,1.73106995,59.722,338.36800000000005,-0.011000000000000001,0.081,1695209588660000.0,1695209587660082,-0.12053740082774311,0.3004598207771778,0.0,338.36800000000005,-0.011000000000000001,0.081
37,1988670000,2023-09-20,11:33:08.670,41.22071159,1.7310699,59.722,338.366,-0.01,0.079,1695209588669999.0,1695209587669938,-0.12459891947219148,0.3094023885205388,0.0,338.366,-0.01,0.079
38,1988680000,2023-09-20,11:33:08.680,41.22071168,1.73106986,59.722,338.365,-0.015,0.08,1695209588679999.0,1695209587680077,-0.1278060024487786,0.31944289337843657,0.0,338.365,-0.015,0.08
39,1988690000,2023-09-20,11:33:08.690,41.22071176,1.73106981,59.722,338.366,-0.021,0.075,1695209588689999.0,1695209587689885,-0.13186752109322697,0.32838546112179756,0.0,338.366,-0.021,0.075
40,1988700000,2023-09-20,11:33:08.700,41.22071185,1.73106976,59.722,338.37,-0.022000000000000002,0.069,1695209588699999.0,1695209587699983,-0.13591283513233066,0.3384382016956806,0.0,338.37,-0.022000000000000002,0.069
41,1988710000,2023-09-20,11:33:08.710,41.22071194,1.73106971,59.722,338.374,-0.021,0.068,1695209588710000.0,1695209587709970,-0.13995814911322668,0.3484909422695637,0.0,338.374,-0.021,0.068
42,1988720000,2023-09-20,11:33:08.720,41.22071202,1.73106967,59.722,338.374,-0.02,0.069,1695209588720000.0,1695209587720082,-0.14318143669515848,0.3574212742969394,0.0,338.374,-0.02,0.069
43,1988730000,2023-09-20,11:33:08.730,41.22071211,1.73106962,59.722,338.36800000000005,-0.025,0.08199999999999999,1695209588730000.0,1695209587729958,-0.1472267506760545,0.367474015802145,0.0,338.36800000000005,-0.025,0.08199999999999999
44,1988740000,2023-09-20,11:33:08.740,41.2207122,1.73106957,59.722,338.361,-0.039,0.102,1695209588740000.0,1695209587739943,-0.15127206465695053,0.37752675637602806,0.0,338.361,-0.039,0.102
45,1988750000,2023-09-20,11:33:08.750,41.22071229,1.73106952,59.722,338.358,-0.051,0.11800000000000001,1695209588750000.0,1695209587749906,-0.15531737863784656,0.3875794978812337,0.0,338.358,-0.051,0.11800000000000001
46,1988760000,2023-09-20,11:33:08.760,41.22071238,1.73106947,59.723,338.36199999999997,-0.053,0.122,1695209588759999.0,1695209587760040,-0.15936269256053492,0.39763223845511675,0.0009999999999976694,338.36199999999997,-0.053,0.122
47,1988770000,2023-09-20,11:33:08.770,41.22071247,1.73106942,59.723,338.36800000000005,-0.052000000000000005,0.124,1695209588769999.0,1695209587769940,-0.16340800654143095,0.4076849799603224,0.0009999999999976694,338.36800000000005,-0.052000000000000005,0.124
48,1988780000,2023-09-20,11:33:08.780,41.22071256,1.73106937,59.723,338.37199999999996,-0.052000000000000005,0.124,1695209588779999.0,1695209587779958,-0.16745332046411932,0.417737721465528,0.0009999999999976694,338.37199999999996,-0.052000000000000005,0.124
49,1988790000,2023-09-20,11:33:08.790,41.22071265,1.73106933,59.723,338.374,-0.053,0.125,1695209588789999.0,1695209587790187,-0.17066040338249877,0.42777822725474834,0.0009999999999976694,338.374,-0.053,0.125
50,1988800000,2023-09-20,11:33:08.800,41.22071274,1.73106928,59.723,338.37800000000004,-0.057999999999999996,0.138,1695209588800000.0,1695209587800202,-0.17470571724697948,0.4378309678286314,0.0009999999999976694,338.37800000000004,-0.057999999999999996,0.138
51,1988810000,2023-09-20,11:33:08.810,41.22071283,1.73106923,59.723,338.384,-0.061,0.149,1695209588810000.0,1695209587810029,-0.1787510312278755,0.44788370840251446,0.0009999999999976694,338.384,-0.061,0.149
52,1988820000,2023-09-20,11:33:08.820,41.22071292,1.73106918,59.723,338.38699999999994,-0.06,0.154,1695209588820000.0,1695209587820001,-0.1827963450923562,0.4579364499077201,0.0009999999999976694,338.38699999999994,-0.06,0.154
53,1988830000,2023-09-20,11:33:08.830,41.22071301,1.73106913,59.724,338.385,-0.067,0.17,1695209588830000.0,1695209587829984,-0.1868416589568369,0.46798919048160315,0.001999999999995339,338.385,-0.067,0.17
54,1988840000,2023-09-20,11:33:08.840,41.22071311,1.73106908,59.724,338.38,-0.075,0.185,1695209588839999.0,1695209587840001,-0.1908707682741806,0.47915210481733084,0.001999999999995339,338.38,-0.075,0.185
55,1988850000,2023-09-20,11:33:08.850,41.2207132,1.73106903,59.724,338.38,-0.077,0.191,1695209588849999.0,1695209587850202,-0.1949160821386613,0.48920484632253647,0.001999999999995339,338.38,-0.077,0.191
56,1988860000,2023-09-20,11:33:08.860,41.22071329,1.73106898,59.724,338.389,-0.076,0.193,1695209588859999.0,1695209587860065,-0.19896139594493434,0.4992575868964195,0.001999999999995339,338.389,-0.076,0.193
57,1987870000,2023-09-20,11:33:07.870,41.22071339,1.73106893,59.724,338.401,-0.07,0.188,1695209587870000.0,1695209587869945,-0.20299050520407036,0.5104205030947924,0.001999999999995339,338.401,-0.07,0.188
58,1987880000,2023-09-20,11:33:07.880,41.22071348,1.73106888,59.724,338.41,-0.059000000000000004,0.174,1695209587879999.0,1695209587880082,-0.20703581906855106,0.5204732436686754,0.001999999999995339,338.41,-0.059000000000000004,0.174
59,1987890000,2023-09-20,11:33:07.890,41.22071358,1.73106883,59.724,338.411,-0.057,0.17600000000000002,1695209587889999.0,1695209587889948,-0.21106492826947942,0.5316361589357257,0.001999999999995339,338.411,-0.057,0.17600000000000002
60,1987900000,2023-09-20,11:33:07.900,41.22071367,1.73106878,59.725,338.408,-0.064,0.193,1695209587900000.0,1695209587899921,-0.21511024207575247,0.5416888995096087,0.0030000000000001137,338.408,-0.064,0.193
61,1987910000,2023-09-20,11:33:07.910,41.22071377,1.73106872,59.725,338.406,-0.069,0.209,1695209587910000.0,1695209587910047,-0.21997758222278208,0.5528640504926443,0.0030000000000001137,338.406,-0.069,0.209
62,1987920000,2023-09-20,11:33:07.920,41.22071386,1.73106867,59.725,338.407,-0.071,0.223,1695209587919999.0,1695209587920089,-0.22402289597084746,0.5629167901352048,0.0030000000000001137,338.407,-0.071,0.223
63,1987930000,2023-09-20,11:33:07.930,41.22071396,1.73106862,59.725,338.41,-0.071,0.228,1695209587929999.0,1695209587930091,-0.22805200522998348,0.5740797072649002,0.0030000000000001137,338.41,-0.071,0.228
64,1987940000,2023-09-20,11:33:07.940,41.22071405,1.73106857,59.725,338.41,-0.061,0.218,1695209587940000.0,1695209587939988,-0.23209731897804886,0.5841324469074607,0.0030000000000001137,338.41,-0.061,0.218
65,1987950000,2023-09-20,11:33:07.950,41.22071415,1.73106852,59.725,338.412,-0.055,0.212,1695209587950000.0,1695209587950146,-0.23612642812076956,0.595295362174511,0.0030000000000001137,338.412,-0.055,0.212
66,1987960000,2023-09-20,11:33:07.960,41.22071424,1.73106847,59.726000000000006,338.417,-0.053,0.214,1695209587960000.0,1695209587960008,-0.24017174186883494,0.605348102748394,0.0040000000000048885,338.417,-0.053,0.214
67,1987970000,2023-09-20,11:33:07.970,41.22071434,1.73106841,59.726000000000006,338.42699999999996,-0.048,0.21100000000000002,1695209587969999.0,1695209587970116,-0.2450390819576569,0.616523252800107,0.0040000000000048885,338.42699999999996,-0.048,0.21100000000000002
68,1987980000,2023-09-20,11:33:07.980,41.22071444,1.73106836,59.726000000000006,338.435,-0.040999999999999995,0.20199999999999999,1695209587980000.0,1695209587980110,-0.24906819098396227,0.6276861680671573,0.0040000000000048885,338.435,-0.040999999999999995,0.20199999999999999
69,1987990000,2023-09-20,11:33:07.990,41.22071453,1.73106831,59.726000000000006,338.43300000000005,-0.038,0.2,1695209587990000.0,1695209587990096,-0.25311350473202765,0.6377389095723629,0.0040000000000048885,338.43300000000005,-0.038,0.2
70,1988000000,2023-09-20,11:33:08.000,41.22071463,1.73106826,59.727,338.42400000000004,-0.040999999999999995,0.205,1695209588000000.0,1695209587999935,-0.2571426138165407,0.6489018248394132,0.0049999999999954525,338.42400000000004,-0.040999999999999995,0.205
71,1988010000,2023-09-20,11:33:08.010,41.22071473,1.7310682,59.727,338.415,-0.046,0.21899999999999997,1695209588009999.0,1695209588011063,-0.262009953847155,0.6600769739598036,0.0049999999999954525,338.415,-0.046,0.21899999999999997
72,1988020000,2023-09-20,11:33:08.020,41.22071483,1.73106815,59.727,338.414,-0.051,0.23199999999999998,1695209588019999.0,1695209588020076,-0.266039062931668,0.6712398882955313,0.0049999999999954525,338.414,-0.051,0.23199999999999998
73,1988030000,2023-09-20,11:33:08.030,41.22071492,1.73106809,59.727,338.417,-0.045,0.221,1695209588029999.0,1695209588029927,-0.270922607567627,0.6813048655167222,0.0049999999999954525,338.417,-0.045,0.221
74,1988040000,2023-09-20,11:33:08.040,41.22071502,1.73106804,59.727,338.421,-0.034,0.195,1695209588039999.0,1695209588039870,-0.27495171659393236,0.6924677807837725,0.0049999999999954525,338.421,-0.034,0.195
75,1988050000,2023-09-20,11:33:08.050,41.22071512,1.73106799,59.728,338.42699999999996,-0.027000000000000003,0.174,1695209588050000.0,1695209588049957,-0.27898082562023774,0.7036306960508227,0.006000000000000227,338.42699999999996,-0.027000000000000003,0.174
76,1988060000,2023-09-20,11:33:08.060,41.22071522,1.73106793,59.728,338.431,-0.022000000000000002,0.158,1695209588060000.0,1695209588060198,-0.28384816559264436,0.7148058461025357,0.006000000000000227,338.431,-0.022000000000000002,0.158
77,1988070000,2023-09-20,11:33:08.070,41.22071532,1.73106788,59.728,338.436,-0.02,0.15,1695209588070000.0,1695209588069989,-0.2878772745607421,0.725968761369586,0.006000000000000227,338.436,-0.02,0.15
78,1988080000,2023-09-20,11:33:08.080,41.22071542,1.73106783,59.728,338.43800000000005,-0.022000000000000002,0.149,1695209588080000.0,1695209588080042,-0.29190638358704746,0.7371316757053137,0.006000000000000227,338.43800000000005,-0.022000000000000002,0.149
79,1988090000,2023-09-20,11:33:08.090,41.22071552,1.73106777,59.728,338.435,-0.023,0.142,1695209588089999.0,1695209588089924,-0.2967737235012464,0.7483068257570267,0.006000000000000227,338.435,-0.023,0.142
80,1988100000,2023-09-20,11:33:08.100,41.22071562,1.73106771,59.728,338.42800000000005,-0.023,0.13699999999999998,1695209588099999.0,1695209588100195,-0.3016410634154454,0.7594819758087397,0.006000000000000227,338.42800000000005,-0.023,0.13699999999999998
81,1988110000,2023-09-20,11:33:08.110,41.22071572,1.73106766,59.728,338.425,-0.025,0.14,1695209588109999.0,1695209588110159,-0.3056701723835431,0.7706448929384351,0.006000000000000227,338.425,-0.025,0.14
82,1988120000,2023-09-20,11:33:08.120,41.22071582,1.7310676,59.729,338.42699999999996,-0.025,0.13699999999999998,1695209588119999.0,1695209588120094,-0.3105375122395344,0.7818200420588255,0.006999999999997897,338.42699999999996,-0.025,0.13699999999999998
83,1988130000,2023-09-20,11:33:08.130,41.22071592,1.73106754,59.729,338.43199999999996,-0.02,0.11699999999999999,1695209588130000.0,1695209588130011,-0.3154048521537334,0.7929951921105385,0.006999999999997897,338.43199999999996,-0.02,0.11699999999999999
84,1988140000,2023-09-20,11:33:08.140,41.22071603,1.73106749,59.729,338.44,-0.017,0.095,1695209588140000.0,1695209588139952,-0.31941775645827875,0.8052682802081108,0.006999999999997897,338.44,-0.017,0.095
85,1988150000,2023-09-20,11:33:08.150,41.22071613,1.73106743,59.729,338.44699999999995,-0.012,0.07200000000000001,1695209588150000.0,1695209588150101,-0.32428509631427005,0.8164434311911464,0.006999999999997897,338.44699999999995,-0.012,0.07200000000000001
86,1988160000,2023-09-20,11:33:08.160,41.22071623,1.73106737,59.729,338.454,-0.006,0.054000000000000006,1695209588160000.0,1695209588160098,-0.3291524361120537,0.8276185812428594,0.006999999999997897,338.454,-0.006,0.054000000000000006
87,1988170000,2023-09-20,11:33:08.170,41.22071633,1.73106732,59.729,338.459,-0.006,0.053,1695209588169999.0,1695209588169993,-0.3331815449637361,0.8387814974412322,0.006999999999997897,338.459,-0.006,0.053
88,1988180000,2023-09-20,11:33:08.180,41.22071644,1.73106726,59.729,338.458,-0.01,0.054000000000000006,1695209588179999.0,1695209588180013,-0.33803268015617505,0.8510668203234673,0.006999999999997897,338.458,-0.01,0.054000000000000006
89,1988190000,2023-09-20,11:33:08.190,41.22071654,1.7310672,59.729,338.45599999999996,-0.009000000000000001,0.045,1695209588189999.0,1695209588190000,-0.34290001989575103,0.8622419713065028,0.006999999999997897,338.45599999999996,-0.009000000000000001,0.045
90,1988200000,2023-09-20,11:33:08.200,41.22071664,1.73106714,59.729,338.457,-0.009000000000000001,0.04,1695209588199999.0,1695209588200006,-0.34776735975174233,0.8734171204268932,0.006999999999997897,338.457,-0.009000000000000001,0.04
91,1988210000,2023-09-20,11:33:08.210,41.22071675,1.73106708,59.729,338.46,-0.011000000000000001,0.037000000000000005,1695209588210000.0,1695209588210054,-0.35261849488597363,0.885702446103096,0.006999999999997897,338.46,-0.011000000000000001,0.037000000000000005
92,1988220000,2023-09-20,11:33:08.220,41.22071685,1.73106702,59.729,338.463,-0.009000000000000001,0.028999999999999998,1695209588220000.0,1695209588219947,-0.3574858346255496,0.8968775970861316,0.006999999999997897,338.463,-0.009000000000000001,0.028999999999999998
93,1988230000,2023-09-20,11:33:08.230,41.22071696,1.73106696,59.729,338.465,-0.006,0.015,1695209588230000.0,1695209588230086,-0.3623369697597809,0.9091629199683666,0.006999999999997897,338.465,-0.006,0.015
94,1988240000,2023-09-20,11:33:08.240,41.22071706,1.7310669,59.728,338.467,-0.004,-0.003,1695209588240000.0,1695209588239926,-0.3672043094993569,0.920338069088757,0.006000000000000227,338.467,-0.004,-0.003
95,1988250000,2023-09-20,11:33:08.250,41.22071717,1.73106684,59.728,338.47,0.002,-0.026000000000000002,1695209588250000.0,1695209588250002,-0.37205544457538053,0.9326233947649598,0.006000000000000227,338.47,0.002,-0.026000000000000002
96,1988260000,2023-09-20,11:33:08.260,41.22071727,1.73106679,59.728,338.474,0.006,-0.047,1695209588259999.0,1695209588259948,-0.37608455325243995,0.9437863091006875,0.006000000000000227,338.474,0.006,-0.047
97,1988270000,2023-09-20,11:33:08.270,41.22071738,1.73106673,59.728,338.474,-0.001,-0.05,1695209588269999.0,1695209588269906,-0.3809356883284636,0.9560716347768903,0.006000000000000227,338.474,-0.001,-0.05
98,1988280000,2023-09-20,11:33:08.280,41.22071748,1.73106667,59.728,338.469,-0.01,-0.05,1695209588279999.0,1695209588280370,-0.3858030280098319,0.9672467829659581,0.006000000000000227,338.469,-0.01,-0.05
99,1988290000,2023-09-20,11:33:08.290,41.22071759,1.73106662,59.727,338.465,-0.013000000000000001,-0.057,1695209588289999.0,1695209588290013,-0.389815932023339,0.979519871994853,0.0049999999999954525,338.465,-0.013000000000000001,-0.057
100,1988300000,2023-09-20,11:33:08.300,41.2207177,1.73106656,59.727,338.467,-0.011000000000000001,-0.069,1695209588300000.0,1695209588300162,-0.39466706704115495,0.9918051967397332,0.0049999999999954525,338.467,-0.011000000000000001,-0.069
101,1988310000,2023-09-20,11:33:08.310,41.2207178,1.7310665,59.727,338.472,-0.008,-0.08800000000000001,1695209588310000.0,1695209588309976,-0.3995344066643156,1.0029803486540914,0.0049999999999954525,338.472,-0.008,-0.08800000000000001
102,1988320000,2023-09-20,11:33:08.320,41.22071791,1.73106645,59.727,338.473,-0.006999999999999999,-0.109,1695209588320000.0,1695209588320118,-0.4035473106778227,1.015253435820341,0.0049999999999954525,338.473,-0.006999999999999999,-0.109
103,1988330000,2023-09-20,11:33:08.330,41.22071801,1.73106639,59.727,338.468,-0.013000000000000001,-0.12,1695209588330000.0,1695209588330001,-0.408414650184568,1.026428585872054,0.0049999999999954525,338.468,-0.013000000000000001,-0.12
104,1988340000,2023-09-20,11:33:08.340,41.22071812,1.73106633,59.727,338.465,-0.023,-0.121,1695209588339999.0,1695209588340100,-0.41326578514417633,1.0387139106169343,0.0049999999999954525,338.465,-0.023,-0.121
105,1988350000,2023-09-20,11:33:08.350,41.22071823,1.73106629,59.726000000000006,338.47,-0.027999999999999997,-0.129,1695209588349999.0,1695209588350047,-0.41644045821158215,1.050974763929844,0.0040000000000048885,338.47,-0.027999999999999997,-0.129
106,1988360000,2023-09-20,11:33:08.360,41.22071833,1.73106622,59.726000000000006,338.47900000000004,-0.027000000000000003,-0.15,1695209588359999.0,1695209588360008,-0.42214602866442874,1.0621621496975422,0.0040000000000048885,338.47900000000004,-0.027000000000000003,-0.15
107,1988370000,2023-09-20,11:33:08.370,41.22071844,1.73106616,59.726000000000006,338.48400000000004,-0.025,-0.18100000000000002,1695209588369999.0,1695209588370050,-0.4269971635658294,1.0744474735110998,0.0040000000000048885,338.48400000000004,-0.025,-0.18100000000000002
108,1988380000,2023-09-20,11:33:08.380,41.22071855,1.73106611,59.725,338.485,-0.027000000000000003,-0.20600000000000002,1695209588380000.0,1695209588380027,-0.43101006746292114,1.0867205644026399,0.0030000000000001137,338.485,-0.027000000000000003,-0.20600000000000002
109,1988390000,2023-09-20,11:33:08.390,41.22071866,1.73106605,59.726000000000006,338.485,-0.035,-0.214,1695209588390000.0,1695209588389939,-0.43586120230611414,1.099005887284875,0.0040000000000048885,338.485,-0.035,-0.214
110,1988400000,2023-09-20,11:33:08.400,41.22071876,1.73106599,59.726000000000006,338.48900000000003,-0.045,-0.21899999999999997,1695209588400000.0,1695209588399969,-0.4407285418128595,1.1101810382679105,0.0040000000000048885,338.48900000000003,-0.045,-0.21899999999999997
111,1988410000,2023-09-20,11:33:08.410,41.22071887,1.73106594,59.725,338.495,-0.047,-0.237,1695209588410000.0,1695209588409916,-0.44474144565174356,1.1224541272968054,0.0030000000000001137,338.495,-0.047,-0.237
112,1988420000,2023-09-20,11:33:08.420,41.22071898,1.73106588,59.726000000000006,338.49800000000005,-0.049,-0.262,1695209588419999.0,1695209588420001,-0.4495925804367289,1.134739451110363,0.0040000000000048885,338.49800000000005,-0.049,-0.262
113,1988430000,2023-09-20,11:33:08.430,41.22071909,1.73106581,59.726000000000006,338.49800000000005,-0.053,-0.282,1695209588429999.0,1695209588429931,-0.4552819461678155,1.147037010639906,0.0040000000000048885,338.49800000000005,-0.053,-0.282
114,1988440000,2023-09-20,11:33:08.440,41.2207192,1.73106576,59.725,338.5,-0.061,-0.28800000000000003,1695209588439999.0,1695209588439918,-0.45929485000669956,1.1593100996688008,0.0030000000000001137,338.5,-0.061,-0.28800000000000003
115,1988450000,2023-09-20,11:33:08.450,41.2207193,1.7310657,59.726000000000006,338.506,-0.075,-0.28800000000000003,1695209588449999.0,1695209588449995,-0.4641621893970296,1.1704852497205138,0.0040000000000048885,338.506,-0.075,-0.28800000000000003
116,1988460000,2023-09-20,11:33:08.460,41.22071941,1.73106564,59.726000000000006,338.51599999999996,-0.084,-0.298,1695209588460000.0,1695209588459969,-0.4690133241820149,1.1827705753967166,0.0040000000000048885,338.51599999999996,-0.084,-0.298
117,1988470000,2023-09-20,11:33:08.470,41.22071952,1.73106558,59.725,338.524,-0.081,-0.324,1695209588470000.0,1695209588469915,-0.4738644588505849,1.1950558992102742,0.0030000000000001137,338.524,-0.081,-0.324
118,1988480000,2023-09-20,11:33:08.480,41.22071963,1.73106552,59.726000000000006,338.532,-0.079,-0.341,1695209588480000.0,1695209588479909,-0.47871559363557026,1.2073412220925093,0.0040000000000048885,338.532,-0.079,-0.341
119,1988490000,2023-09-20,11:33:08.490,41.22071974,1.73106546,59.726000000000006,338.537,-0.087,-0.341,1695209588490000.0,1695209588489885,-0.4835667282459326,1.2196265468373895,0.0040000000000048885,338.537,-0.087,-0.341
120,1988500000,2023-09-20,11:33:08.500,41.22071985,1.73106541,59.726000000000006,338.538,-0.098,-0.337,1695209588500000.0,1695209588499923,-0.48757963202660903,1.231899636797607,0.0040000000000048885,338.538,-0.098,-0.337
121,1988510000,2023-09-20,11:33:08.510,41.22071997,1.73106535,59.726000000000006,338.533,-0.11599999999999999,-0.324,1695209588509999.0,1695209588509928,-0.49241456208983436,1.2452951343730092,0.0040000000000048885,338.533,-0.11599999999999999,-0.324
122,1988520000,2023-09-20,11:33:08.520,41.22072008,1.73106529,59.726000000000006,338.526,-0.136,-0.307,1695209588519999.0,1695209588520097,-0.49726569664198905,1.2575804591178894,0.0040000000000048885,338.526,-0.136,-0.307
123,1988530000,2023-09-20,11:33:08.530,41.22072019,1.73106523,59.725,338.526,-0.149,-0.298,1695209588529999.0,1695209588530124,-0.5021168312523514,1.269865782931447,0.0030000000000001137,338.526,-0.149,-0.298
124,1988540000,2023-09-20,11:33:08.540,41.2207203,1.73106518,59.726000000000006,338.535,-0.159,-0.298,1695209588539999.0,1695209588540267,-0.5061297349748202,1.282138871960342,0.0040000000000048885,338.535,-0.159,-0.298
125,1988550000,2023-09-20,11:33:08.550,41.22072041,1.73106511,59.726000000000006,338.545,-0.165,-0.31,1695209588550000.0,1695209588549986,-0.5118191004730761,1.2944364305585623,0.0040000000000048885,338.545,-0.165,-0.31
126,1988560000,2023-09-20,11:33:08.560,41.22072053,1.73106506,59.725,338.55300000000005,-0.166,-0.332,1695209588560000.0,1695209588559900,-0.5158157994737849,1.3078196933493018,0.0030000000000001137,338.55300000000005,-0.166,-0.332
127,1988570000,2023-09-20,11:33:08.570,41.22072064,1.731065,59.726000000000006,338.55699999999996,-0.171,-0.34299999999999997,1695209588570000.0,1695209588570279,-0.5206669339677319,1.3201050190255046,0.0040000000000048885,338.55699999999996,-0.171,-0.34299999999999997
128,1988580000,2023-09-20,11:33:08.580,41.22072075,1.73106494,59.726000000000006,338.561,-0.18600000000000003,-0.335,1695209588580000.0,1695209588580099,-0.5255180685780942,1.3323903428390622,0.0040000000000048885,338.561,-0.18600000000000003,-0.335
129,1988590000,2023-09-20,11:33:08.590,41.22072086,1.73106489,59.725,338.56199999999995,-0.207,-0.321,1695209588589999.0,1695209588589993,-0.5295309721841477,1.3446634318679571,0.0030000000000001137,338.56199999999995,-0.207,-0.321
130,1988600000,2023-09-20,11:33:08.600,41.22072098,1.73106483,59.725,338.556,-0.22399999999999998,-0.313,1695209588599999.0,1695209588599962,-0.5343659020145424,1.358058930374682,0.0030000000000001137,338.556,-0.22399999999999998,-0.313
131,1988610000,2023-09-20,11:33:08.610,41.22072109,1.73106477,59.726000000000006,338.548,-0.24100000000000002,-0.308,1695209588609999.0,1695209588610001,-0.5392170365084894,1.3703442541882396,0.0040000000000048885,338.548,-0.24100000000000002,-0.308
132,1988620000,2023-09-20,11:33:08.620,41.2207212,1.73106471,59.725,338.545,-0.253,-0.314,1695209588619999.0,1695209588620082,-0.5440681708860211,1.3826295798644423,0.0030000000000001137,338.545,-0.253,-0.314
133,1988630000,2023-09-20,11:33:08.630,41.22072132,1.73106465,59.725,338.551,-0.264,-0.316,1695209588630000.0,1695209588630144,-0.5489031007164158,1.3960250774398446,0.0030000000000001137,338.551,-0.264,-0.316
134,1988640000,2023-09-20,11:33:08.640,41.22072143,1.73106459,59.726000000000006,338.566,-0.27699999999999997,-0.319,1695209588640000.0,1695209588640143,-0.5537542352103628,1.4083104003220797,0.0040000000000048885,338.566,-0.27699999999999997,-0.319
135,1988650000,2023-09-20,11:33:08.650,41.22072154,1.73106454,59.725,338.58,-0.27899999999999997,-0.336,1695209588650000.0,1695209588649970,-0.5577671387000009,1.4205834902822971,0.0030000000000001137,338.58,-0.27899999999999997,-0.336
136,1988660000,2023-09-20,11:33:08.660,41.22072166,1.73106447,59.725,338.587,-0.27399999999999997,-0.36,1695209588660000.0,1695209588659921,-0.5634402993600816,1.4339912235736847,0.0030000000000001137,338.587,-0.27399999999999997,-0.36
137,1988670000,2023-09-20,11:33:08.670,41.22072177,1.73106441,59.726000000000006,338.588,-0.282,-0.366,1695209588669999.0,1695209588669974,-0.5682914336794056,1.446276548318565,0.0040000000000048885,338.588,-0.282,-0.366
138,1988680000,2023-09-20,11:33:08.680,41.22072189,1.73106436,59.725,338.585,-0.302,-0.354,1695209588679999.0,1695209588679919,-0.5722881325054914,1.4596598101779819,0.0030000000000001137,338.585,-0.302,-0.354
139,1988690000,2023-09-20,11:33:08.690,41.220722,1.73106429,59.725,338.579,-0.327,-0.332,1695209588689999.0,1695209588690072,-0.5779774977709167,1.47195737157017,0.0030000000000001137,338.579,-0.327,-0.332
140,1988700000,2023-09-20,11:33:08.700,41.22072212,1.73106423,59.726000000000006,338.575,-0.35200000000000004,-0.309,1695209588699999.0,1695209588699949,-0.5828124274266884,1.4853528682142496,0.0040000000000048885,338.575,-0.35200000000000004,-0.309
141,1988710000,2023-09-20,11:33:08.710,41.22072223,1.73106418,59.725,338.575,-0.361,-0.306,1695209588710000.0,1695209588709959,-0.5868253308581188,1.4976259591057897,0.0030000000000001137,338.575,-0.361,-0.306
142,1988720000,2023-09-20,11:33:08.720,41.22072234,1.73106412,59.726000000000006,338.58,-0.359,-0.324,1695209588720000.0,1695209588720041,-0.5916764651192352,1.5099112819880247,0.0040000000000048885,338.58,-0.359,-0.324
143,1988730000,2023-09-20,11:33:08.730,41.22072246,1.73106405,59.726000000000006,338.591,-0.359,-0.354,1695209588730000.0,1695209588729893,-0.5973496256629005,1.5233190152794123,0.0040000000000048885,338.591,-0.359,-0.354
144,1988740000,2023-09-20,11:33:08.740,41.22072258,1.731064,59.726000000000006,338.602,-0.363,-0.37200000000000005,1695209588740000.0,1695209588739940,-0.601346324372571,1.536702279932797,0.0040000000000048885,338.602,-0.363,-0.37200000000000005
145,1988750000,2023-09-20,11:33:08.750,41.22072269,1.73106394,59.726000000000006,338.60699999999997,-0.376,-0.37,1695209588750000.0,1695209588750096,-0.6061974586336873,1.5489876046776772,0.0040000000000048885,338.60699999999997,-0.376,-0.37
146,1988760000,2023-09-20,11:33:08.760,41.22072281,1.73106388,59.726000000000006,338.602,-0.396,-0.348,1695209588759999.0,1695209588759964,-0.6110323881730437,1.5623831022530794,0.0040000000000048885,338.602,-0.396,-0.348
147,1988770000,2023-09-20,11:33:08.770,41.22072293,1.73106382,59.726000000000006,338.591,-0.413,-0.326,1695209588769999.0,1695209588770215,-0.6158673177706078,1.5757786007598042,0.0040000000000048885,338.591,-0.413,-0.326
148,1988780000,2023-09-20,11:33:08.780,41.22072304,1.73106376,59.726000000000006,338.57800000000003,-0.42700000000000005,-0.316,1695209588779999.0,1695209588779905,-0.6207184519153088,1.5880639245733619,0.0040000000000048885,338.57800000000003,-0.42700000000000005,-0.316
149,1988790000,2023-09-20,11:33:08.790,41.22072316,1.7310637,59.726000000000006,338.57199999999995,-0.444,-0.309,1695209588789999.0,1695209588790277,-0.6255533814546652,1.6014594230800867,0.0040000000000048885,338.57199999999995,-0.444,-0.309
150,1988800000,2023-09-20,11:33:08.800,41.22072328,1.73106363,59.725,338.57300000000004,-0.455,-0.308,1695209588800000.0,1695209588799956,-0.6312265418237075,1.6148671554401517,0.0030000000000001137,338.57300000000004,-0.455,-0.308
151,1988810000,2023-09-20,11:33:08.810,41.22072339,1.73106357,59.725,338.583,-0.46,-0.31,1695209588810000.0,1695209588810024,-0.6360776759102009,1.6271524811163545,0.0030000000000001137,338.583,-0.46,-0.31
152,1988820000,2023-09-20,11:33:08.820,41.22072351,1.7310635,59.725,338.599,-0.462,-0.319,1695209588820000.0,1695209588820214,-0.6417508362792432,1.6405602134764194,0.0030000000000001137,338.599,-0.462,-0.319
153,1988830000,2023-09-20,11:33:08.830,41.22072362,1.73106344,59.723,338.616,-0.45799999999999996,-0.34,1695209588830000.0,1695209588830033,-0.6466019703657366,1.6528455382212996,0.0009999999999976694,338.616,-0.45799999999999996,-0.34
154,1988840000,2023-09-20,11:33:08.840,41.22072374,1.73106337,59.723,338.62800000000004,-0.45399999999999996,-0.354,1695209588839999.0,1695209588840130,-0.6522751306765713,1.6662532715126872,0.0009999999999976694,338.62800000000004,-0.45399999999999996,-0.354
155,1988850000,2023-09-20,11:33:08.850,41.22072386,1.73106331,59.723,338.631,-0.45399999999999996,-0.35600000000000004,1695209588849999.0,1695209588850078,-0.6571100600995123,1.6796487709507346,0.0009999999999976694,338.631,-0.45399999999999996,-0.35600000000000004
156,1988860000,2023-09-20,11:33:08.860,41.22072397,1.73106324,59.722,338.626,-0.461,-0.34,1695209588859999.0,1695209588860116,-0.6627994250156917,1.6919463304802775,0.0,338.626,-0.461,-0.34
157,1988870000,2023-09-20,11:33:08.870,41.22072409,1.73106318,59.721000000000004,338.62300000000005,-0.48,-0.304,1695209588869999.0,1695209588870114,-0.6676343543804251,1.7053418261930346,-0.0009999999999976694,338.62300000000005,-0.48,-0.304
158,1988880000,2023-09-20,11:33:08.880,41.22072421,1.73106311,59.721000000000004,338.62300000000005,-0.49700000000000005,-0.28,1695209588880000.0,1695209588879937,-0.6733075145748444,1.71874956227839,-0.0009999999999976694,338.62300000000005,-0.49700000000000005,-0.28
159,1988890000,2023-09-20,11:33:08.890,41.22072433,1.73106305,59.72,338.631,-0.494,-0.281,1695209588890000.0,1695209588889938,-0.6781424438813701,1.7321450607851148,-0.0020000000000024443,338.631,-0.494,-0.281
160,1988900000,2023-09-20,11:33:08.900,41.22072444,1.73106298,59.718999999999994,338.64599999999996,-0.475,-0.297,1695209588900000.0,1695209588899936,-0.6838318087393418,1.7444426212459803,-0.003000000000007219,338.64599999999996,-0.475,-0.297
161,1988910000,2023-09-20,11:33:08.910,41.22072456,1.73106292,59.718999999999994,338.666,-0.45299999999999996,-0.318,1695209588910000.0,1695209588909985,-0.6886667379876599,1.7578381188213825,-0.003000000000007219,338.666,-0.45299999999999996,-0.318
162,1988920000,2023-09-20,11:33:08.920,41.22072468,1.73106285,59.717,338.68199999999996,-0.43799999999999994,-0.331,1695209588919999.0,1695209588920184,-0.6943398981238715,1.7712458511814475,-0.005000000000002558,338.68199999999996,-0.43799999999999994,-0.331
163,1988930000,2023-09-20,11:33:08.930,41.2207248,1.73106279,59.717,338.69,-0.43700000000000006,-0.321,1695209588929999.0,1695209588929972,-0.6991748273721896,1.7846413496881723,-0.005000000000002558,338.69,-0.43700000000000006,-0.321
164,1988940000,2023-09-20,11:33:08.940,41.22072491,1.73106272,59.716,338.69,-0.44299999999999995,-0.294,1695209588939999.0,1695209588939936,-0.704864192113746,1.7969389092177153,-0.006000000000000227,338.69,-0.44299999999999995,-0.294
165,1988950000,2023-09-20,11:33:08.950,41.22072503,1.73106266,59.715,338.686,-0.447,-0.263,1695209588949999.0,1695209588950003,-0.7096991213038564,1.8103344086557627,-0.006999999999997897,338.686,-0.447,-0.263
166,1988960000,2023-09-20,11:33:08.960,41.22072515,1.73106259,59.714,338.686,-0.445,-0.242,1695209588960000.0,1695209588959929,-0.7153722813818604,1.8237421428784728,-0.008000000000002672,338.686,-0.445,-0.242
167,1988970000,2023-09-20,11:33:08.970,41.22072527,1.73106253,59.714,338.691,-0.436,-0.244,1695209588970000.0,1695209588969934,-0.7202072105719708,1.8371376395225525,-0.008000000000002672,338.691,-0.436,-0.244
168,1988980000,2023-09-20,11:33:08.980,41.22072539,1.73106246,59.711999999999996,338.694,-0.419,-0.265,1695209588980000.0,1695209588979941,-0.7258803705335595,1.8505453746765852,-0.010000000000005116,338.694,-0.419,-0.265
169,1988990000,2023-09-20,11:33:08.990,41.22072551,1.7310624,59.711999999999996,338.699,-0.406,-0.27699999999999997,1695209588990000.0,1695209588990078,-0.7307152996654622,1.8639408722519875,-0.010000000000005116,338.699,-0.406,-0.27699999999999997
170,1989000000,2023-09-20,11:33:09.000,41.22072563,1.73106234,59.711000000000006,338.708,-0.405,-0.27,1695209589000000.0,1695209588999976,-0.735550228797365,1.8773363707587123,-0.01099999999999568,338.708,-0.405,-0.27
171,1989010000,2023-09-20,11:33:09.010,41.22072575,1.73106227,59.71,338.715,-0.40700000000000003,-0.255,1695209589009999.0,1695209589011118,-0.7412233887589537,1.8907441040500998,-0.012000000000000455,338.715,-0.40700000000000003,-0.255
172,1989020000,2023-09-20,11:33:09.020,41.22072587,1.7310622,59.71,338.719,-0.409,-0.24600000000000002,1695209589019999.0,1695209589020025,-0.746896548604127,1.90415183827281,-0.012000000000000455,338.719,-0.409,-0.24600000000000002
173,1989030000,2023-09-20,11:33:09.030,41.22072599,1.73106214,59.708999999999996,338.719,-0.40700000000000003,-0.25,1695209589029999.0,1695209589030075,-0.7517314777360298,1.9175473358482122,-0.01300000000000523,338.719,-0.40700000000000003,-0.25
174,1989040000,2023-09-20,11:33:09.040,41.22072611,1.73106207,59.708,338.715,-0.402,-0.259,1695209589039999.0,1695209589040001,-0.7574046375812031,1.9309550700709224,-0.014000000000002899,338.715,-0.402,-0.259
175,1989050000,2023-09-20,11:33:09.050,41.22072624,1.73106201,59.708,338.715,-0.40299999999999997,-0.254,1695209589050000.0,1695209589050082,-0.7622233618749306,1.9454607423394918,-0.014000000000002899,338.715,-0.40299999999999997,-0.254
176,1989060000,2023-09-20,11:33:09.060,41.22072636,1.73106194,59.708,338.715,-0.415,-0.233,1695209589060000.0,1695209589060233,-0.7678965217783116,1.9588684756308794,-0.014000000000002899,338.715,-0.415,-0.233
177,1989070000,2023-09-20,11:33:09.070,41.22072648,1.73106187,59.707,338.712,-0.43,-0.213,1695209589070000.0,1695209589070049,-0.7735696815070696,1.9722762098535895,-0.015000000000000568,338.712,-0.43,-0.213
178,1989080000,2023-09-20,11:33:09.080,41.2207266,1.73106181,59.707,338.707,-0.44,-0.207,1695209589080000.0,1695209589080199,-0.778404610522557,1.9856717074289918,-0.015000000000000568,338.707,-0.44,-0.207
179,1989090000,2023-09-20,11:33:09.090,41.22072673,1.73106174,59.706,338.707,-0.446,-0.21100000000000002,1695209589089999.0,1695209589090113,-0.7840615655877627,2.0001896154135466,-0.015999999999998238,338.707,-0.446,-0.21100000000000002
180,1989100000,2023-09-20,11:33:09.100,41.22072685,1.73106168,59.706,338.713,-0.451,-0.21600000000000003,1695209589099999.0,1695209589100068,-0.7888964944868349,2.0135851139202714,-0.015999999999998238,338.713,-0.451,-0.21600000000000003
181,1989110000,2023-09-20,11:33:09.110,41.22072697,1.73106161,59.706,338.723,-0.46,-0.215,1695209589109999.0,1695209589110117,-0.7945696542155929,2.0269928462803364,-0.015999999999998238,338.723,-0.46,-0.215
182,1989120000,2023-09-20,11:33:09.120,41.2207271,1.73106155,59.706,338.727,-0.475,-0.207,1695209589119999.0,1695209589119942,-0.7993883784511127,2.041498520411551,-0.015999999999998238,338.727,-0.475,-0.207
183,1989130000,2023-09-20,11:33:09.130,41.22072722,1.73106148,59.705,338.723,-0.493,-0.203,1695209589130000.0,1695209589130010,-0.805061538121663,2.0549062537029386,-0.017000000000003013,338.723,-0.493,-0.203
184,1989140000,2023-09-20,11:33:09.140,41.22072735,1.73106141,59.706,338.72,-0.509,-0.207,1695209589140000.0,1695209589139969,-0.8107184930704534,2.0694241607561707,-0.015999999999998238,338.72,-0.509,-0.207
185,1989150000,2023-09-20,11:33:09.150,41.22072747,1.73106135,59.706,338.718,-0.528,-0.20199999999999999,1695209589150000.0,1695209589149957,-0.8155534219113179,2.082819658331573,-0.015999999999998238,338.718,-0.528,-0.20199999999999999
186,1989160000,2023-09-20,11:33:09.160,41.22072759,1.73106128,59.705,338.711,-0.556,-0.184,1695209589160000.0,1695209589159971,-0.8212265814654529,2.096227392554283,-0.017000000000003013,338.711,-0.556,-0.184
187,1989170000,2023-09-20,11:33:09.170,41.22072772,1.73106122,59.705,338.694,-0.584,-0.162,1695209589169999.0,1695209589169951,-0.8260453055845574,2.1107330648228526,-0.017000000000003013,338.694,-0.584,-0.162
188,1989180000,2023-09-20,11:33:09.180,41.22072785,1.73106115,59.706,338.675,-0.614,-0.13699999999999998,1695209589179999.0,1695209589179989,-0.8317022604751401,2.1252509728074074,-0.015999999999998238,338.675,-0.614,-0.13699999999999998
189,1989190000,2023-09-20,11:33:09.190,41.22072797,1.73106108,59.705,338.666,-0.643,-0.11699999999999999,1695209589189999.0,1695209589189988,-0.8373754200292751,2.1386587070301175,-0.017000000000003013,338.666,-0.643,-0.11699999999999999
190,1989200000,2023-09-20,11:33:09.200,41.2207281,1.73106102,59.706,338.671,-0.6629999999999999,-0.122,1695209589199999.0,1695209589199979,-0.8421941440319642,2.153164379298687,-0.015999999999998238,338.671,-0.6629999999999999,-0.122
191,1989210000,2023-09-20,11:33:09.210,41.22072823,1.73106095,59.706,338.68,-0.6679999999999999,-0.151,1695209589210000.0,1695209589209945,-0.847851098922547,2.167682286351919,-0.015999999999998238,338.68,-0.6679999999999999,-0.151
192,1989220000,2023-09-20,11:33:09.220,41.22072835,1.73106089,59.706,338.68199999999996,-0.677,-0.174,1695209589220000.0,1695209589219924,-0.8526860275305808,2.181077784858644,-0.015999999999998238,338.68199999999996,-0.677,-0.174
193,1989230000,2023-09-20,11:33:09.230,41.22072848,1.73106082,59.706,338.67800000000005,-0.695,-0.17800000000000002,1695209589230000.0,1695209589230068,-0.8583429823047481,2.195595691911876,-0.015999999999998238,338.67800000000005,-0.695,-0.17800000000000002
194,1989240000,2023-09-20,11:33:09.240,41.2207286,1.73106075,59.707,338.667,-0.72,-0.16699999999999998,1695209589240000.0,1695209589240036,-0.8640161418006755,2.2090034261345863,-0.015000000000000568,338.667,-0.72,-0.16699999999999998
195,1989250000,2023-09-20,11:33:09.250,41.22072873,1.73106068,59.706,338.654,-0.75,-0.151,1695209589250000.0,1695209589249969,-0.8696730965166353,2.2235213331878185,-0.015999999999998238,338.654,-0.75,-0.151
196,1989260000,2023-09-20,11:33:09.260,41.22072886,1.73106061,59.706,338.64,-0.778,-0.149,1695209589259999.0,1695209589259891,-0.8753300511743873,2.238039242103696,-0.015999999999998238,338.64,-0.778,-0.149
197,1989270000,2023-09-20,11:33:09.270,41.22072898,1.73106054,59.707,338.63,-0.7979999999999999,-0.157,1695209589269999.0,1695209589269920,-0.8810032105538994,2.251446976326406,-0.015000000000000568,338.63,-0.7979999999999999,-0.157
198,1989280000,2023-09-20,11:33:09.280,41.22072911,1.73106047,59.706,338.63,-0.8109999999999999,-0.175,1695209589279999.0,1695209589279932,-0.8866601652116515,2.265964883379638,-0.015999999999998238,338.63,-0.8109999999999999,-0.175
199,1989290000,2023-09-20,11:33:09.290,41.22072923,1.7310604,59.706,338.64300000000003,-0.816,-0.207,1695209589289999.0,1695209589290277,-0.8923333245329559,2.2793726176023483,-0.015999999999998238,338.64300000000003,-0.816,-0.207
200,1989300000,2023-09-20,11:33:09.300,41.22072936,1.73106033,59.707,338.662,-0.813,-0.256,1695209589300000.0,1695209589300262,-0.897990279190708,2.2938905246555805,-0.015000000000000568,338.662,-0.813,-0.256
201,1989310000,2023-09-20,11:33:09.310,41.22072948,1.73106026,59.706,338.675,-0.809,-0.305,1695209589310000.0,1695209589310062,-0.9036634384538047,2.3072982588782907,-0.015999999999998238,338.675,-0.809,-0.305
202,1989320000,2023-09-20,11:33:09.320,41.22072961,1.73106019,59.707,338.67800000000005,-0.809,-0.335,1695209589320000.0,1695209589320192,-0.9093203930533491,2.3218161650002003,-0.015000000000000568,338.67800000000005,-0.809,-0.335
203,1989330000,2023-09-20,11:33:09.330,41.22072973,1.73106012,59.707,338.671,-0.821,-0.33799999999999997,1695209589330000.0,1695209589329898,-0.9149935522582382,2.3352238992229104,-0.015000000000000568,338.671,-0.821,-0.33799999999999997
204,1989340000,2023-09-20,11:33:09.340,41.22072986,1.73106005,59.706,338.658,-0.85,-0.309,1695209589339999.0,1695209589340006,-0.9206505067995749,2.349741807207465,-0.015999999999998238,338.658,-0.85,-0.309
205,1989350000,2023-09-20,11:33:09.350,41.22072998,1.73105997,59.706,338.648,-0.88,-0.278,1695209589349999.0,1695209589350130,-0.9271618967759423,2.363161778077483,-0.015999999999998238,338.648,-0.88,-0.278
206,1989360000,2023-09-20,11:33:09.360,41.22073011,1.7310599,59.706,338.642,-0.889,-0.278,1695209589359999.0,1695209589360004,-0.9328188512590714,2.37767968326807,-0.015999999999998238,338.642,-0.889,-0.278
207,1989370000,2023-09-20,11:33:09.370,41.22073024,1.73105983,59.706,338.648,-0.879,-0.307,1695209589369999.0,1695209589369990,-0.9384758057422005,2.39219759311527,-0.015999999999998238,338.648,-0.879,-0.307
208,1989380000,2023-09-20,11:33:09.380,41.22073036,1.73105976,59.706,338.666,-0.863,-0.337,1695209589380000.0,1695209589380136,-0.9441489648888819,2.4056053245440125,-0.015999999999998238,338.666,-0.863,-0.337
209,1989390000,2023-09-20,11:33:09.390,41.22073049,1.73105969,59.706,338.68800000000005,-0.848,-0.36,1695209589390000.0,1695209589389975,-0.9498059192555957,2.42012323345989,-0.015999999999998238,338.68800000000005,-0.848,-0.36
210,1989400000,2023-09-20,11:33:09.400,41.22073061,1.73105962,59.705,338.7,-0.838,-0.373,1695209589400000.0,1695209589399946,-0.9554790783440694,2.4335309667512774,-0.017000000000003013,338.7,-0.838,-0.373
211,1989410000,2023-09-20,11:33:09.410,41.22073074,1.73105955,59.70399999999999,338.7,-0.835,-0.371,1695209589410000.0,1695209589409998,-0.9611360326525755,2.4480488738045096,-0.018000000000007788,338.7,-0.835,-0.371
212,1989420000,2023-09-20,11:33:09.420,41.22073086,1.73105948,59.70399999999999,338.695,-0.8390000000000001,-0.358,1695209589419999.0,1695209589419913,-0.9668091916828416,2.461456609889865,-0.018000000000007788,338.695,-0.8390000000000001,-0.358
213,1989430000,2023-09-20,11:33:09.430,41.22073099,1.73105941,59.703,338.69699999999995,-0.841,-0.34,1695209589429999.0,1695209589429919,-0.9724661460495554,2.475974516943097,-0.01899999999999835,338.69699999999995,-0.841,-0.34
214,1989440000,2023-09-20,11:33:09.440,41.22073111,1.73105934,59.703,338.708,-0.835,-0.322,1695209589439999.0,1695209589439978,-0.9781393050798215,2.4893822502344847,-0.01899999999999835,338.708,-0.835,-0.322
215,1989450000,2023-09-20,11:33:09.450,41.22073124,1.73105927,59.702,338.718,-0.813,-0.32799999999999996,1695209589449999.0,1695209589449890,-0.9837962592719123,2.5039001582190394,-0.020000000000003126,338.718,-0.813,-0.32799999999999996
216,1989460000,2023-09-20,11:33:09.460,41.22073136,1.7310592,59.701,338.721,-0.778,-0.358,1695209589460000.0,1695209589460053,-0.9894694182439707,2.5173078924417496,-0.021000000000000796,338.721,-0.778,-0.358
217,1989470000,2023-09-20,11:33:09.470,41.22073149,1.73105914,59.701,338.719,-0.75,-0.386,1695209589470000.0,1695209589469933,-0.9942881417227909,2.5318135637789965,-0.021000000000000796,338.719,-0.75,-0.386
218,1989480000,2023-09-20,11:33:09.480,41.22073161,1.73105907,59.7,338.721,-0.735,-0.395,1695209589480000.0,1695209589480053,-0.999961300578434,2.545221298933029,-0.021999999999998465,338.721,-0.735,-0.395
219,1989490000,2023-09-20,11:33:09.490,41.22073173,1.731059,59.699,338.73,-0.723,-0.384,1695209589490000.0,1695209589489916,-1.0056344594922848,2.5586290322244167,-0.02300000000000324,338.73,-0.723,-0.384
220,1989500000,2023-09-20,11:33:09.500,41.22073186,1.73105893,59.699,338.73900000000003,-0.7040000000000001,-0.371,1695209589500000.0,1695209589500063,-1.0112914135679603,2.5731469402089715,-0.02300000000000324,338.73900000000003,-0.7040000000000001,-0.371
221,1989510000,2023-09-20,11:33:09.510,41.22073198,1.73105887,59.698,338.73699999999997,-0.6709999999999999,-0.38,1695209589509999.0,1695209589509925,-1.0161263417103328,2.5865424377843738,-0.02400000000000091,338.73699999999997,-0.6709999999999999,-0.38
222,1989520000,2023-09-20,11:33:09.520,41.22073211,1.7310588,59.696999999999996,338.727,-0.631,-0.4,1695209589519999.0,1695209589520147,-1.0217832957278006,2.6010603457689285,-0.025000000000005684,338.727,-0.631,-0.4
223,1989530000,2023-09-20,11:33:09.530,41.22073223,1.73105874,59.696000000000005,338.719,-0.598,-0.41200000000000003,1695209589529999.0,1695209589529950,-1.0266182238119654,2.614455845206976,-0.02599999999999625,338.719,-0.598,-0.41200000000000003
224,1989540000,2023-09-20,11:33:09.540,41.22073236,1.73105867,59.696000000000005,338.718,-0.573,-0.406,1695209589539999.0,1695209589540214,-1.0322751778294332,2.628973752260208,-0.02599999999999625,338.718,-0.573,-0.406
225,1989550000,2023-09-20,11:33:09.550,41.22073249,1.7310586,59.695,338.719,-0.5539999999999999,-0.38299999999999995,1695209589550000.0,1695209589549995,-1.037932131846901,2.6434916611760855,-0.027000000000001023,338.719,-0.5539999999999999,-0.38299999999999995
226,1989560000,2023-09-20,11:33:09.560,41.22073261,1.73105854,59.693999999999996,338.707,-0.5329999999999999,-0.364,1695209589560000.0,1695209589560216,-1.0427670598728582,2.6568871587514877,-0.028000000000005798,338.707,-0.5329999999999999,-0.364
227,1989570000,2023-09-20,11:33:09.570,41.22073274,1.73105847,59.693999999999996,338.68300000000005,-0.515,-0.34299999999999997,1695209589570000.0,1695209589570088,-1.0484240138321184,2.6714050667360425,-0.028000000000005798,338.68300000000005,-0.515,-0.34299999999999997
228,1989580000,2023-09-20,11:33:09.580,41.22073287,1.7310584,59.693000000000005,338.66,-0.49200000000000005,-0.326,1695209589580000.0,1695209589580158,-1.0540809678495862,2.6859229747205973,-0.028999999999996362,338.66,-0.49200000000000005,-0.326
229,1989590000,2023-09-20,11:33:09.590,41.220733,1.73105834,59.692,338.656,-0.46799999999999997,-0.312,1695209589589999.0,1695209589590138,-1.0588996909791604,2.7004286479204893,-0.030000000000001137,338.656,-0.46799999999999997,-0.312
230,1989600000,2023-09-20,11:33:09.600,41.22073312,1.73105827,59.692,338.668,-0.442,-0.306,1695209589599999.0,1695209589600021,-1.0645728496019728,2.713836381211877,-0.030000000000001137,338.668,-0.442,-0.306
231,1989610000,2023-09-20,11:33:09.610,41.22073325,1.7310582,59.691,338.67900000000003,-0.409,-0.318,1695209589609999.0,1695209589609967,-1.0702298035030253,2.728354290127754,-0.030999999999998806,338.67900000000003,-0.409,-0.318
232,1989620000,2023-09-20,11:33:09.620,41.22073338,1.73105814,59.691,338.675,-0.37799999999999995,-0.33,1695209589619999.0,1695209589619964,-1.0750485266325995,2.7428599605336785,-0.030999999999998806,338.675,-0.37799999999999995,-0.33
233,1989630000,2023-09-20,11:33:09.630,41.22073351,1.73105807,59.69,338.66,-0.361,-0.321,1695209589630000.0,1695209589630027,-1.0807054804754443,2.757377869449556,-0.03200000000000358,338.66,-0.361,-0.321
234,1989640000,2023-09-20,11:33:09.640,41.22073364,1.731058,59.68899999999999,338.644,-0.36,-0.29,1695209589640000.0,1695209589640118,-1.0863624342600815,2.7718957774341106,-0.033000000000008356,338.644,-0.36,-0.29
235,1989650000,2023-09-20,11:33:09.650,41.22073377,1.73105793,59.68899999999999,338.63599999999997,-0.371,-0.244,1695209589650000.0,1695209589650027,-1.0920193881029263,2.786413684487343,-0.033000000000008356,338.63599999999997,-0.371,-0.244
236,1989660000,2023-09-20,11:33:09.660,41.2207339,1.73105786,59.68899999999999,338.634,-0.374,-0.21899999999999997,1695209589660000.0,1695209589659945,-1.0976763418293558,2.8009315924718976,-0.033000000000008356,338.634,-0.374,-0.21899999999999997
237,1989670000,2023-09-20,11:33:09.670,41.22073403,1.73105779,59.688,338.63800000000003,-0.35600000000000004,-0.228,1695209589669999.0,1695209589670078,-1.103333295613993,2.8154495004564524,-0.03399999999999892,338.63800000000003,-0.35600000000000004,-0.228
238,1989680000,2023-09-20,11:33:09.680,41.22073416,1.73105773,59.688,338.648,-0.33,-0.253,1695209589679999.0,1695209589679929,-1.1081520186853595,2.8299551736563444,-0.03399999999999892,338.648,-0.33,-0.253
239,1989690000,2023-09-20,11:33:09.690,41.22073429,1.73105766,59.688,338.662,-0.312,-0.26899999999999996,1695209589689999.0,1695209589689887,-1.1138089722953737,2.8444730807095766,-0.03399999999999892,338.662,-0.312,-0.26899999999999996
240,1989700000,2023-09-20,11:33:09.700,41.22073442,1.73105759,59.687,338.675,-0.31,-0.26,1695209589699999.0,1695209589699892,-1.1194659260218032,2.858990989625454,-0.035000000000003695,338.675,-0.31,-0.26
241,1989710000,2023-09-20,11:33:09.710,41.22073455,1.73105752,59.687,338.67900000000003,-0.314,-0.23800000000000002,1695209589710000.0,1695209589709913,-1.125122879690025,2.873508896678686,-0.035000000000003695,338.67900000000003,-0.314,-0.23800000000000002
242,1989720000,2023-09-20,11:33:09.720,41.22073468,1.73105745,59.687,338.67699999999996,-0.322,-0.20800000000000002,1695209589720000.0,1695209589720043,-1.1307798333000392,2.888026804663241,-0.035000000000003695,338.67699999999996,-0.322,-0.20800000000000002
243,1989730000,2023-09-20,11:33:09.730,41.22073481,1.73105738,59.687,338.67699999999996,-0.33399999999999996,-0.17300000000000001,1695209589730000.0,1695209589729915,-1.1364367869100533,2.9025447135791183,-0.035000000000003695,338.67699999999996,-0.33399999999999996,-0.17300000000000001
244,1989740000,2023-09-20,11:33:09.740,41.22073494,1.73105731,59.687,338.68199999999996,-0.34,-0.152,1695209589740000.0,1695209589739957,-1.1420937405200675,2.917062619701028,-0.035000000000003695,338.68199999999996,-0.34,-0.152
245,1989750000,2023-09-20,11:33:09.750,41.22073507,1.73105724,59.687,338.694,-0.34600000000000003,-0.133,1695209589750000.0,1695209589749899,-1.147750694071874,2.931580528616905,-0.035000000000003695,338.694,-0.34600000000000003,-0.133
246,1989760000,2023-09-20,11:33:09.760,41.22073521,1.73105717,59.687,338.70599999999996,-0.34600000000000003,-0.121,1695209589759999.0,1695209589759914,-1.1533914429019205,2.9472086103633046,-0.035000000000003695,338.70599999999996,-0.34600000000000003,-0.121
247,1989770000,2023-09-20,11:33:09.770,41.22073534,1.73105711,59.687,338.71,-0.348,-0.11599999999999999,1695209589769999.0,1695209589770049,-1.1582101656822488,2.961714282631874,-0.035000000000003695,338.71,-0.348,-0.11599999999999999
248,1989780000,2023-09-20,11:33:09.780,41.22073547,1.73105703,59.687,338.715,-0.361,-0.10400000000000001,1695209589779999.0,1695209589780196,-1.1647053498891182,2.976244426332414,-0.035000000000003695,338.715,-0.361,-0.10400000000000001
249,1989790000,2023-09-20,11:33:09.790,41.22073561,1.73105696,59.687,338.723,-0.38,-0.087,1695209589789999.0,1695209589790070,-1.1703460986027494,2.9918725080788136,-0.035000000000003695,338.723,-0.38,-0.087
250,1989800000,2023-09-20,11:33:09.800,41.22073574,1.73105689,59.687,338.73699999999997,-0.397,-0.068,1695209589800000.0,1695209589800114,-1.1760030520381406,3.0063904151320457,-0.035000000000003695,338.73699999999997,-0.397,-0.068
251,1989810000,2023-09-20,11:33:09.810,41.22073587,1.73105682,59.687,338.749,-0.401,-0.067,1695209589810000.0,1695209589810124,-1.1816600054735318,3.0209083231166005,-0.035000000000003695,338.749,-0.401,-0.067
252,1989820000,2023-09-20,11:33:09.820,41.22073601,1.73105674,59.688,338.749,-0.401,-0.078,1695209589820000.0,1695209589820089,-1.188138984842226,3.036548640578985,-0.03399999999999892,338.749,-0.401,-0.078
253,1989830000,2023-09-20,11:33:09.830,41.22073615,1.73105667,59.688,338.74199999999996,-0.41700000000000004,-0.081,1695209589830000.0,1695209589830082,-1.1937797334394418,3.052176723256707,-0.03399999999999892,338.74199999999996,-0.41700000000000004,-0.081
254,1989840000,2023-09-20,11:33:09.840,41.22073628,1.7310566,59.688,338.73400000000004,-0.447,-0.07400000000000001,1695209589839999.0,1695209589839972,-1.1994366868166253,3.066694631241262,-0.03399999999999892,338.73400000000004,-0.447,-0.07400000000000001
255,1989850000,2023-09-20,11:33:09.850,41.22073641,1.73105652,59.68899999999999,338.735,-0.474,-0.06,1695209589849999.0,1695209589849946,-1.2059318708488718,3.0812247740104795,-0.033000000000008356,338.735,-0.474,-0.06
256,1989860000,2023-09-20,11:33:09.860,41.22073655,1.73105644,59.68899999999999,338.746,-0.48700000000000004,-0.069,1695209589859999.0,1695209589860163,-1.2124108501593582,3.0968650905415416,-0.033000000000008356,338.746,-0.48700000000000004,-0.069
257,1989870000,2023-09-20,11:33:09.870,41.22073668,1.73105637,59.69,338.75800000000004,-0.48,-0.11,1695209589869999.0,1695209589869977,-1.2180678034201264,3.111382999457419,-0.03200000000000358,338.75800000000004,-0.48,-0.11
258,1989880000,2023-09-20,11:33:09.880,41.22073681,1.73105629,59.691,338.76599999999996,-0.47200000000000003,-0.163,1695209589880000.0,1695209589880071,-1.2245629873941652,3.1259131422266364,-0.030999999999998806,338.76599999999996,-0.47200000000000003,-0.163
259,1989890000,2023-09-20,11:33:09.890,41.22073694,1.73105622,59.691,338.76599999999996,-0.474,-0.20199999999999999,1695209589890000.0,1695209589890124,-1.2302199405967258,3.140431050211191,-0.030999999999998806,338.76599999999996,-0.474,-0.20199999999999999
260,1989900000,2023-09-20,11:33:09.900,41.22073708,1.73105615,59.691,338.76,-0.48700000000000004,-0.214,1695209589900000.0,1695209589899976,-1.2358606890775263,3.156059132888913,-0.030999999999998806,338.76,-0.48700000000000004,-0.214
261,1989910000,2023-09-20,11:33:09.910,41.22073721,1.73105606,59.692,338.755,-0.509,-0.21,1695209589910000.0,1695209589909966,-1.2431941036484204,3.170601511374116,-0.030000000000001137,338.755,-0.509,-0.21
262,1989920000,2023-09-20,11:33:09.920,41.22073734,1.73105599,59.692,338.74699999999996,-0.526,-0.21,1695209589919999.0,1695209589919967,-1.2488510567927733,3.1851194193586707,-0.030000000000001137,338.74699999999996,-0.526,-0.21
