, Time(), Date, Local Time, Latitude(deg), Longitude(deg), Altitude(m), Heading(deg), Pitch(deg), Roll(deg),TimestampGPS,TimestampHDF,x,y,z,heading,pitch,roll
0,2631840000,2023-12-21,10:43:51.840,41.22145252,1.72963651,61.523,157.895,-1.264,-0.987,1703155431840000.0,1703155430845985,0.0,0.0,0.0,157.895,-1.264,-0.987
1,2631850000,2023-12-21,10:43:51.850,41.22145221,1.72963667,61.522,157.894,-1.23,-0.9890000000000001,1703155431850000.0,1703155430855963,0.012908629432786256,-0.03461138065904379,-0.0010000000000047748,157.894,-1.23,-0.9890000000000001
2,2631860000,2023-12-21,10:43:51.860,41.22145191,1.72963684,61.521,157.891,-1.1420000000000001,-0.996,1703155431859999.0,1703155430865926,0.02667170367203653,-0.06812483910471201,-0.0020000000000024443,157.891,-1.1420000000000001,-0.996
3,2631870000,2023-12-21,10:43:51.870,41.22145159,1.729637,61.521,157.889,-1.089,-0.993,1703155431869999.0,1703155430875914,0.039564110222272575,-0.10384639538824558,-0.0020000000000024443,157.889,-1.089,-0.993
4,2631880000,2023-12-21,10:43:51.880,41.22145128,1.72963716,61.52,157.886,-1.102,-0.99,1703155431880000.0,1703155430885901,0.052472739946097136,-0.1384577788412571,-0.0030000000000001137,157.886,-1.102,-0.99
5,2631890000,2023-12-21,10:43:51.890,41.22145098,1.72963733,61.518,157.886,-1.153,-0.987,1703155431890000.0,1703155430895925,0.06623581459280103,-0.17197123635560274,-0.005000000000002558,157.886,-1.153,-0.987
6,2631900000,2023-12-21,10:43:51.900,41.22145067,1.72963749,61.516999999999996,157.885,-1.168,-0.9840000000000001,1703155431899999.0,1703155430905924,0.07914444466587156,-0.20658261701464653,-0.006000000000007333,157.885,-1.168,-0.9840000000000001
7,2631910000,2023-12-21,10:43:51.910,41.22145035,1.72963765,61.516000000000005,157.882,-1.119,-0.9790000000000001,1703155431909999.0,1703155430915953,0.09203685173997656,-0.24230417422950268,-0.006999999999997897,157.882,-1.119,-0.9790000000000001
8,2631920000,2023-12-21,10:43:51.920,41.22145005,1.72963783,61.516000000000005,157.88,-1.042,-0.981,1703155431920000.0,1703155430925943,0.10663814842700958,-0.27582988049834967,-0.006999999999997897,157.88,-1.042,-0.981
9,2631930000,2023-12-21,10:43:51.930,41.22144974,1.72963799,61.515,157.879,-0.986,-0.987,1703155431929999.0,1703155430935927,0.11954677890753374,-0.3104412639513612,-0.008000000000002672,157.879,-0.986,-0.987
10,2631940000,2023-12-21,10:43:51.940,41.22144943,1.72963815,61.513999999999996,157.88,-0.98,-0.992,1703155431939999.0,1703155430945900,0.1324554093880579,-0.34505264461040497,-0.009000000000007446,157.88,-0.98,-0.992
11,2631950000,2023-12-21,10:43:51.950,41.22144913,1.72963833,61.513999999999996,157.882,-0.9890000000000001,-1.005,1703155431950000.0,1703155430955919,0.14705670659895986,-0.3785783499479294,-0.009000000000007446,157.882,-0.9890000000000001,-1.005
12,2631960000,2023-12-21,10:43:51.960,41.22144882,1.72963849,61.512,157.882,-0.97,-1.015,1703155431960000.0,1703155430965926,0.15996533742872998,-0.4131897334009409,-0.011000000000002785,157.882,-0.97,-1.015
13,2631970000,2023-12-21,10:43:51.970,41.22144851,1.72963866,61.511,157.879,-0.912,-1.021,1703155431969999.0,1703155430975904,0.17371219006599858,-0.4478133646771312,-0.012000000000000455,157.879,-0.912,-1.021
14,2631980000,2023-12-21,10:43:51.980,41.22144821,1.72963883,61.51,157.876,-0.852,-1.028,1703155431979999.0,1703155430985922,0.18747526593506336,-0.4813268221914768,-0.01300000000000523,157.876,-0.852,-1.028
15,2631990000,2023-12-21,10:43:51.990,41.2214479,1.72963899,61.50899999999999,157.874,-0.838,-1.031,1703155431990000.0,1703155430995925,0.20038389711407945,-0.5159382037818432,-0.014000000000010004,157.874,-0.838,-1.031
16,2632000000,2023-12-21,10:43:52.000,41.22144759,1.72963916,61.507,157.874,-0.851,-1.038,1703155432000000.0,1703155431005925,0.21413075015880167,-0.550561835989356,-0.016000000000005343,157.874,-0.851,-1.038
17,2632010000,2023-12-21,10:43:52.010,41.22144729,1.72963933,61.507,157.876,-0.8320000000000001,-1.0490000000000002,1703155432009999.0,1703155431017042,0.22789382643532008,-0.5840752916410565,-0.016000000000005343,157.876,-0.8320000000000001,-1.0490000000000002
18,2632020000,2023-12-21,10:43:52.020,41.22144698,1.7296395,61.505,157.877,-0.759,-1.06,1703155432020000.0,1703155431025994,0.2416406797710806,-0.6186989210546017,-0.018000000000000682,157.877,-0.759,-1.06
19,2632030000,2023-12-21,10:43:52.030,41.22144667,1.72963966,61.504,157.873,-0.6779999999999999,-1.0759999999999998,1703155432030000.0,1703155431035974,0.2545493115321733,-0.6533103045076132,-0.019000000000005457,157.873,-0.6779999999999999,-1.0759999999999998
20,2632040000,2023-12-21,10:43:52.040,41.22144636,1.72963984,61.503,157.871,-0.652,-1.0859999999999999,1703155432039999.0,1703155431045869,0.2691343868500553,-0.6879461836069822,-0.020000000000003126,157.871,-0.652,-1.0859999999999999
21,2632050000,2023-12-21,10:43:52.050,41.22144605,1.72964001,61.501999999999995,157.86700000000002,-0.6829999999999999,-1.097,1703155432049999.0,1703155431056106,0.28288124059326947,-0.7225698158144951,-0.0210000000000079,157.86700000000002,-0.6829999999999999,-1.097
22,2632060000,2023-12-21,10:43:52.060,41.22144574,1.72964017,61.501000000000005,157.865,-0.708,-1.1059999999999999,1703155432060000.0,1703155431066020,0.29578987264540046,-0.7571811964735389,-0.021999999999998465,157.865,-0.708,-1.1059999999999999
23,2632070000,2023-12-21,10:43:52.070,41.22144544,1.72964035,61.5,157.864,-0.679,-1.119,1703155432070000.0,1703155431076050,0.31039117148611695,-0.7907069027423859,-0.02300000000000324,157.864,-0.679,-1.119
24,2632080000,2023-12-21,10:43:52.080,41.22144513,1.72964052,61.498999999999995,157.861,-0.615,-1.128,1703155432079999.0,1703155431086023,0.3241380256949924,-0.8253305340185761,-0.024000000000008015,157.861,-0.615,-1.128
25,2632090000,2023-12-21,10:43:52.090,41.22144482,1.72964068,61.498000000000005,157.858,-0.578,-1.1420000000000001,1703155432090000.0,1703155431095974,0.3370466582127847,-0.8599419156089425,-0.02499999999999858,157.858,-0.578,-1.1420000000000001
26,2632100000,2023-12-21,10:43:52.100,41.22144451,1.72964086,61.498000000000005,157.852,-0.5870000000000001,-1.151,1703155432100000.0,1703155431105948,0.35163173434557393,-0.8945777956396341,-0.02499999999999858,157.852,-0.5870000000000001,-1.151
27,2632110000,2023-12-21,10:43:52.110,41.2214442,1.72964102,61.497,157.847,-0.612,-1.153,1703155432109999.0,1703155431115944,0.3645403671544045,-0.9291891772300005,-0.026000000000003354,157.847,-0.612,-1.153
28,2632120000,2023-12-21,10:43:52.120,41.22144389,1.72964119,61.495,157.843,-0.602,-1.159,1703155432119999.0,1703155431125936,0.3782872218871489,-0.9638128075748682,-0.028000000000005798,157.843,-0.602,-1.159
29,2632130000,2023-12-21,10:43:52.130,41.22144358,1.72964136,61.495,157.83700000000002,-0.555,-1.157,1703155432130000.0,1703155431135978,0.392034076678101,-0.9984364388510585,-0.028000000000005798,157.83700000000002,-0.555,-1.157
30,2632140000,2023-12-21,10:43:52.140,41.22144327,1.72964152,61.494,157.829,-0.521,-1.153,1703155432140000.0,1703155431145923,0.4049427098943852,-1.0330478195101023,-0.029000000000003467,157.829,-0.521,-1.153
31,2632150000,2023-12-21,10:43:52.150,41.22144296,1.72964169,61.493,157.827,-0.537,-1.145,1703155432149999.0,1703155431155946,0.4186895649181679,-1.0676714517176151,-0.030000000000001137,157.827,-0.537,-1.145
32,2632160000,2023-12-21,10:43:52.160,41.22144265,1.72964186,61.494,157.825,-0.583,-1.141,1703155432159999.0,1703155431165921,0.4324364202329889,-1.1022950811311603,-0.029000000000003467,157.825,-0.583,-1.141
33,2632170000,2023-12-21,10:43:52.170,41.22144233,1.72964203,61.493,157.82399999999998,-0.598,-1.139,1703155432170000.0,1703155431175920,0.44616705254884437,-1.1380288852378726,-0.030000000000001137,157.82399999999998,-0.598,-1.139
34,2632180000,2023-12-21,10:43:52.180,41.22144202,1.72964219,61.492,157.825,-0.575,-1.145,1703155432179999.0,1703155431185894,0.45907568628899753,-1.1726402677595615,-0.03100000000000591,157.825,-0.575,-1.145
35,2632190000,2023-12-21,10:43:52.190,41.22144171,1.72964237,61.492,157.822,-0.552,-1.153,1703155432189999.0,1703155431195910,0.473660763760563,-1.207276145927608,-0.03100000000000591,157.822,-0.552,-1.153
36,2632200000,2023-12-21,10:43:52.200,41.22144139,1.72964254,61.492,157.82,-0.5720000000000001,-1.165,1703155432200000.0,1703155431205900,0.4873913964256644,-1.243009950965643,-0.03100000000000591,157.82,-0.5720000000000001,-1.165
37,2632210000,2023-12-21,10:43:52.210,41.22144108,1.72964271,61.49100000000001,157.816,-0.616,-1.1840000000000002,1703155432210000.0,1703155431215896,0.5011382523807697,-1.2776335822418332,-0.031999999999996476,157.816,-0.616,-1.1840000000000002
38,2632220000,2023-12-21,10:43:52.220,41.22144077,1.72964289,61.492,157.816,-0.644,-1.196,1703155432219999.0,1703155431225913,0.5157233302015811,-1.3122694622725248,-0.03100000000000591,157.816,-0.644,-1.196
39,2632230000,2023-12-21,10:43:52.230,41.22144046,1.72964306,61.49100000000001,157.816,-0.631,-1.218,1703155432229999.0,1703155431235905,0.529470186389517,-1.3468930926173925,-0.031999999999996476,157.816,-0.631,-1.218
40,2632240000,2023-12-21,10:43:52.240,41.22144014,1.72964323,61.49100000000001,157.814,-0.603,-1.232,1703155432240000.0,1703155431245901,0.5432008197531104,-1.3826268957927823,-0.031999999999996476,157.814,-0.603,-1.232
41,2632250000,2023-12-21,10:43:52.250,41.22143983,1.7296434,61.492,157.808,-0.618,-1.237,1703155432250000.0,1703155431255919,0.5569476762320846,-1.4172505270689726,-0.03100000000000591,157.808,-0.618,-1.237
42,2632260000,2023-12-21,10:43:52.260,41.22143951,1.72964357,61.492,157.804,-0.685,-1.237,1703155432259999.0,1703155431265905,0.5706783098285086,-1.4529843302443624,-0.03100000000000591,157.804,-0.685,-1.237
43,2632270000,2023-12-21,10:43:52.270,41.2214392,1.72964374,61.49100000000001,157.803,-0.759,-1.235,1703155432270000.0,1703155431276067,0.5844251665985212,-1.4876079624518752,-0.031999999999996476,157.803,-0.759,-1.235
44,2632280000,2023-12-21,10:43:52.280,41.22143889,1.72964392,61.492,157.805,-0.7879999999999999,-1.234,1703155432280000.0,1703155431286058,0.5990102452924475,-1.522243839688599,-0.03100000000000591,157.805,-0.7879999999999999,-1.234
45,2632290000,2023-12-21,10:43:52.290,41.22143857,1.72964409,61.49100000000001,157.808,-0.763,-1.2309999999999999,1703155432289999.0,1703155431296150,0.6127408792963251,-1.557977644726634,-0.031999999999996476,157.808,-0.763,-1.2309999999999999
46,2632300000,2023-12-21,10:43:52.300,41.22143825,1.72964425,61.49100000000001,157.80700000000002,-0.7390000000000001,-1.232,1703155432299999.0,1703155431305930,0.625633291725535,-1.593699200078845,-0.031999999999996476,157.80700000000002,-0.7390000000000001,-1.232
47,2632310000,2023-12-21,10:43:52.310,41.22143794,1.72964443,61.492,157.806,-0.7609999999999999,-1.2329999999999999,1703155432310000.0,1703155431316084,0.6402183708269149,-1.6283350782468915,-0.03100000000000591,157.806,-0.7609999999999999,-1.2329999999999999
48,2632320000,2023-12-21,10:43:52.320,41.22143762,1.7296446,61.492,157.80700000000002,-0.821,-1.24,1703155432320000.0,1703155431325999,0.6539490052964538,-1.6640688832849264,-0.03100000000000591,157.80700000000002,-0.821,-1.24
49,2632330000,2023-12-21,10:43:52.330,41.22143731,1.72964477,61.49100000000001,157.80700000000002,-0.87,-1.2409999999999999,1703155432329999.0,1703155431336021,0.667695862823166,-1.6986925126984715,-0.031999999999996476,157.80700000000002,-0.87,-1.2409999999999999
50,2632340000,2023-12-21,10:43:52.340,41.221437,1.72964494,61.49100000000001,157.80700000000002,-0.88,-1.249,1703155432340000.0,1703155431345967,0.6814427205827087,-1.7333161439746618,-0.031999999999996476,157.80700000000002,-0.88,-1.249
51,2632350000,2023-12-21,10:43:52.350,41.22143668,1.72964511,61.49100000000001,157.805,-0.8540000000000001,-1.256,1703155432350000.0,1703155431355963,0.6951733554597013,-1.7690499471500516,-0.031999999999996476,157.805,-0.8540000000000001,-1.256
52,2632360000,2023-12-21,10:43:52.360,41.22143637,1.72964528,61.49100000000001,157.8,-0.845,-1.255,1703155432359999.0,1703155431365927,0.7089202134520747,-1.8036735784262419,-0.031999999999996476,157.8,-0.845,-1.255
53,2632370000,2023-12-21,10:43:52.370,41.22143606,1.72964546,61.49100000000001,157.796,-0.882,-1.256,1703155432369999.0,1703155431375920,0.7235052934847772,-1.8383094556629658,-0.031999999999996476,157.796,-0.882,-1.256
54,2632380000,2023-12-21,10:43:52.380,41.22143574,1.72964562,61.49100000000001,157.793,-0.941,-1.249,1703155432380000.0,1703155431385922,0.7363977069035172,-1.8740310119464993,-0.031999999999996476,157.793,-0.941,-1.249
55,2632390000,2023-12-21,10:43:52.390,41.22143543,1.72964579,61.49100000000001,157.78799999999998,-0.9690000000000001,-1.2429999999999999,1703155432390000.0,1703155431395943,0.7501445653615519,-1.9086546413600445,-0.031999999999996476,157.78799999999998,-0.9690000000000001,-1.2429999999999999
56,2632400000,2023-12-21,10:43:52.400,41.22143512,1.72964595,61.49,157.784,-0.945,-1.234,1703155432399999.0,1703155431405906,0.7630532020702958,-1.9432660210877657,-0.03300000000000125,157.784,-0.945,-1.234
57,2631410000,2023-12-21,10:43:51.410,41.2214348,1.72964612,61.489,157.78,-0.897,-1.225,1703155431409999.0,1703155431415920,0.7767838377621956,-1.9789998270571232,-0.034000000000006025,157.78,-0.897,-1.225
58,2631420000,2023-12-21,10:43:51.420,41.22143449,1.72964628,61.489,157.77700000000002,-0.882,-1.225,1703155431420000.0,1703155431425928,0.7896924747619778,-2.0136112067848444,-0.034000000000006025,157.77700000000002,-0.882,-1.225
59,2631430000,2023-12-21,10:43:51.430,41.22143418,1.72964645,61.489,157.77700000000002,-0.922,-1.227,1703155431429999.0,1703155431435931,0.8034393336856738,-2.048234837129712,-0.034000000000006025,157.77700000000002,-0.922,-1.227
60,2631440000,2023-12-21,10:43:51.440,41.22143387,1.72964662,61.488,157.775,-0.9940000000000001,-1.2329999999999999,1703155431439999.0,1703155431445920,0.8171861928422004,-2.0828584665432572,-0.035000000000003695,157.775,-0.9940000000000001,-1.2329999999999999
61,2631450000,2023-12-21,10:43:51.450,41.22143356,1.72964678,61.488,157.774,-1.038,-1.242,1703155431450000.0,1703155431455895,0.8300948301330209,-2.117469847202301,-0.035000000000003695,157.774,-1.038,-1.242
62,2631460000,2023-12-21,10:43:51.460,41.22143325,1.72964695,61.486999999999995,157.773,-1.005,-1.256,1703155431460000.0,1703155431465906,0.8438416895805858,-2.1520934775471687,-0.03600000000000847,157.773,-1.005,-1.256
63,2631470000,2023-12-21,10:43:51.470,41.22143294,1.72964711,61.486000000000004,157.768,-0.922,-1.263,1703155431469999.0,1703155431475929,0.8567503272206523,-2.18670485727489,-0.036999999999999034,157.768,-0.922,-1.263
64,2631480000,2023-12-21,10:43:51.480,41.22143263,1.72964728,61.486000000000004,157.761,-0.8859999999999999,-1.265,1703155431479999.0,1703155431485904,0.8704971869010478,-2.221328486688435,-0.036999999999999034,157.761,-0.8859999999999999,-1.265
65,2631490000,2023-12-21,10:43:51.490,41.22143232,1.72964745,61.485,157.755,-0.927,-1.264,1703155431490000.0,1703155431495902,0.8842440466978587,-2.2559521179646254,-0.03800000000000381,157.755,-0.927,-1.264
66,2631500000,2023-12-21,10:43:51.500,41.22143201,1.72964761,61.485,157.749,-1.001,-1.254,1703155431500000.0,1703155431505929,0.8971526847453788,-2.2905634976923466,-0.03800000000000381,157.749,-1.001,-1.254
67,2631510000,2023-12-21,10:43:51.510,41.2214317,1.72964777,61.483999999999995,157.746,-1.021,-1.249,1703155431509999.0,1703155431515906,0.9100613228511065,-2.325174877420068,-0.03900000000000858,157.746,-1.021,-1.249
68,2631520000,2023-12-21,10:43:51.520,41.22143139,1.72964794,61.483000000000004,157.747,-0.9540000000000001,-1.2409999999999999,1703155431520000.0,1703155431526245,0.923808183055371,-2.3597985077649355,-0.03999999999999915,157.747,-0.9540000000000001,-1.2409999999999999
69,2631530000,2023-12-21,10:43:51.530,41.22143108,1.7296481,61.482,157.748,-0.867,-1.228,1703155431530000.0,1703155431536023,0.9367168215103447,-2.3944098884239793,-0.04100000000000392,157.748,-0.867,-1.228
70,2631540000,2023-12-21,10:43:51.540,41.22143076,1.72964826,61.482,157.745,-0.846,-1.2109999999999999,1703155431539999.0,1703155431546033,0.9496092370827682,-2.4301314437761903,-0.04100000000000392,157.745,-0.846,-1.2109999999999999
71,2631550000,2023-12-21,10:43:51.550,41.22143045,1.72964842,61.482,157.741,-0.922,-1.185,1703155431549999.0,1703155431555993,0.9625178758287802,-2.4647428235039115,-0.04100000000000392,157.741,-0.922,-1.185
72,2631560000,2023-12-21,10:43:51.560,41.22143014,1.72964858,61.481,157.737,-1.0270000000000001,-1.16,1703155431560000.0,1703155431566036,0.9754265145747922,-2.4993542032316327,-0.04200000000000159,157.737,-1.0270000000000001,-1.16
73,2631570000,2023-12-21,10:43:51.570,41.22142983,1.72964875,61.48,157.739,-1.046,-1.136,1703155431570000.0,1703155431575972,0.9891733755357563,-2.533977832645178,-0.043000000000006366,157.739,-1.046,-1.136
74,2631580000,2023-12-21,10:43:51.580,41.22142952,1.72964891,61.48,157.74,-0.953,-1.115,1703155431579999.0,1703155431585997,1.0020820145728067,-2.5685892133042216,-0.043000000000006366,157.74,-0.953,-1.115
75,2631590000,2023-12-21,10:43:51.590,41.22142921,1.72964907,61.479,157.737,-0.853,-1.095,1703155431590000.0,1703155431596050,1.0149906537262723,-2.603200594894588,-0.044000000000004036,157.737,-0.853,-1.095
76,2631600000,2023-12-21,10:43:51.600,41.22142889,1.72964923,61.479,157.735,-0.858,-1.074,1703155431600000.0,1703155431605962,1.0278830701718107,-2.6389221474528313,-0.044000000000004036,157.735,-0.858,-1.074
77,2631610000,2023-12-21,10:43:51.610,41.22142859,1.72964939,61.478,157.733,-0.9590000000000001,-1.054,1703155431609999.0,1703155431615958,1.0408079325570725,-2.672423355281353,-0.045000000000001705,157.733,-0.9590000000000001,-1.054
78,2631620000,2023-12-21,10:43:51.620,41.22142827,1.72964955,61.478,157.73,-1.042,-1.04,1703155431619999.0,1703155431625969,1.0537003492936492,-2.7081449097022414,-0.045000000000001705,157.73,-1.042,-1.04
79,2631630000,2023-12-21,10:43:51.630,41.22142796,1.72964971,61.478,157.726,-1.0170000000000001,-1.034,1703155431630000.0,1703155431635937,1.0666089889709838,-2.7427562894299626,-0.045000000000001705,157.726,-1.0170000000000001,-1.034
80,2631640000,2023-12-21,10:43:51.640,41.22142765,1.72964987,61.477,157.722,-0.9209999999999999,-1.023,1703155431640000.0,1703155431645940,1.079517628881149,-2.777367669157684,-0.04600000000000648,157.722,-0.9209999999999999,-1.023
81,2631650000,2023-12-21,10:43:51.650,41.22142734,1.72965004,61.477,157.72,-0.872,-1.0170000000000001,1703155431649999.0,1703155431655940,1.0932644908316433,-2.811991298571229,-0.04600000000000648,157.72,-0.872,-1.0170000000000001
82,2631660000,2023-12-21,10:43:51.660,41.22142702,1.72965019,61.476000000000006,157.719,-0.9259999999999999,-1.011,1703155431659999.0,1703155431665958,1.1053186860517599,-2.847700604237616,-0.046999999999997044,157.719,-0.9259999999999999,-1.011
83,2631670000,2023-12-21,10:43:51.670,41.22142672,1.72965036,61.477,157.717,-1.032,-1.005,1703155431670000.0,1703155431675937,1.1190817711758427,-2.8812140598893166,-0.04600000000000648,157.717,-1.032,-1.005
84,2631680000,2023-12-21,10:43:51.680,41.22142641,1.72965052,61.477,157.715,-1.073,-1.003,1703155431679999.0,1703155431686005,1.1319904115516692,-2.9158254405483603,-0.04600000000000648,157.715,-1.073,-1.003
85,2631690000,2023-12-21,10:43:51.690,41.22142609,1.72965068,61.477,157.713,-1.003,-1.005,1703155431689999.0,1703155431695970,1.1448828291613609,-2.9515469931066036,-0.04600000000000648,157.713,-1.003,-1.005
86,2631700000,2023-12-21,10:43:51.700,41.22142579,1.72965084,61.477,157.71,-0.9129999999999999,-1.01,1703155431700000.0,1703155431705943,1.1578076927107759,-2.98504819907248,-0.04600000000000648,157.71,-0.9129999999999999,-1.01
87,2631710000,2023-12-21,10:43:51.710,41.22142548,1.72965101,61.477,157.709,-0.902,-1.016,1703155431710000.0,1703155431715937,1.1715545554761775,-3.0196718275547028,-0.04600000000000648,157.709,-0.902,-1.016
88,2631720000,2023-12-21,10:43:51.720,41.22142516,1.72965117,61.476000000000006,157.711,-0.9670000000000001,-1.02,1703155431719999.0,1703155431725906,1.184446973435115,-3.055393381975591,-0.046999999999997044,157.711,-0.9670000000000001,-1.02
89,2631730000,2023-12-21,10:43:51.730,41.22142486,1.72965134,61.476000000000006,157.709,-1.014,-1.023,1703155431729999.0,1703155431735921,1.1982100594323128,-3.088906836695969,-0.046999999999997044,157.709,-1.014,-1.023
90,2631740000,2023-12-21,10:43:51.740,41.22142455,1.7296515,61.476000000000006,157.70600000000002,-0.992,-1.028,1703155431740000.0,1703155431745934,1.2111187006230466,-3.123518217355013,-0.046999999999997044,157.70600000000002,-0.992,-1.028
91,2631750000,2023-12-21,10:43:51.750,41.22142424,1.72965167,61.476000000000006,157.70600000000002,-0.937,-1.026,1703155431750000.0,1703155431755853,1.2248655639123172,-3.158141846768558,-0.046999999999997044,157.70600000000002,-0.937,-1.026
92,2631760000,2023-12-21,10:43:51.760,41.22142393,1.72965183,61.476000000000006,157.705,-0.9209999999999999,-1.0270000000000001,1703155431759999.0,1703155431766023,1.237774205277674,-3.192753227427602,-0.046999999999997044,157.705,-0.9209999999999999,-1.0270000000000001
93,2631770000,2023-12-21,10:43:51.770,41.22142363,1.729652,61.476000000000006,157.705,-0.9570000000000001,-1.034,1703155431770000.0,1703155431776059,1.2515372917987406,-3.226266681216657,-0.046999999999997044,157.705,-0.9570000000000001,-1.034
94,2631780000,2023-12-21,10:43:51.780,41.22142331,1.72965217,61.475,157.70600000000002,-0.9890000000000001,-1.042,1703155431780000.0,1703155431786069,1.265267932554707,-3.262000484392047,-0.04800000000000182,157.70600000000002,-0.9890000000000001,-1.042
95,2631790000,2023-12-21,10:43:51.790,41.22142301,1.72965234,61.475,157.70600000000002,-0.975,-1.053,1703155431789999.0,1703155431796029,1.279031019366812,-3.2955139372497797,-0.04800000000000182,157.70600000000002,-0.975,-1.053
96,2631800000,2023-12-21,10:43:51.800,41.2214227,1.72965251,61.474,157.705,-0.92,-1.074,1703155431799999.0,1703155431805899,1.2927778833545744,-3.3301375675946474,-0.049000000000006594,157.705,-0.92,-1.074
97,2631810000,2023-12-21,10:43:51.810,41.22142239,1.72965268,61.474,157.7,-0.884,-1.091,1703155431810000.0,1703155431815950,1.3065247474587522,-3.3647611951455474,-0.049000000000006594,157.7,-0.884,-1.091
98,2631820000,2023-12-21,10:43:51.820,41.22142209,1.72965285,61.474,157.697,-0.9059999999999999,-1.103,1703155431820000.0,1703155431826003,1.3202878346201032,-3.398274650797248,-0.049000000000006594,157.697,-0.9059999999999999,-1.103
99,2631830000,2023-12-21,10:43:51.830,41.22142178,1.72965302,61.474,157.695,-0.961,-1.117,1703155431829999.0,1703155431836037,1.3340346990153193,-3.432898278348148,-0.049000000000006594,157.695,-0.961,-1.117
100,2631840000,2023-12-21,10:43:51.840,41.22142147,1.72965319,61.473,157.69,-0.983,-1.123,1703155431840000.0,1703155431845951,1.3477815635269508,-3.467521905899048,-0.05000000000000426,157.69,-0.983,-1.123
101,2631850000,2023-12-21,10:43:51.850,41.22142116,1.72965335,61.473,157.685,-0.9570000000000001,-1.13,1703155431850000.0,1703155431855971,1.360690206172876,-3.502133287489414,-0.05000000000000426,157.685,-0.9570000000000001,-1.13
102,2631860000,2023-12-21,10:43:51.860,41.22142085,1.72965352,61.472,157.679,-0.9109999999999999,-1.1320000000000001,1703155431859999.0,1703155431865954,1.3744370709755458,-3.536756915040314,-0.05100000000000193,157.679,-0.9109999999999999,-1.1320000000000001
103,2631870000,2023-12-21,10:43:51.870,41.22142054,1.72965369,61.471000000000004,157.672,-0.907,-1.128,1703155431869999.0,1703155431875920,1.3881839358946308,-3.5713805444538593,-0.0519999999999996,157.672,-0.907,-1.128
104,2631880000,2023-12-21,10:43:51.880,41.22142024,1.72965385,61.471000000000004,157.668,-0.9390000000000001,-1.127,1703155431880000.0,1703155431885934,1.40110880183056,-3.6048817485570908,-0.0519999999999996,157.668,-0.9390000000000001,-1.127
105,2631890000,2023-12-21,10:43:51.890,41.22141992,1.72965402,61.471000000000004,157.665,-0.963,-1.12,1703155431890000.0,1703155431895942,1.4148394440999255,-3.6406155517324805,-0.0519999999999996,157.665,-0.963,-1.12
106,2631900000,2023-12-21,10:43:51.900,41.22141961,1.72965418,61.47,157.661,-0.96,-1.114,1703155431899999.0,1703155431905957,1.4277480874443427,-3.6752269314602017,-0.05300000000000438,157.661,-0.96,-1.114
107,2631910000,2023-12-21,10:43:51.910,41.2214193,1.72965435,61.468999999999994,157.658,-0.946,-1.111,1703155431909999.0,1703155431915929,1.4414949529455043,-3.7098505599424243,-0.05400000000000915,157.658,-0.946,-1.111
108,2631920000,2023-12-21,10:43:51.920,41.22141899,1.72965452,61.468,157.656,-0.943,-1.107,1703155431920000.0,1703155431925948,1.4552418185630813,-3.744474188424647,-0.054999999999999716,157.656,-0.943,-1.107
109,2631930000,2023-12-21,10:43:51.930,41.22141868,1.72965468,61.468,157.65200000000002,-0.9620000000000001,-1.1059999999999999,1703155431929999.0,1703155431935904,1.4681504622567445,-3.7790855672210455,-0.054999999999999716,157.65200000000002,-0.9620000000000001,-1.1059999999999999
110,2631940000,2023-12-21,10:43:51.940,41.22141837,1.72965485,61.467,157.651,-0.9740000000000001,-1.107,1703155431939999.0,1703155431945925,1.4818973281653598,-3.813709195703268,-0.05600000000000449,157.651,-0.9740000000000001,-1.107
111,2631950000,2023-12-21,10:43:51.950,41.22141806,1.72965502,61.466,157.651,-0.9690000000000001,-1.111,1703155431950000.0,1703155431955938,1.4956441941321827,-3.8483328241854906,-0.05700000000000216,157.651,-0.9690000000000001,-1.111
112,2631960000,2023-12-21,10:43:51.960,41.22141775,1.72965518,61.466,157.65,-0.96,-1.111,1703155431960000.0,1703155431965910,1.5085528382332996,-3.8829442029818892,-0.05700000000000216,157.65,-0.96,-1.111
113,2631970000,2023-12-21,10:43:51.970,41.22141744,1.72965536,61.465,157.649,-0.963,-1.113,1703155431969999.0,1703155431975978,1.5231379265896976,-3.9175800792872906,-0.05799999999999983,157.649,-0.963,-1.113
114,2631980000,2023-12-21,10:43:51.980,41.22141713,1.72965552,61.464,157.649,-0.9740000000000001,-1.11,1703155431979999.0,1703155431985934,1.5360465709818527,-3.9521914599463344,-0.059000000000004604,157.649,-0.9740000000000001,-1.11
115,2631990000,2023-12-21,10:43:51.990,41.22141682,1.72965569,61.463,157.649,-0.986,-1.109,1703155431990000.0,1703155431995908,1.5497934375307523,-3.9868150874972343,-0.060000000000002274,157.649,-0.986,-1.109
116,2632000000,2023-12-21,10:43:52.000,41.22141651,1.72965586,61.463,157.653,-0.9790000000000001,-1.1079999999999999,1703155432000000.0,1703155432005936,1.5635403042542748,-4.021438715979457,-0.060000000000002274,157.653,-0.9790000000000001,-1.1079999999999999
117,2632010000,2023-12-21,10:43:52.010,41.2214162,1.72965602,61.461999999999996,157.658,-0.973,-1.101,1703155432009999.0,1703155432017066,1.576448948995676,-4.056050095707178,-0.06100000000000705,157.658,-0.973,-1.101
118,2632020000,2023-12-21,10:43:52.020,41.22141589,1.72965618,61.461000000000006,157.66299999999998,-0.975,-1.0959999999999999,1703155432020000.0,1703155432026024,1.5893575939117,-4.090661473572254,-0.06199999999999761,157.66299999999998,-0.975,-1.0959999999999999
119,2632030000,2023-12-21,10:43:52.030,41.22141558,1.72965635,61.46,157.668,-0.9690000000000001,-1.089,1703155432030000.0,1703155432036055,1.6031044609844685,-4.125285102054477,-0.06300000000000239,157.668,-0.9690000000000001,-1.089
120,2632040000,2023-12-21,10:43:52.040,41.22141527,1.72965652,61.458999999999996,157.672,-0.953,-1.078,1703155432039999.0,1703155432046024,1.6168513282900676,-4.159908730536699,-0.06400000000000716,157.672,-0.953,-1.078
121,2632050000,2023-12-21,10:43:52.050,41.22141496,1.72965668,61.458,157.678,-0.945,-1.07,1703155432049999.0,1703155432056026,1.6297599735553376,-4.194520109333098,-0.06500000000000483,157.678,-0.945,-1.07
122,2632060000,2023-12-21,10:43:52.060,41.22141465,1.72965685,61.458,157.686,-0.9620000000000001,-1.0590000000000002,1703155432060000.0,1703155432066212,1.6435068410355598,-4.2291437378153205,-0.06500000000000483,157.686,-0.9620000000000001,-1.0590000000000002
123,2632070000,2023-12-21,10:43:52.070,41.22141434,1.72965701,61.457,157.69299999999998,-0.99,-1.047,1703155432070000.0,1703155432075836,1.656415486591868,-4.263755115680397,-0.0660000000000025,157.69299999999998,-0.99,-1.047
124,2632080000,2023-12-21,10:43:52.080,41.22141403,1.72965717,61.456,157.69799999999998,-0.985,-1.036,1703155432079999.0,1703155432086020,1.6693241322645918,-4.298366495408118,-0.06700000000000017,157.69799999999998,-0.985,-1.036
125,2632090000,2023-12-21,10:43:52.090,41.22141372,1.72965734,61.456,157.702,-0.9309999999999999,-1.023,1703155432090000.0,1703155432096136,1.6830710002104752,-4.332990122959018,-0.06700000000000017,157.702,-0.9309999999999999,-1.023
126,2632100000,2023-12-21,10:43:52.100,41.22141341,1.7296575,61.455,157.70600000000002,-0.884,-1.012,1703155432100000.0,1703155432105972,1.6959796461742371,-4.367601501755416,-0.06800000000000495,157.70600000000002,-0.884,-1.012
127,2632110000,2023-12-21,10:43:52.110,41.2214131,1.72965767,61.45399999999999,157.709,-0.8959999999999999,-1.0,1703155432109999.0,1703155432115943,1.7097265142947435,-4.402225130237639,-0.06900000000000972,157.709,-0.8959999999999999,-1.0
128,2632120000,2023-12-21,10:43:52.120,41.22141279,1.72965783,61.45399999999999,157.711,-0.9590000000000001,-0.988,1703155432119999.0,1703155432125982,1.7226351605495438,-4.436836508102715,-0.06900000000000972,157.711,-0.9590000000000001,-0.988
129,2632130000,2023-12-21,10:43:52.130,41.22141248,1.729658,61.45399999999999,157.713,-0.997,-0.9790000000000001,1703155432130000.0,1703155432135953,1.7363820290192962,-4.471460136584938,-0.06900000000000972,157.713,-0.997,-0.9790000000000001
130,2632140000,2023-12-21,10:43:52.140,41.22141217,1.72965816,61.453,157.717,-0.955,-0.9790000000000001,1703155432140000.0,1703155432145974,1.749290675506927,-4.506071515381336,-0.07000000000000028,157.717,-0.955,-0.9790000000000001
131,2632150000,2023-12-21,10:43:52.150,41.22141188,1.72965834,61.452,157.719,-0.8759999999999999,-0.985,1703155432149999.0,1703155432155935,1.7639082120731473,-4.538487044163048,-0.07100000000000506,157.719,-0.8759999999999999,-0.985
132,2632160000,2023-12-21,10:43:52.160,41.22141157,1.7296585,61.452,157.725,-0.85,-0.991,1703155432159999.0,1703155432165929,1.7768168587936088,-4.573098422959447,-0.07100000000000506,157.725,-0.85,-0.991
133,2632170000,2023-12-21,10:43:52.170,41.22141126,1.72965866,61.451,157.72899999999998,-0.91,-0.998,1703155432170000.0,1703155432175906,1.789725505572278,-4.6077097998932,-0.07200000000000273,157.72899999999998,-0.91,-0.998
134,2632180000,2023-12-21,10:43:52.180,41.22141096,1.72965884,61.451,157.72899999999998,-0.965,-1.002,1703155432179999.0,1703155432185906,1.8043268197216094,-4.64123550336808,-0.07200000000000273,157.72899999999998,-0.965,-1.002
135,2632190000,2023-12-21,10:43:52.190,41.22141065,1.72965901,61.45,157.73,-0.925,-1.01,1703155432189999.0,1703155432195916,1.818073689006269,-4.67585913091898,-0.0730000000000004,157.73,-0.925,-1.01
136,2632200000,2023-12-21,10:43:52.200,41.22141035,1.72965917,61.45,157.733,-0.8079999999999999,-1.014,1703155432200000.0,1703155432205911,1.8309985591331497,-4.709360335022211,-0.0730000000000004,157.733,-0.8079999999999999,-1.014
137,2632210000,2023-12-21,10:43:52.210,41.22141005,1.72965935,61.45,157.734,-0.764,-1.0170000000000001,1703155432210000.0,1703155432215950,1.8455998736899346,-4.74288603849709,-0.0730000000000004,157.734,-0.764,-1.0170000000000001
138,2632220000,2023-12-21,10:43:52.220,41.22140974,1.72965952,61.45,157.74,-0.861,-1.0190000000000001,1703155432219999.0,1703155432225947,1.8593467433820479,-4.777509665116668,-0.0730000000000004,157.74,-0.861,-1.0190000000000001
139,2632230000,2023-12-21,10:43:52.230,41.22140943,1.72965968,61.449,157.747,-1.005,-1.0190000000000001,1703155432229999.0,1703155432235951,1.872255391033832,-4.812121043913066,-0.07400000000000517,157.747,-1.005,-1.0190000000000001
140,2632240000,2023-12-21,10:43:52.240,41.22140913,1.72965986,61.448,157.751,-1.021,-1.023,1703155432240000.0,1703155432245942,1.8868567059980705,-4.845646746456623,-0.07500000000000284,157.751,-1.021,-1.023
141,2632250000,2023-12-21,10:43:52.250,41.22140882,1.72966003,61.446999999999996,157.754,-0.873,-1.025,1703155432250000.0,1703155432255927,1.9006035760976374,-4.880270374007523,-0.07600000000000762,157.754,-0.873,-1.025
142,2632260000,2023-12-21,10:43:52.260,41.22140851,1.72966019,61.446999999999996,157.75799999999998,-0.726,-1.022,1703155432259999.0,1703155432265902,1.9135122241568752,-4.9148817509412766,-0.07600000000000762,157.75799999999998,-0.726,-1.022
143,2632270000,2023-12-21,10:43:52.270,41.22140821,1.72966037,61.446000000000005,157.757,-0.769,-1.021,1703155432270000.0,1703155432276105,1.9281135395285673,-4.948407453484833,-0.07699999999999818,157.757,-0.769,-1.021
144,2632280000,2023-12-21,10:43:52.280,41.22140791,1.72966053,61.446000000000005,157.761,-0.9790000000000001,-1.008,1703155432280000.0,1703155432286119,1.941038410703186,-4.981908657588065,-0.07699999999999818,157.761,-0.9790000000000001,-1.008
145,2632290000,2023-12-21,10:43:52.290,41.2214076,1.7296607,61.445,157.766,-1.1,-1.008,1703155432289999.0,1703155432296152,1.954785281268414,-5.016532285138965,-0.07800000000000296,157.766,-1.1,-1.008
146,2632300000,2023-12-21,10:43:52.300,41.2214073,1.72966087,61.443000000000005,157.77,-0.981,-1.0070000000000001,1703155432299999.0,1703155432306005,1.9685483748908155,-5.050045737996697,-0.0799999999999983,157.77,-0.981,-1.0070000000000001
147,2632310000,2023-12-21,10:43:52.310,41.22140699,1.72966103,61.442,157.769,-0.733,-1.0090000000000001,1703155432310000.0,1703155432316076,1.9814570235321298,-5.084657116793096,-0.08100000000000307,157.769,-0.733,-1.0090000000000001
148,2632320000,2023-12-21,10:43:52.320,41.22140668,1.7296612,61.443000000000005,157.766,-0.635,-1.0170000000000001,1703155432320000.0,1703155432326071,1.995203894621227,-5.1192807434126735,-0.0799999999999983,157.766,-0.635,-1.0170000000000001
149,2632330000,2023-12-21,10:43:52.330,41.22140638,1.72966138,61.443000000000005,157.768,-0.816,-1.011,1703155432329999.0,1703155432335975,2.009805210866034,-5.152806446887553,-0.0799999999999983,157.768,-0.816,-1.011
150,2632340000,2023-12-21,10:43:52.340,41.22140607,1.72966154,61.442,157.77,-1.079,-1.021,1703155432340000.0,1703155432346025,2.0227138599730097,-5.187417823821306,-0.08100000000000307,157.77,-1.079,-1.021
151,2632350000,2023-12-21,10:43:52.350,41.22140577,1.72966171,61.441,157.77100000000002,-1.1340000000000001,-1.03,1703155432350000.0,1703155432355966,2.0364769542356953,-5.220931277610362,-0.08200000000000074,157.77100000000002,-1.1340000000000001,-1.03
152,2632360000,2023-12-21,10:43:52.360,41.22140547,1.72966188,61.44,157.768,-0.9129999999999999,-1.048,1703155432359999.0,1703155432365947,2.0502400486147963,-5.254444729536772,-0.08300000000000551,157.768,-0.9129999999999999,-1.048
153,2632370000,2023-12-21,10:43:52.370,41.22140516,1.72966205,61.43899999999999,157.766,-0.6709999999999999,-1.07,1703155432369999.0,1703155432375932,2.0639869203441776,-5.289068356156349,-0.08400000000001029,157.766,-0.6709999999999999,-1.07
154,2632380000,2023-12-21,10:43:52.380,41.22140485,1.72966221,61.43899999999999,157.765,-0.6970000000000001,-1.08,1703155432380000.0,1703155432385899,2.0768955699750222,-5.323679734952748,-0.08400000000001029,157.765,-0.6970000000000001,-1.08
155,2632390000,2023-12-21,10:43:52.390,41.22140455,1.72966239,61.43899999999999,157.764,-0.968,-1.095,1703155432390000.0,1703155432395914,2.0914968870347366,-5.357205435633659,-0.08400000000001029,157.764,-0.968,-1.095
156,2632400000,2023-12-21,10:43:52.400,41.22140424,1.72966256,61.438,157.769,-1.189,-1.1059999999999999,1703155432399999.0,1703155432405918,2.1052437591715716,-5.391829064115882,-0.08500000000000085,157.769,-1.189,-1.1059999999999999
157,2632410000,2023-12-21,10:43:52.410,41.22140393,1.72966273,61.437,157.77200000000002,-1.131,-1.129,1703155432409999.0,1703155432415962,2.1189906314830296,-5.426452689804137,-0.08600000000000563,157.77200000000002,-1.131,-1.129
158,2632420000,2023-12-21,10:43:52.420,41.22140363,1.72966289,61.43600000000001,157.776,-0.8740000000000001,-1.153,1703155432420000.0,1703155432425954,2.1319155043456703,-5.459953894838691,-0.08699999999999619,157.776,-0.8740000000000001,-1.153
159,2632430000,2023-12-21,10:43:52.430,41.22140332,1.72966306,61.43600000000001,157.781,-0.726,-1.171,1703155432429999.0,1703155432435920,2.1456623770063743,-5.494577521458268,-0.08699999999999619,157.781,-0.726,-1.171
160,2632440000,2023-12-21,10:43:52.440,41.22140301,1.72966323,61.43600000000001,157.787,-0.8640000000000001,-1.1840000000000002,1703155432439999.0,1703155432445897,2.1594092496088706,-5.529201148077846,-0.08699999999999619,157.787,-0.8640000000000001,-1.1840000000000002
161,2632450000,2023-12-21,10:43:52.450,41.2214027,1.7296634,61.435,157.795,-1.15,-1.189,1703155432450000.0,1703155432455939,2.1731561224441975,-5.563824774697423,-0.08800000000000097,157.795,-1.15,-1.189
162,2632460000,2023-12-21,10:43:52.460,41.2214024,1.72966357,61.434,157.803,-1.275,-1.202,1703155432460000.0,1703155432465928,2.1869192181620747,-5.597338226623833,-0.08900000000000574,157.803,-1.275,-1.202
163,2632470000,2023-12-21,10:43:52.470,41.22140209,1.72966374,61.434,157.811,-1.119,-1.216,1703155432469999.0,1703155432475917,2.20066609128844,-5.631961854174733,-0.08900000000000574,157.811,-1.119,-1.216
164,2632480000,2023-12-21,10:43:52.480,41.22140179,1.72966391,61.433,157.81799999999998,-0.878,-1.236,1703155432479999.0,1703155432485938,2.2144291872973554,-5.665475307032466,-0.09000000000000341,157.81799999999998,-0.878,-1.236
165,2632490000,2023-12-21,10:43:52.490,41.22140148,1.72966408,61.433,157.827,-0.8440000000000001,-1.247,1703155432490000.0,1703155432495930,2.228176060714759,-5.700098931789398,-0.09000000000000341,157.827,-0.8440000000000001,-1.247
166,2632500000,2023-12-21,10:43:52.500,41.22140117,1.72966425,61.431999999999995,157.834,-1.062,-1.253,1703155432500000.0,1703155432505907,2.24192293419037,-5.734722559340298,-0.09100000000000819,157.834,-1.062,-1.253
167,2632510000,2023-12-21,10:43:52.510,41.22140087,1.72966441,61.431000000000004,157.841,-1.2790000000000001,-1.2590000000000001,1703155432509999.0,1703155432515946,2.254847808275372,-5.76822376344353,-0.09199999999999875,157.841,-1.2790000000000001,-1.2590000000000001
168,2632520000,2023-12-21,10:43:52.520,41.22140056,1.72966458,61.43,157.84799999999998,-1.26,-1.2670000000000001,1703155432520000.0,1703155432526079,2.268594682100229,-5.802847390063107,-0.09300000000000352,157.84799999999998,-1.26,-1.2670000000000001
169,2632530000,2023-12-21,10:43:52.530,41.22140025,1.72966475,61.43,157.85399999999998,-1.03,-1.2790000000000001,1703155432530000.0,1703155432536057,2.2823415560415015,-5.837471016682684,-0.09300000000000352,157.85399999999998,-1.03,-1.2790000000000001
170,2632540000,2023-12-21,10:43:52.540,41.22139995,1.72966491,61.428999999999995,157.862,-0.858,-1.2890000000000001,1703155432539999.0,1703155432546105,2.2952664305339567,-5.870972218923271,-0.0940000000000083,157.862,-0.858,-1.2890000000000001
171,2632550000,2023-12-21,10:43:52.550,41.22139964,1.72966507,61.428999999999995,157.866,-0.938,-1.291,1703155432549999.0,1703155432556093,2.3081750824349,-5.905583597719669,-0.0940000000000083,157.866,-0.938,-1.291
172,2632560000,2023-12-21,10:43:52.560,41.22139934,1.72966524,61.427,157.872,-1.173,-1.2890000000000001,1703155432560000.0,1703155432566013,2.321938179433346,-5.9390970496460795,-0.09600000000000364,157.872,-1.173,-1.2890000000000001
173,2632570000,2023-12-21,10:43:52.570,41.22139903,1.7296654,61.426,157.878,-1.275,-1.291,1703155432570000.0,1703155432576050,2.33484683156712,-5.973708428442478,-0.09700000000000131,157.878,-1.275,-1.291
174,2632580000,2023-12-21,10:43:52.580,41.22139873,1.72966556,61.424,157.882,-1.114,-1.2919999999999998,1703155432579999.0,1703155432586058,2.3477717066416517,-6.0072096306830645,-0.09900000000000375,157.882,-1.114,-1.2919999999999998
175,2632590000,2023-12-21,10:43:52.590,41.22139842,1.72966572,61.424,157.884,-0.85,-1.297,1703155432590000.0,1703155432595961,2.3606803590082563,-6.041821007616818,-0.09900000000000375,157.884,-0.85,-1.297
176,2632600000,2023-12-21,10:43:52.600,41.22139812,1.72966588,61.423,157.886,-0.763,-1.2919999999999998,1703155432600000.0,1703155432605962,2.373605234257411,-6.075322211720049,-0.10000000000000142,157.886,-0.763,-1.2919999999999998
177,2632610000,2023-12-21,10:43:52.610,41.2213978,1.72966604,61.423,157.887,-0.93,-1.2790000000000001,1703155432609999.0,1703155432615957,2.386497664207127,-6.111043764278293,-0.10000000000000142,157.887,-0.93,-1.2790000000000001
178,2632620000,2023-12-21,10:43:52.620,41.2213975,1.7296662,61.42100000000001,157.888,-1.1320000000000001,-1.2670000000000001,1703155432619999.0,1703155432625929,2.39942253974732,-6.144544966518879,-0.10199999999999676,157.888,-1.1320000000000001,-1.2670000000000001
179,2632630000,2023-12-21,10:43:52.630,41.2213972,1.72966635,61.419,157.887,-1.126,-1.252,1703155432630000.0,1703155432635931,2.4115091930143535,-6.178033922798932,-0.10400000000000631,157.887,-1.126,-1.252
180,2632640000,2023-12-21,10:43:52.640,41.22139689,1.7296665,61.418,157.885,-0.9159999999999999,-1.2409999999999999,1703155432640000.0,1703155432645943,2.423579623689875,-6.212633050046861,-0.10500000000000398,157.885,-0.9159999999999999,-1.2409999999999999
181,2632650000,2023-12-21,10:43:52.650,41.22139658,1.72966666,61.418,157.886,-0.723,-1.228,1703155432649999.0,1703155432655976,2.436488276871387,-6.24724442884326,-0.10500000000000398,157.886,-0.723,-1.228
182,2632660000,2023-12-21,10:43:52.660,41.22139627,1.72966682,61.418,157.889,-0.731,-1.207,1703155432659999.0,1703155432665938,2.449396930169314,-6.281855804845691,-0.10500000000000398,157.889,-0.731,-1.207
183,2632670000,2023-12-21,10:43:52.670,41.22139596,1.72966697,61.417,157.892,-0.9,-1.1840000000000002,1703155432670000.0,1703155432675974,2.4614673612522893,-6.316454934887588,-0.10600000000000165,157.892,-0.9,-1.1840000000000002
184,2632680000,2023-12-21,10:43:52.680,41.22139566,1.72966712,61.415,157.895,-1.0190000000000001,-1.159,1703155432679999.0,1703155432685974,2.473554015159607,-6.349943888373673,-0.10800000000000409,157.895,-1.0190000000000001,-1.159
185,2632690000,2023-12-21,10:43:52.690,41.22139535,1.72966728,61.415,157.89700000000002,-0.9440000000000001,-1.129,1703155432689999.0,1703155432695959,2.48646266880678,-6.3845552653074265,-0.10800000000000409,157.89700000000002,-0.9440000000000001,-1.129
186,2632700000,2023-12-21,10:43:52.700,41.22139504,1.72966743,61.413999999999994,157.901,-0.7490000000000001,-1.099,1703155432700000.0,1703155432705995,2.498533100239001,-6.419154395349324,-0.10900000000000887,157.901,-0.7490000000000001,-1.099
187,2632710000,2023-12-21,10:43:52.710,41.22139473,1.72966758,61.413000000000004,157.906,-0.636,-1.068,1703155432710000.0,1703155432715946,2.5106035318458453,-6.453753522597253,-0.10999999999999943,157.906,-0.636,-1.068
188,2632720000,2023-12-21,10:43:52.720,41.22139442,1.72966774,61.413999999999994,157.914,-0.6990000000000001,-1.0290000000000001,1703155432719999.0,1703155432725960,2.523512185900472,-6.488364899531007,-0.10900000000000887,157.914,-0.6990000000000001,-1.0290000000000001
189,2632730000,2023-12-21,10:43:52.730,41.22139411,1.72966789,61.413000000000004,157.923,-0.841,-0.992,1703155432729999.0,1703155432735948,2.535582617681939,-6.522964027710259,-0.10999999999999943,157.923,-0.841,-0.992
190,2632740000,2023-12-21,10:43:52.740,41.2213938,1.72966804,61.412,157.931,-0.898,-0.956,1703155432740000.0,1703155432745982,2.5476530495798215,-6.557563156820834,-0.1110000000000042,157.931,-0.898,-0.956
191,2632750000,2023-12-21,10:43:52.750,41.2213935,1.72966819,61.411,157.938,-0.805,-0.9229999999999999,1703155432750000.0,1703155432756013,2.559739704360254,-6.591052112169564,-0.11200000000000188,157.938,-0.805,-0.9229999999999999
192,2632760000,2023-12-21,10:43:52.760,41.22139318,1.72966834,61.411,157.944,-0.6579999999999999,-0.894,1703155432759999.0,1703155432765950,2.5717939138412476,-6.6267614141106606,-0.11200000000000188,157.944,-0.6579999999999999,-0.894
193,2632770000,2023-12-21,10:43:52.770,41.22139287,1.7296685,61.41,157.951,-0.609,-0.862,1703155432770000.0,1703155432776183,2.584702568477951,-6.6613727901130915,-0.11300000000000665,157.951,-0.609,-0.862
194,2632780000,2023-12-21,10:43:52.780,41.22139256,1.72966866,61.411,157.96,-0.7070000000000001,-0.83,1703155432780000.0,1703155432786131,2.597611223347485,-6.69598416890949,-0.11200000000000188,157.96,-0.7070000000000001,-0.83
195,2632790000,2023-12-21,10:43:52.790,41.22139225,1.72966881,61.41,157.971,-0.8440000000000001,-0.799,1703155432789999.0,1703155432796186,2.6096816558856517,-6.73058329615742,-0.11300000000000665,157.971,-0.8440000000000001,-0.799
196,2632800000,2023-12-21,10:43:52.800,41.22139193,1.72966896,61.41,157.98,-0.8809999999999999,-0.775,1703155432799999.0,1703155432806094,2.6217358658323064,-6.7662925980985165,-0.11300000000000665,157.98,-0.8809999999999999,-0.775
197,2632810000,2023-12-21,10:43:52.810,41.22139163,1.72966912,61.409,157.99,-0.768,-0.757,1703155432810000.0,1703155432816075,2.6346607437590137,-6.799793802201748,-0.11400000000000432,157.99,-0.768,-0.757
198,2632820000,2023-12-21,10:43:52.820,41.22139131,1.72966928,61.409,157.998,-0.624,-0.741,1703155432820000.0,1703155432826061,2.647553176386282,-6.8355153519660234,-0.11400000000000432,157.998,-0.624,-0.741
199,2632830000,2023-12-21,10:43:52.830,41.221391,1.72966944,61.409,158.00799999999998,-0.613,-0.726,1703155432829999.0,1703155432836045,2.6604618318378925,-6.870126728899777,-0.11400000000000432,158.00799999999998,-0.613,-0.726
200,2632840000,2023-12-21,10:43:52.840,41.22139068,1.7296696,61.409,158.015,-0.757,-0.71,1703155432840000.0,1703155432845963,2.6733542648144066,-6.905848280526698,-0.11400000000000432,158.015,-0.757,-0.71
201,2632850000,2023-12-21,10:43:52.850,41.22139037,1.72966976,61.409,158.023,-0.9259999999999999,-0.6920000000000001,1703155432850000.0,1703155432855999,2.6862629205570556,-6.940459657460451,-0.11400000000000432,158.023,-0.9259999999999999,-0.6920000000000001
202,2632860000,2023-12-21,10:43:52.860,41.22139005,1.72966992,61.409,158.032,-0.9490000000000001,-0.679,1703155432859999.0,1703155432865948,2.699155353649985,-6.976181208156049,-0.11400000000000432,158.032,-0.9490000000000001,-0.679
203,2632870000,2023-12-21,10:43:52.870,41.22138975,1.72967008,61.409,158.04,-0.815,-0.6729999999999999,1703155432869999.0,1703155432875934,2.712080232333392,-7.009682411327958,-0.11400000000000432,158.04,-0.815,-0.6729999999999999
204,2632880000,2023-12-21,10:43:52.880,41.22138943,1.72967024,61.408,158.046,-0.679,-0.664,1703155432880000.0,1703155432885941,2.7249726657755673,-7.045403962023556,-0.11500000000000199,158.046,-0.679,-0.664
205,2632890000,2023-12-21,10:43:52.890,41.22138911,1.7296704,61.408,158.05200000000002,-0.6990000000000001,-0.66,1703155432890000.0,1703155432895975,2.737865099334158,-7.081125513650477,-0.11500000000000199,158.05200000000002,-0.6990000000000001,-0.66
206,2632900000,2023-12-21,10:43:52.900,41.22138881,1.72967058,61.407,158.058,-0.863,-0.655,1703155432899999.0,1703155432905942,2.752466423320584,-7.114651212468743,-0.11600000000000676,158.058,-0.863,-0.655
207,2632910000,2023-12-21,10:43:52.910,41.2213885,1.72967075,61.407,158.063,-1.012,-0.655,1703155432909999.0,1703155432915950,2.7662133022677153,-7.149274838156998,-0.11600000000000676,158.063,-1.012,-0.655
208,2632920000,2023-12-21,10:43:52.920,41.22138818,1.72967092,61.406000000000006,158.07,-1.004,-0.6709999999999999,1703155432920000.0,1703155432925944,2.7799439586233348,-7.185008639469743,-0.11699999999999733,158.07,-1.004,-0.6709999999999999
209,2632930000,2023-12-21,10:43:52.930,41.22138788,1.7296711,61.403999999999996,158.077,-0.885,-0.6809999999999999,1703155432929999.0,1703155432935931,2.794545283075422,-7.218534337356687,-0.11900000000000688,158.077,-0.885,-0.6809999999999999
210,2632940000,2023-12-21,10:43:52.940,41.22138757,1.72967126,61.403999999999996,158.08100000000002,-0.802,-0.691,1703155432939999.0,1703155432945963,2.8074539399240166,-7.25314571429044,-0.11900000000000688,158.08100000000002,-0.802,-0.691
211,2632950000,2023-12-21,10:43:52.950,41.22138725,1.72967143,61.403999999999996,158.085,-0.838,-0.705,1703155432950000.0,1703155432955924,2.8211845968617126,-7.2888795137405396,-0.11900000000000688,158.085,-0.838,-0.705
212,2632960000,2023-12-21,10:43:52.960,41.22138695,1.72967161,61.402,158.09,-0.953,-0.713,1703155432960000.0,1703155432965932,2.8357859216048382,-7.3224052134901285,-0.12100000000000222,158.09,-0.953,-0.713
213,2632970000,2023-12-21,10:43:52.970,41.22138664,1.72967178,61.402,158.096,-1.0170000000000001,-0.7240000000000001,1703155432969999.0,1703155432975948,2.8495328014250845,-7.357028839178383,-0.12100000000000222,158.096,-1.0170000000000001,-0.7240000000000001
214,2632980000,2023-12-21,10:43:52.980,41.22138633,1.72967195,61.401,158.105,-0.9670000000000001,-0.738,1703155432979999.0,1703155432985923,2.8632796813035384,-7.391652464866638,-0.12199999999999989,158.105,-0.9670000000000001,-0.738
215,2632990000,2023-12-21,10:43:52.990,41.22138603,1.72967213,61.398999999999994,158.113,-0.8759999999999999,-0.7509999999999999,1703155432990000.0,1703155432995929,2.877881006570533,-7.42517816554755,-0.12400000000000944,158.113,-0.8759999999999999,-0.7509999999999999
216,2633000000,2023-12-21,10:43:53.000,41.22138572,1.72967229,61.398999999999994,158.12,-0.845,-0.763,1703155433000000.0,1703155433005989,2.8907896642340347,-7.459789540618658,-0.12400000000000944,158.12,-0.845,-0.763
217,2633010000,2023-12-21,10:43:53.010,41.2213854,1.72967246,61.398999999999994,158.127,-0.909,-0.7709999999999999,1703155433009999.0,1703155433017030,2.904520321986638,-7.4955233400687575,-0.12400000000000944,158.127,-0.909,-0.7709999999999999
218,2633020000,2023-12-21,10:43:53.020,41.2213851,1.72967264,61.397,158.13299999999998,-0.982,-0.782,1703155433020000.0,1703155433026048,2.919121647544671,-7.529049040749669,-0.12600000000000477,158.13299999999998,-0.982,-0.782
219,2633030000,2023-12-21,10:43:53.030,41.22138479,1.72967281,61.396,158.139,-0.9840000000000001,-0.799,1703155433030000.0,1703155433036059,2.9328685281798244,-7.563672663643956,-0.12700000000000244,158.139,-0.9840000000000001,-0.799
220,2633040000,2023-12-21,10:43:53.040,41.22138448,1.72967298,61.396,158.148,-0.9159999999999999,-0.8170000000000001,1703155433039999.0,1703155433046126,2.946615408989601,-7.598296289332211,-0.12700000000000244,158.148,-0.9159999999999999,-0.8170000000000001
221,2633050000,2023-12-21,10:43:53.050,41.22138418,1.72967317,61.394,158.158,-0.8640000000000001,-0.843,1703155433049999.0,1703155433056040,2.9620549575192854,-7.631834237836301,-0.1290000000000049,158.158,-0.8640000000000001,-0.843
222,2633060000,2023-12-21,10:43:53.060,41.22138387,1.72967334,61.394,158.167,-0.882,-0.872,1703155433060000.0,1703155433066111,2.975801838503685,-7.666457862593234,-0.1290000000000049,158.167,-0.882,-0.872
223,2633070000,2023-12-21,10:43:53.070,41.22138356,1.72967351,61.393,158.175,-0.9390000000000001,-0.899,1703155433070000.0,1703155433076209,2.989548719720915,-7.701081487350166,-0.13000000000000256,158.175,-0.9390000000000001,-0.899
224,2633080000,2023-12-21,10:43:53.080,41.22138326,1.72967369,61.391000000000005,158.183,-0.9570000000000001,-0.9309999999999999,1703155433079999.0,1703155433086023,3.0041500462102704,-7.734607187099755,-0.1319999999999979,158.183,-0.9570000000000001,-0.9309999999999999
225,2633090000,2023-12-21,10:43:53.090,41.22138295,1.72967386,61.39,158.192,-0.904,-0.9670000000000001,1703155433090000.0,1703155433096087,3.0178969276021235,-7.769230811856687,-0.13300000000000267,158.192,-0.904,-0.9670000000000001
226,2633100000,2023-12-21,10:43:53.100,41.22138264,1.72967404,61.39,158.2,-0.8370000000000001,-1.003,1703155433100000.0,1703155433105984,3.0324820317327976,-7.803866685368121,-0.13300000000000267,158.2,-0.8370000000000001,-1.003
227,2633110000,2023-12-21,10:43:53.110,41.22138234,1.72967422,61.388000000000005,158.208,-0.818,-1.03,1703155433109999.0,1703155433115971,3.0470833586296067,-7.83739238511771,-0.134999999999998,158.208,-0.818,-1.03
228,2633120000,2023-12-21,10:43:53.120,41.22138203,1.72967439,61.387,158.218,-0.851,-1.054,1703155433119999.0,1703155433125988,3.060830240487121,-7.872016009874642,-0.13600000000000279,158.218,-0.851,-1.054
229,2633130000,2023-12-21,10:43:53.130,41.22138172,1.72967456,61.386,158.227,-0.883,-1.0759999999999998,1703155433130000.0,1703155433135947,3.0745771224610507,-7.906639636494219,-0.13700000000000045,158.227,-0.883,-1.0759999999999998
230,2633140000,2023-12-21,10:43:53.140,41.22138142,1.72967474,61.38399999999999,158.237,-0.8640000000000001,-1.095,1703155433140000.0,1703155433145948,3.089178449823521,-7.9401653334498405,-0.13900000000001,158.237,-0.8640000000000001,-1.095
231,2633150000,2023-12-21,10:43:53.150,41.22138111,1.72967491,61.383,158.246,-0.795,-1.117,1703155433149999.0,1703155433155958,3.1029253321466967,-7.974788958206773,-0.14000000000000057,158.246,-0.795,-1.117
232,2633160000,2023-12-21,10:43:53.160,41.2213808,1.72967508,61.382,158.255,-0.742,-1.131,1703155433159999.0,1703155433165975,3.11667221452808,-8.009412582963705,-0.14100000000000534,158.255,-0.742,-1.131
233,2633170000,2023-12-21,10:43:53.170,41.22138048,1.72967524,61.381,158.265,-0.7440000000000001,-1.151,1703155433170000.0,1703155433175947,3.1295646519283764,-8.045134133659303,-0.142000000000003,158.265,-0.7440000000000001,-1.151
234,2633180000,2023-12-21,10:43:53.180,41.22138017,1.72967541,61.38,158.273,-0.787,-1.165,1703155433179999.0,1703155433185948,3.1433115346590057,-8.079757758416235,-0.14300000000000068,158.273,-0.787,-1.165
235,2633190000,2023-12-21,10:43:53.190,41.22137986,1.72967558,61.379,158.281,-0.8079999999999999,-1.176,1703155433189999.0,1703155433195913,3.1570584175060503,-8.114381381310523,-0.14400000000000546,158.281,-0.8079999999999999,-1.176
236,2633200000,2023-12-21,10:43:53.200,41.22137955,1.72967573,61.376999999999995,158.285,-0.769,-1.195,1703155433200000.0,1703155433205912,3.169128855341114,-8.148980510421097,-0.1460000000000079,158.285,-0.769,-1.195
237,2633210000,2023-12-21,10:43:53.210,41.22137923,1.7296759,61.376000000000005,158.291,-0.713,-1.206,1703155433210000.0,1703155433215945,3.18285951577127,-8.184714308008552,-0.14699999999999847,158.291,-0.713,-1.206
238,2633220000,2023-12-21,10:43:53.220,41.22137892,1.72967607,61.375,158.29399999999998,-0.6920000000000001,-1.22,1703155433219999.0,1703155433225932,3.196606399025768,-8.219337933696806,-0.14800000000000324,158.29399999999998,-0.6920000000000001,-1.22
239,2633230000,2023-12-21,10:43:53.230,41.2213786,1.72967622,61.373999999999995,158.298,-0.721,-1.226,1703155433229999.0,1703155433235907,3.208660614734981,-8.255047233775258,-0.14900000000000801,158.298,-0.721,-1.226
240,2633240000,2023-12-21,10:43:53.240,41.22137829,1.72967638,61.373000000000005,158.30200000000002,-0.7659999999999999,-1.2329999999999999,1703155433240000.0,1703155433245950,3.2215692755999044,-8.289658610709012,-0.14999999999999858,158.30200000000002,-0.7659999999999999,-1.2329999999999999
241,2633250000,2023-12-21,10:43:53.250,41.22137797,1.72967655,61.372,158.305,-0.782,-1.239,1703155433250000.0,1703155433255925,3.2352999366703443,-8.325392407365143,-0.15100000000000335,158.305,-0.782,-1.239
242,2633260000,2023-12-21,10:43:53.260,41.22137765,1.7296767,61.371,158.306,-0.759,-1.238,1703155433259999.0,1703155433266008,3.2473541527288035,-8.36110170930624,-0.15200000000000102,158.306,-0.759,-1.238
243,2633270000,2023-12-21,10:43:53.270,41.22137734,1.72967686,61.371,158.305,-0.735,-1.24,1703155433270000.0,1703155433276224,3.2602628140011802,-8.395713085308671,-0.15200000000000102,158.305,-0.735,-1.24
244,2633280000,2023-12-21,10:43:53.280,41.22137702,1.72967703,61.37,158.30700000000002,-0.745,-1.236,1703155433280000.0,1703155433286235,3.273993475479074,-8.431446883827448,-0.1530000000000058,158.30700000000002,-0.745,-1.236
245,2633290000,2023-12-21,10:43:53.290,41.2213767,1.72967718,61.369,158.308,-0.784,-1.234,1703155433289999.0,1703155433296263,3.2860476919449866,-8.467156185768545,-0.15400000000000347,158.308,-0.784,-1.234
246,2633300000,2023-12-21,10:43:53.300,41.22137638,1.72967734,61.368,158.311,-0.831,-1.226,1703155433299999.0,1703155433306104,3.2989401310915127,-8.502877733670175,-0.15500000000000114,158.311,-0.831,-1.226
247,2633310000,2023-12-21,10:43:53.310,41.22137606,1.7296775,61.368,158.313,-0.8540000000000001,-1.219,1703155433310000.0,1703155433316022,3.311832570354454,-8.538599285297096,-0.15500000000000114,158.313,-0.8540000000000001,-1.219
248,2633320000,2023-12-21,10:43:53.320,41.22137574,1.72967765,61.367,158.312,-0.863,-1.209,1703155433320000.0,1703155433326060,3.323886787169613,-8.574308584444225,-0.1560000000000059,158.312,-0.863,-1.209
249,2633330000,2023-12-21,10:43:53.330,41.22137542,1.72967781,61.367,158.313,-0.87,-1.193,1703155433329999.0,1703155433335982,3.336779226665385,-8.610030133277178,-0.1560000000000059,158.313,-0.87,-1.193
250,2633340000,2023-12-21,10:43:53.340,41.2213751,1.72967798,61.36600000000001,158.316,-0.889,-1.183,1703155433340000.0,1703155433346029,3.350509888958186,-8.645763932727277,-0.15699999999999648,158.316,-0.889,-1.183
251,2633350000,2023-12-21,10:43:53.350,41.22137477,1.72967813,61.365,158.319,-0.922,-1.167,1703155433350000.0,1703155433355972,3.3625478835892864,-8.682583408430219,-0.15800000000000125,158.319,-0.922,-1.167
252,2633360000,2023-12-21,10:43:53.360,41.22137445,1.72967829,61.365,158.32299999999998,-0.955,-1.156,1703155433359999.0,1703155433365987,3.3754403235507198,-8.718304958194494,-0.15800000000000125,158.32299999999998,-0.955,-1.156
253,2633370000,2023-12-21,10:43:53.370,41.22137413,1.72967845,61.364,158.328,-0.981,-1.14,1703155433369999.0,1703155433375950,3.3883327636285685,-8.75402650795877,-0.15900000000000603,158.328,-0.981,-1.14
254,2633380000,2023-12-21,10:43:53.380,41.22137381,1.7296786,61.363,158.332,-0.9890000000000001,-1.122,1703155433380000.0,1703155433385943,3.400386981200427,-8.789735808037221,-0.1600000000000037,158.332,-0.9890000000000001,-1.122
255,2633390000,2023-12-21,10:43:53.390,41.22137349,1.72967876,61.363,158.336,-0.9840000000000001,-1.105,1703155433390000.0,1703155433395951,3.413279421569314,-8.825457357801497,-0.1600000000000037,158.336,-0.9840000000000001,-1.105
256,2633400000,2023-12-21,10:43:53.400,41.22137317,1.72967892,61.363,158.339,-1.0,-1.08,1703155433399999.0,1703155433405959,3.4261718619964086,-8.861178907565773,-0.1600000000000037,158.339,-1.0,-1.08
257,2633410000,2023-12-21,10:43:53.410,41.22137285,1.72967908,61.36,158.343,-1.04,-1.051,1703155433409999.0,1703155433415934,3.4390643025981262,-8.896900457330048,-0.1630000000000038,158.343,-1.04,-1.051
258,2633420000,2023-12-21,10:43:53.420,41.22137253,1.72967924,61.358999999999995,158.34799999999998,-1.094,-1.024,1703155433420000.0,1703155433425967,3.451956743374467,-8.932622007094324,-0.16400000000000858,158.34799999999998,-1.094,-1.024
259,2633430000,2023-12-21,10:43:53.430,41.2213722,1.7296794,61.358999999999995,158.352,-1.125,-1.003,1703155433429999.0,1703155433435952,3.464832961675711,-8.969453729689121,-0.16400000000000858,158.352,-1.125,-1.003
260,2633440000,2023-12-21,10:43:53.440,41.22137189,1.72967956,61.355,158.357,-1.119,-0.988,1703155433439999.0,1703155433445947,3.4777416252181865,-9.00406510476023,-0.16800000000000637,158.357,-1.119,-0.988
261,2633450000,2023-12-21,10:43:53.450,41.22137157,1.72967973,61.355,158.363,-1.112,-0.9840000000000001,1703155433450000.0,1703155433455967,3.4914722890243866,-9.039798903279006,-0.16800000000000637,158.363,-1.112,-0.9840000000000001
262,2633460000,2023-12-21,10:43:53.460,41.22137124,1.72967988,61.354,158.36700000000002,-1.16,-0.978,1703155433460000.0,1703155433465914,3.5035102851106785,-9.07661837618798,-0.16900000000000404,158.36700000000002,-1.16,-0.978
