, Time(), Date, Local Time, Latitude(deg), Longitude(deg), Altitude(m), Heading(deg), Pitch(deg), Roll(deg),TimestampGPS,TimestampHDF,x,y,z,heading,pitch,roll
0,1607340000,2023-12-21,10:26:47.340,41.21406429,1.72478555,54.56100000000001,243.856,0.268,-1.1520000000000001,1703154407340000.0,1703154406342776,0.0,0.0,0.0,243.856,0.268,-1.1520000000000001
1,1607350000,2023-12-21,10:26:47.350,41.21406429,1.72478555,54.56100000000001,243.856,0.26899999999999996,-1.15,1703154407350000.0,1703154406352818,0.0,0.0,0.0,243.856,0.26899999999999996,-1.15
2,1607360000,2023-12-21,10:26:47.360,41.21406429,1.72478555,54.56100000000001,243.856,0.26899999999999996,-1.151,1703154407359999.0,1703154406362740,0.0,0.0,0.0,243.856,0.26899999999999996,-1.151
3,1607370000,2023-12-21,10:26:47.370,41.21406429,1.72478555,54.56100000000001,243.856,0.268,-1.151,1703154407369999.0,1703154406372723,0.0,0.0,0.0,243.856,0.268,-1.151
4,1607380000,2023-12-21,10:26:47.380,41.21406429,1.72478555,54.56100000000001,243.857,0.267,-1.151,1703154407380000.0,1703154406382690,0.0,0.0,0.0,243.857,0.267,-1.151
5,1607390000,2023-12-21,10:26:47.390,41.21406429,1.72478555,54.56100000000001,243.856,0.271,-1.151,1703154407390000.0,1703154406392700,0.0,0.0,0.0,243.856,0.271,-1.151
6,1607400000,2023-12-21,10:26:47.400,41.21406429,1.72478555,54.56100000000001,243.856,0.273,-1.1520000000000001,1703154407399999.0,1703154406402716,0.0,0.0,0.0,243.856,0.273,-1.1520000000000001
7,1606410000,2023-12-21,10:26:46.410,41.21406429,1.72478555,54.56100000000001,243.856,0.27,-1.1520000000000001,1703154406409999.0,1703154406412727,0.0,0.0,0.0,243.856,0.27,-1.1520000000000001
8,1606420000,2023-12-21,10:26:46.420,41.21406429,1.72478555,54.56100000000001,243.855,0.266,-1.1520000000000001,1703154406420000.0,1703154406422703,0.0,0.0,0.0,243.855,0.266,-1.1520000000000001
9,1606430000,2023-12-21,10:26:46.430,41.21406429,1.72478555,54.56100000000001,243.855,0.267,-1.151,1703154406429999.0,1703154406432699,0.0,0.0,0.0,243.855,0.267,-1.151
10,1606440000,2023-12-21,10:26:46.440,41.21406429,1.72478555,54.56100000000001,243.855,0.271,-1.151,1703154406439999.0,1703154406442676,0.0,0.0,0.0,243.855,0.271,-1.151
11,1606450000,2023-12-21,10:26:46.450,41.21406428,1.72478555,54.56100000000001,243.855,0.27,-1.151,1703154406450000.0,1703154406452691,-1.628266181796789e-05,-0.0011101728305220604,0.0,243.855,0.27,-1.151
12,1606460000,2023-12-21,10:26:46.460,41.21406428,1.72478555,54.56100000000001,243.855,0.266,-1.15,1703154406460000.0,1703154406462691,-1.628266181796789e-05,-0.0011101728305220604,0.0,243.855,0.266,-1.15
13,1606470000,2023-12-21,10:26:46.470,41.21406428,1.72478555,54.56100000000001,243.855,0.264,-1.148,1703154406469999.0,1703154406472657,-1.628266181796789e-05,-0.0011101728305220604,0.0,243.855,0.264,-1.148
14,1606480000,2023-12-21,10:26:46.480,41.21406428,1.72478555,54.56100000000001,243.855,0.267,-1.147,1703154406479999.0,1703154406482677,-1.628266181796789e-05,-0.0011101728305220604,0.0,243.855,0.267,-1.147
15,1606490000,2023-12-21,10:26:46.490,41.21406428,1.72478555,54.56100000000001,243.855,0.27,-1.148,1703154406490000.0,1703154406492688,-1.628266181796789e-05,-0.0011101728305220604,0.0,243.855,0.27,-1.148
16,1606500000,2023-12-21,10:26:46.500,41.21406428,1.72478555,54.56100000000001,243.855,0.27,-1.148,1703154406500000.0,1703154406502700,-1.628266181796789e-05,-0.0011101728305220604,0.0,243.855,0.27,-1.148
17,1606510000,2023-12-21,10:26:46.510,41.21406428,1.72478555,54.56100000000001,243.855,0.26899999999999996,-1.147,1703154406509999.0,1703154406512681,-1.628266181796789e-05,-0.0011101728305220604,0.0,243.855,0.26899999999999996,-1.147
18,1606520000,2023-12-21,10:26:46.520,41.21406428,1.72478555,54.56100000000001,243.855,0.27,-1.147,1703154406520000.0,1703154406522755,-1.628266181796789e-05,-0.0011101728305220604,0.0,243.855,0.27,-1.147
19,1606530000,2023-12-21,10:26:46.530,41.21406428,1.72478555,54.56100000000001,243.855,0.272,-1.147,1703154406530000.0,1703154406533029,-1.628266181796789e-05,-0.0011101728305220604,0.0,243.855,0.272,-1.147
20,1606540000,2023-12-21,10:26:46.540,41.21406428,1.72478555,54.56100000000001,243.855,0.271,-1.147,1703154406539999.0,1703154406542760,-1.628266181796789e-05,-0.0011101728305220604,0.0,243.855,0.271,-1.147
21,1606550000,2023-12-21,10:26:46.550,41.21406428,1.72478555,54.56100000000001,243.856,0.26899999999999996,-1.146,1703154406549999.0,1703154406552801,-1.628266181796789e-05,-0.0011101728305220604,0.0,243.856,0.26899999999999996,-1.146
22,1606560000,2023-12-21,10:26:46.560,41.21406428,1.72478555,54.56100000000001,243.856,0.27,-1.145,1703154406560000.0,1703154406562790,-1.628266181796789e-05,-0.0011101728305220604,0.0,243.856,0.27,-1.145
23,1606570000,2023-12-21,10:26:46.570,41.21406428,1.72478555,54.56100000000001,243.856,0.272,-1.146,1703154406570000.0,1703154406572819,-1.628266181796789e-05,-0.0011101728305220604,0.0,243.856,0.272,-1.146
24,1606580000,2023-12-21,10:26:46.580,41.21406428,1.72478555,54.56100000000001,243.857,0.271,-1.147,1703154406579999.0,1703154406582821,-1.628266181796789e-05,-0.0011101728305220604,0.0,243.857,0.271,-1.147
25,1606590000,2023-12-21,10:26:46.590,41.21406428,1.72478555,54.56100000000001,243.857,0.26899999999999996,-1.148,1703154406590000.0,1703154406592764,-1.628266181796789e-05,-0.0011101728305220604,0.0,243.857,0.26899999999999996,-1.148
26,1606600000,2023-12-21,10:26:46.600,41.21406428,1.72478554,54.56100000000001,243.857,0.27,-1.147,1703154406600000.0,1703154406602721,-0.0008545988821424544,-0.0010978784412145615,0.0,243.857,0.27,-1.147
27,1606610000,2023-12-21,10:26:46.610,41.21406428,1.72478554,54.56100000000001,243.857,0.275,-1.147,1703154406609999.0,1703154406612801,-0.0008545988821424544,-0.0010978784412145615,0.0,243.857,0.275,-1.147
28,1606620000,2023-12-21,10:26:46.620,41.21406428,1.72478555,54.56100000000001,243.857,0.275,-1.148,1703154406619999.0,1703154406622724,-1.628266181796789e-05,-0.0011101728305220604,0.0,243.857,0.275,-1.148
29,1606630000,2023-12-21,10:26:46.630,41.21406428,1.72478554,54.56100000000001,243.857,0.271,-1.149,1703154406630000.0,1703154406633109,-0.0008545988821424544,-0.0010978784412145615,0.0,243.857,0.271,-1.149
30,1606640000,2023-12-21,10:26:46.640,41.21406428,1.72478554,54.56100000000001,243.857,0.268,-1.148,1703154406640000.0,1703154406642710,-0.0008545988821424544,-0.0010978784412145615,0.0,243.857,0.268,-1.148
31,1606650000,2023-12-21,10:26:46.650,41.21406428,1.72478554,54.56100000000001,243.857,0.26899999999999996,-1.146,1703154406649999.0,1703154406652775,-0.0008545988821424544,-0.0010978784412145615,0.0,243.857,0.26899999999999996,-1.146
32,1606660000,2023-12-21,10:26:46.660,41.21406428,1.72478554,54.56100000000001,243.857,0.27,-1.146,1703154406659999.0,1703154406662762,-0.0008545988821424544,-0.0010978784412145615,0.0,243.857,0.27,-1.146
33,1606670000,2023-12-21,10:26:46.670,41.21406428,1.72478554,54.56100000000001,243.856,0.268,-1.148,1703154406670000.0,1703154406672790,-0.0008545988821424544,-0.0010978784412145615,0.0,243.856,0.268,-1.148
34,1606680000,2023-12-21,10:26:46.680,41.21406428,1.72478554,54.56100000000001,243.857,0.267,-1.146,1703154406679999.0,1703154406682741,-0.0008545988821424544,-0.0010978784412145615,0.0,243.857,0.267,-1.146
35,1606690000,2023-12-21,10:26:46.690,41.21406428,1.72478554,54.56100000000001,243.856,0.26899999999999996,-1.1440000000000001,1703154406689999.0,1703154406692724,-0.0008545988821424544,-0.0010978784412145615,0.0,243.856,0.26899999999999996,-1.1440000000000001
36,1606700000,2023-12-21,10:26:46.700,41.21406428,1.72478554,54.56100000000001,243.856,0.272,-1.1440000000000001,1703154406700000.0,1703154406702707,-0.0008545988821424544,-0.0010978784412145615,0.0,243.856,0.272,-1.1440000000000001
37,1606710000,2023-12-21,10:26:46.710,41.21406428,1.72478554,54.56100000000001,243.856,0.272,-1.1440000000000001,1703154406710000.0,1703154406712701,-0.0008545988821424544,-0.0010978784412145615,0.0,243.856,0.272,-1.1440000000000001
38,1606720000,2023-12-21,10:26:46.720,41.21406428,1.72478554,54.56100000000001,243.856,0.271,-1.1420000000000001,1703154406719999.0,1703154406722700,-0.0008545988821424544,-0.0010978784412145615,0.0,243.856,0.271,-1.1420000000000001
39,1606730000,2023-12-21,10:26:46.730,41.21406428,1.72478554,54.56100000000001,243.857,0.27,-1.141,1703154406729999.0,1703154406732694,-0.0008545988821424544,-0.0010978784412145615,0.0,243.857,0.27,-1.141
40,1606740000,2023-12-21,10:26:46.740,41.21406428,1.72478554,54.56100000000001,243.857,0.271,-1.14,1703154406740000.0,1703154406742674,-0.0008545988821424544,-0.0010978784412145615,0.0,243.857,0.271,-1.14
41,1606750000,2023-12-21,10:26:46.750,41.21406428,1.72478554,54.56100000000001,243.858,0.268,-1.14,1703154406750000.0,1703154406752566,-0.0008545988821424544,-0.0010978784412145615,0.0,243.858,0.268,-1.14
42,1606760000,2023-12-21,10:26:46.760,41.21406428,1.72478554,54.56,243.858,0.263,-1.139,1703154406759999.0,1703154406762758,-0.0008545988821424544,-0.0010978784412145615,-0.0010000000000047748,243.858,0.263,-1.139
43,1606770000,2023-12-21,10:26:46.770,41.21406428,1.72478554,54.56100000000001,243.857,0.263,-1.138,1703154406770000.0,1703154406772738,-0.0008545988821424544,-0.0010978784412145615,0.0,243.857,0.263,-1.138
44,1606780000,2023-12-21,10:26:46.780,41.21406428,1.72478554,54.56100000000001,243.858,0.267,-1.137,1703154406780000.0,1703154406782881,-0.0008545988821424544,-0.0010978784412145615,0.0,243.858,0.267,-1.137
45,1606790000,2023-12-21,10:26:46.790,41.21406428,1.72478554,54.56100000000001,243.858,0.27,-1.138,1703154406789999.0,1703154406792899,-0.0008545988821424544,-0.0010978784412145615,0.0,243.858,0.27,-1.138
46,1606800000,2023-12-21,10:26:46.800,41.21406428,1.72478554,54.56,243.857,0.267,-1.139,1703154406799999.0,1703154406802768,-0.0008545988821424544,-0.0010978784412145615,-0.0010000000000047748,243.857,0.267,-1.139
47,1606810000,2023-12-21,10:26:46.810,41.21406428,1.72478554,54.56100000000001,243.857,0.266,-1.139,1703154406810000.0,1703154406812703,-0.0008545988821424544,-0.0010978784412145615,0.0,243.857,0.266,-1.139
48,1606820000,2023-12-21,10:26:46.820,41.21406428,1.72478554,54.56100000000001,243.857,0.267,-1.138,1703154406820000.0,1703154406822971,-0.0008545988821424544,-0.0010978784412145615,0.0,243.857,0.267,-1.138
49,1606830000,2023-12-21,10:26:46.830,41.21406428,1.72478554,54.56100000000001,243.858,0.26899999999999996,-1.138,1703154406829999.0,1703154406832709,-0.0008545988821424544,-0.0010978784412145615,0.0,243.858,0.26899999999999996,-1.138
50,1606840000,2023-12-21,10:26:46.840,41.21406428,1.72478554,54.56100000000001,243.857,0.267,-1.14,1703154406840000.0,1703154406842663,-0.0008545988821424544,-0.0010978784412145615,0.0,243.857,0.267,-1.14
51,1606850000,2023-12-21,10:26:46.850,41.21406428,1.72478554,54.56100000000001,243.857,0.263,-1.139,1703154406850000.0,1703154406852641,-0.0008545988821424544,-0.0010978784412145615,0.0,243.857,0.263,-1.139
52,1606860000,2023-12-21,10:26:46.860,41.21406428,1.72478554,54.56100000000001,243.856,0.263,-1.138,1703154406859999.0,1703154406862634,-0.0008545988821424544,-0.0010978784412145615,0.0,243.856,0.263,-1.138
53,1606870000,2023-12-21,10:26:46.870,41.21406428,1.72478553,54.56100000000001,243.856,0.264,-1.138,1703154406869999.0,1703154406872630,-0.0016929151024669409,-0.0010855840519070625,0.0,243.856,0.264,-1.138
54,1606880000,2023-12-21,10:26:46.880,41.21406428,1.72478553,54.56100000000001,243.856,0.265,-1.138,1703154406880000.0,1703154406882628,-0.0016929151024669409,-0.0010855840519070625,0.0,243.856,0.265,-1.138
55,1606890000,2023-12-21,10:26:46.890,41.21406428,1.72478553,54.56100000000001,243.856,0.265,-1.138,1703154406890000.0,1703154406892629,-0.0016929151024669409,-0.0010855840519070625,0.0,243.856,0.265,-1.138
56,1606900000,2023-12-21,10:26:46.900,41.21406428,1.72478553,54.56100000000001,243.856,0.267,-1.138,1703154406899999.0,1703154406902638,-0.0016929151024669409,-0.0010855840519070625,0.0,243.856,0.267,-1.138
57,1606910000,2023-12-21,10:26:46.910,41.21406428,1.72478553,54.56100000000001,243.856,0.27,-1.138,1703154406909999.0,1703154406912638,-0.0016929151024669409,-0.0010855840519070625,0.0,243.856,0.27,-1.138
58,1606920000,2023-12-21,10:26:46.920,41.21406428,1.72478553,54.56100000000001,243.857,0.26899999999999996,-1.138,1703154406920000.0,1703154406922842,-0.0016929151024669409,-0.0010855840519070625,0.0,243.857,0.26899999999999996,-1.138
59,1606930000,2023-12-21,10:26:46.930,41.21406428,1.72478553,54.56100000000001,243.857,0.264,-1.138,1703154406929999.0,1703154406932737,-0.0016929151024669409,-0.0010855840519070625,0.0,243.857,0.264,-1.138
60,1606940000,2023-12-21,10:26:46.940,41.21406428,1.72478553,54.56100000000001,243.857,0.263,-1.137,1703154406939999.0,1703154406942693,-0.0016929151024669409,-0.0010855840519070625,0.0,243.857,0.263,-1.137
61,1606950000,2023-12-21,10:26:46.950,41.21406428,1.72478553,54.56100000000001,243.857,0.267,-1.138,1703154406950000.0,1703154406952720,-0.0016929151024669409,-0.0010855840519070625,0.0,243.857,0.267,-1.138
62,1606960000,2023-12-21,10:26:46.960,41.21406427,1.72478553,54.56100000000001,243.857,0.27,-1.139,1703154406960000.0,1703154406962694,-0.0017091978224925697,-0.002195756882429123,0.0,243.857,0.27,-1.139
63,1606970000,2023-12-21,10:26:46.970,41.21406427,1.72478553,54.56100000000001,243.857,0.268,-1.141,1703154406969999.0,1703154406972680,-0.0017091978224925697,-0.002195756882429123,0.0,243.857,0.268,-1.141
64,1606980000,2023-12-21,10:26:46.980,41.21406427,1.72478553,54.56100000000001,243.858,0.266,-1.141,1703154406979999.0,1703154406982682,-0.0017091978224925697,-0.002195756882429123,0.0,243.858,0.266,-1.141
65,1606990000,2023-12-21,10:26:46.990,41.21406427,1.72478553,54.56100000000001,243.858,0.268,-1.1420000000000001,1703154406990000.0,1703154406992676,-0.0017091978224925697,-0.002195756882429123,0.0,243.858,0.268,-1.1420000000000001
66,1607000000,2023-12-21,10:26:47.000,41.21406427,1.72478553,54.56100000000001,243.858,0.271,-1.143,1703154407000000.0,1703154407002828,-0.0017091978224925697,-0.002195756882429123,0.0,243.858,0.271,-1.143
67,1607010000,2023-12-21,10:26:47.010,41.21406427,1.72478553,54.56100000000001,243.858,0.27,-1.1440000000000001,1703154407009999.0,1703154407013808,-0.0017091978224925697,-0.002195756882429123,0.0,243.858,0.27,-1.1440000000000001
68,1607020000,2023-12-21,10:26:47.020,41.21406427,1.72478553,54.56100000000001,243.857,0.267,-1.145,1703154407020000.0,1703154407022775,-0.0017091978224925697,-0.002195756882429123,0.0,243.857,0.267,-1.145
69,1607030000,2023-12-21,10:26:47.030,41.21406427,1.72478553,54.56100000000001,243.857,0.268,-1.145,1703154407030000.0,1703154407032777,-0.0017091978224925697,-0.002195756882429123,0.0,243.857,0.268,-1.145
70,1607040000,2023-12-21,10:26:47.040,41.21406427,1.72478553,54.56100000000001,243.858,0.26899999999999996,-1.145,1703154407039999.0,1703154407042658,-0.0017091978224925697,-0.002195756882429123,0.0,243.858,0.26899999999999996,-1.145
71,1607050000,2023-12-21,10:26:47.050,41.21406427,1.72478553,54.56100000000001,243.858,0.267,-1.146,1703154407049999.0,1703154407052695,-0.0017091978224925697,-0.002195756882429123,0.0,243.858,0.267,-1.146
72,1607060000,2023-12-21,10:26:47.060,41.21406427,1.72478553,54.56100000000001,243.858,0.265,-1.145,1703154407060000.0,1703154407062852,-0.0017091978224925697,-0.002195756882429123,0.0,243.858,0.265,-1.145
73,1607070000,2023-12-21,10:26:47.070,41.21406427,1.72478553,54.56100000000001,243.858,0.264,-1.145,1703154407070000.0,1703154407072830,-0.0017091978224925697,-0.002195756882429123,0.0,243.858,0.264,-1.145
74,1607080000,2023-12-21,10:26:47.080,41.21406427,1.72478553,54.56100000000001,243.857,0.268,-1.145,1703154407079999.0,1703154407082845,-0.0017091978224925697,-0.002195756882429123,0.0,243.857,0.268,-1.145
75,1607090000,2023-12-21,10:26:47.090,41.21406427,1.72478553,54.56100000000001,243.857,0.26899999999999996,-1.145,1703154407090000.0,1703154407092657,-0.0017091978224925697,-0.002195756882429123,0.0,243.857,0.26899999999999996,-1.145
76,1607100000,2023-12-21,10:26:47.100,41.21406427,1.72478553,54.56100000000001,243.857,0.266,-1.145,1703154407100000.0,1703154407102773,-0.0017091978224925697,-0.002195756882429123,0.0,243.857,0.266,-1.145
77,1607110000,2023-12-21,10:26:47.110,41.21406427,1.72478553,54.56100000000001,243.858,0.265,-1.143,1703154407109999.0,1703154407112815,-0.0017091978224925697,-0.002195756882429123,0.0,243.858,0.265,-1.143
78,1607120000,2023-12-21,10:26:47.120,41.21406427,1.72478553,54.56100000000001,243.857,0.266,-1.141,1703154407119999.0,1703154407122743,-0.0017091978224925697,-0.002195756882429123,0.0,243.857,0.266,-1.141
79,1607130000,2023-12-21,10:26:47.130,41.21406427,1.72478553,54.56100000000001,243.858,0.26899999999999996,-1.14,1703154407130000.0,1703154407132677,-0.0017091978224925697,-0.002195756882429123,0.0,243.858,0.26899999999999996,-1.14
80,1607140000,2023-12-21,10:26:47.140,41.21406427,1.72478552,54.56100000000001,243.858,0.266,-1.141,1703154407140000.0,1703154407142683,-0.002547514042817056,-0.0021834615617990494,0.0,243.858,0.266,-1.141
81,1607150000,2023-12-21,10:26:47.150,41.21406427,1.72478552,54.56100000000001,243.858,0.263,-1.139,1703154407149999.0,1703154407152688,-0.002547514042817056,-0.0021834615617990494,0.0,243.858,0.263,-1.139
82,1607160000,2023-12-21,10:26:47.160,41.21406427,1.72478553,54.56100000000001,243.858,0.263,-1.138,1703154407159999.0,1703154407162781,-0.0017091978224925697,-0.002195756882429123,0.0,243.858,0.263,-1.138
83,1607170000,2023-12-21,10:26:47.170,41.21406427,1.72478552,54.56100000000001,243.858,0.266,-1.137,1703154407170000.0,1703154407172778,-0.002547514042817056,-0.0021834615617990494,0.0,243.858,0.266,-1.137
84,1607180000,2023-12-21,10:26:47.180,41.21406427,1.72478552,54.56100000000001,243.858,0.267,-1.138,1703154407179999.0,1703154407182731,-0.002547514042817056,-0.0021834615617990494,0.0,243.858,0.267,-1.138
85,1607190000,2023-12-21,10:26:47.190,41.21406428,1.72478552,54.56100000000001,243.857,0.265,-1.138,1703154407189999.0,1703154407192766,-0.0025312313227914274,-0.0010732877999544144,0.0,243.857,0.265,-1.138
86,1607200000,2023-12-21,10:26:47.200,41.21406428,1.72478552,54.56100000000001,243.857,0.265,-1.138,1703154407200000.0,1703154407202692,-0.0025312313227914274,-0.0010732877999544144,0.0,243.857,0.265,-1.138
87,1607210000,2023-12-21,10:26:47.210,41.21406428,1.72478552,54.56100000000001,243.857,0.268,-1.137,1703154407210000.0,1703154407212704,-0.0025312313227914274,-0.0010732877999544144,0.0,243.857,0.268,-1.137
88,1607220000,2023-12-21,10:26:47.220,41.21406428,1.72478552,54.56100000000001,243.856,0.26899999999999996,-1.138,1703154407219999.0,1703154407222693,-0.0025312313227914274,-0.0010732877999544144,0.0,243.856,0.26899999999999996,-1.138
89,1607230000,2023-12-21,10:26:47.230,41.21406428,1.72478552,54.56100000000001,243.857,0.266,-1.138,1703154407229999.0,1703154407232677,-0.0025312313227914274,-0.0010732877999544144,0.0,243.857,0.266,-1.138
90,1607240000,2023-12-21,10:26:47.240,41.21406428,1.72478552,54.56100000000001,243.856,0.265,-1.137,1703154407240000.0,1703154407242685,-0.0025312313227914274,-0.0010732877999544144,0.0,243.856,0.265,-1.137
91,1607250000,2023-12-21,10:26:47.250,41.21406428,1.72478552,54.56100000000001,243.856,0.267,-1.136,1703154407250000.0,1703154407252659,-0.0025312313227914274,-0.0010732877999544144,0.0,243.856,0.267,-1.136
92,1607260000,2023-12-21,10:26:47.260,41.21406428,1.72478552,54.56100000000001,243.856,0.268,-1.136,1703154407259999.0,1703154407262676,-0.0025312313227914274,-0.0010732877999544144,0.0,243.856,0.268,-1.136
93,1607270000,2023-12-21,10:26:47.270,41.21406428,1.72478552,54.56100000000001,243.856,0.266,-1.137,1703154407270000.0,1703154407272799,-0.0025312313227914274,-0.0010732877999544144,0.0,243.856,0.266,-1.137
94,1607280000,2023-12-21,10:26:47.280,41.21406428,1.72478552,54.56100000000001,243.857,0.263,-1.137,1703154407280000.0,1703154407282789,-0.0025312313227914274,-0.0010732877999544144,0.0,243.857,0.263,-1.137
95,1607290000,2023-12-21,10:26:47.290,41.21406428,1.72478552,54.56100000000001,243.856,0.265,-1.136,1703154407289999.0,1703154407292817,-0.0025312313227914274,-0.0010732877999544144,0.0,243.856,0.265,-1.136
96,1607300000,2023-12-21,10:26:47.300,41.21406428,1.72478552,54.56100000000001,243.857,0.26899999999999996,-1.135,1703154407299999.0,1703154407302977,-0.0025312313227914274,-0.0010732877999544144,0.0,243.857,0.26899999999999996,-1.135
97,1607310000,2023-12-21,10:26:47.310,41.21406428,1.72478552,54.56100000000001,243.857,0.27,-1.135,1703154407310000.0,1703154407312821,-0.0025312313227914274,-0.0010732877999544144,0.0,243.857,0.27,-1.135
98,1607320000,2023-12-21,10:26:47.320,41.21406428,1.72478552,54.56100000000001,243.857,0.268,-1.1340000000000001,1703154407320000.0,1703154407322947,-0.0025312313227914274,-0.0010732877999544144,0.0,243.857,0.268,-1.1340000000000001
99,1607330000,2023-12-21,10:26:47.330,41.21406428,1.72478552,54.56100000000001,243.856,0.267,-1.1340000000000001,1703154407329999.0,1703154407332888,-0.0025312313227914274,-0.0010732877999544144,0.0,243.856,0.267,-1.1340000000000001
100,1607340000,2023-12-21,10:26:47.340,41.21406428,1.72478552,54.56100000000001,243.857,0.26899999999999996,-1.135,1703154407340000.0,1703154407342729,-0.0025312313227914274,-0.0010732877999544144,0.0,243.857,0.26899999999999996,-1.135
101,1607350000,2023-12-21,10:26:47.350,41.21406428,1.72478551,54.56100000000001,243.857,0.271,-1.136,1703154407350000.0,1703154407352672,-0.0033695476013235748,-0.0010609924793243408,0.0,243.857,0.271,-1.136
102,1607360000,2023-12-21,10:26:47.360,41.21406428,1.72478552,54.56100000000001,243.857,0.26899999999999996,-1.136,1703154407359999.0,1703154407362838,-0.0025312313227914274,-0.0010732877999544144,0.0,243.857,0.26899999999999996,-1.136
103,1607370000,2023-12-21,10:26:47.370,41.21406428,1.72478551,54.56100000000001,243.857,0.267,-1.137,1703154407369999.0,1703154407372736,-0.0033695476013235748,-0.0010609924793243408,0.0,243.857,0.267,-1.137
104,1607380000,2023-12-21,10:26:47.380,41.21406428,1.72478551,54.56100000000001,243.857,0.26899999999999996,-1.137,1703154407380000.0,1703154407382732,-0.0033695476013235748,-0.0010609924793243408,0.0,243.857,0.26899999999999996,-1.137
105,1607390000,2023-12-21,10:26:47.390,41.21406428,1.72478551,54.56100000000001,243.857,0.272,-1.138,1703154407390000.0,1703154407392727,-0.0033695476013235748,-0.0010609924793243408,0.0,243.857,0.272,-1.138
106,1607400000,2023-12-21,10:26:47.400,41.21406428,1.72478551,54.56100000000001,243.856,0.273,-1.139,1703154407399999.0,1703154407402756,-0.0033695476013235748,-0.0010609924793243408,0.0,243.856,0.273,-1.139
107,1607410000,2023-12-21,10:26:47.410,41.21406428,1.72478551,54.56100000000001,243.857,0.272,-1.141,1703154407409999.0,1703154407412710,-0.0033695476013235748,-0.0010609924793243408,0.0,243.857,0.272,-1.141
108,1607420000,2023-12-21,10:26:47.420,41.21406428,1.72478551,54.56100000000001,243.857,0.273,-1.14,1703154407420000.0,1703154407422739,-0.0033695476013235748,-0.0010609924793243408,0.0,243.857,0.273,-1.14
109,1607430000,2023-12-21,10:26:47.430,41.21406428,1.72478551,54.56100000000001,243.857,0.275,-1.14,1703154407429999.0,1703154407432687,-0.0033695476013235748,-0.0010609924793243408,0.0,243.857,0.275,-1.14
110,1607440000,2023-12-21,10:26:47.440,41.21406428,1.72478551,54.56100000000001,243.856,0.272,-1.141,1703154407439999.0,1703154407442690,-0.0033695476013235748,-0.0010609924793243408,0.0,243.856,0.272,-1.141
111,1607450000,2023-12-21,10:26:47.450,41.21406428,1.72478551,54.56100000000001,243.856,0.267,-1.1420000000000001,1703154407450000.0,1703154407452714,-0.0033695476013235748,-0.0010609924793243408,0.0,243.856,0.267,-1.1420000000000001
112,1607460000,2023-12-21,10:26:47.460,41.21406428,1.72478551,54.56100000000001,243.856,0.266,-1.141,1703154407460000.0,1703154407462676,-0.0033695476013235748,-0.0010609924793243408,0.0,243.856,0.266,-1.141
113,1607470000,2023-12-21,10:26:47.470,41.21406428,1.72478551,54.56100000000001,243.856,0.27,-1.1420000000000001,1703154407469999.0,1703154407472681,-0.0033695476013235748,-0.0010609924793243408,0.0,243.856,0.27,-1.1420000000000001
114,1607480000,2023-12-21,10:26:47.480,41.21406428,1.72478551,54.56100000000001,243.855,0.27399999999999997,-1.1420000000000001,1703154407479999.0,1703154407482692,-0.0033695476013235748,-0.0010609924793243408,0.0,243.855,0.27399999999999997,-1.1420000000000001
115,1607490000,2023-12-21,10:26:47.490,41.21406428,1.72478551,54.56100000000001,243.855,0.27399999999999997,-1.1420000000000001,1703154407490000.0,1703154407492687,-0.0033695476013235748,-0.0010609924793243408,0.0,243.855,0.27399999999999997,-1.1420000000000001
116,1607500000,2023-12-21,10:26:47.500,41.21406428,1.72478551,54.56100000000001,243.855,0.272,-1.1420000000000001,1703154407500000.0,1703154407502679,-0.0033695476013235748,-0.0010609924793243408,0.0,243.855,0.272,-1.1420000000000001
117,1607510000,2023-12-21,10:26:47.510,41.21406428,1.72478551,54.56100000000001,243.855,0.273,-1.141,1703154407509999.0,1703154407512710,-0.0033695476013235748,-0.0010609924793243408,0.0,243.855,0.273,-1.141
118,1607520000,2023-12-21,10:26:47.520,41.21406428,1.72478551,54.56100000000001,243.855,0.27699999999999997,-1.141,1703154407520000.0,1703154407522732,-0.0033695476013235748,-0.0010609924793243408,0.0,243.855,0.27699999999999997,-1.141
119,1607530000,2023-12-21,10:26:47.530,41.21406428,1.72478551,54.56100000000001,243.855,0.276,-1.14,1703154407530000.0,1703154407532786,-0.0033695476013235748,-0.0010609924793243408,0.0,243.855,0.276,-1.14
120,1607540000,2023-12-21,10:26:47.540,41.21406428,1.72478551,54.56100000000001,243.855,0.272,-1.138,1703154407539999.0,1703154407542929,-0.0033695476013235748,-0.0010609924793243408,0.0,243.855,0.272,-1.138
121,1607550000,2023-12-21,10:26:47.550,41.21406428,1.72478551,54.56100000000001,243.855,0.27,-1.138,1703154407549999.0,1703154407552851,-0.0033695476013235748,-0.0010609924793243408,0.0,243.855,0.27,-1.138
122,1607560000,2023-12-21,10:26:47.560,41.21406428,1.7247855,54.56100000000001,243.855,0.271,-1.136,1703154407560000.0,1703154407562699,-0.004207863821648061,-0.0010486971586942673,0.0,243.855,0.271,-1.136
123,1607570000,2023-12-21,10:26:47.570,41.21406428,1.7247855,54.56100000000001,243.855,0.273,-1.136,1703154407570000.0,1703154407572686,-0.004207863821648061,-0.0010486971586942673,0.0,243.855,0.273,-1.136
124,1607580000,2023-12-21,10:26:47.580,41.21406428,1.7247855,54.56100000000001,243.855,0.272,-1.136,1703154407579999.0,1703154407582808,-0.004207863821648061,-0.0010486971586942673,0.0,243.855,0.272,-1.136
125,1607590000,2023-12-21,10:26:47.590,41.21406429,1.7247855,54.56100000000001,243.855,0.273,-1.136,1703154407590000.0,1703154407592814,-0.0041915811016224325,6.147567182779312e-05,0.0,243.855,0.273,-1.136
126,1607600000,2023-12-21,10:26:47.600,41.21406429,1.7247855,54.56100000000001,243.855,0.276,-1.136,1703154407600000.0,1703154407602816,-0.0041915811016224325,6.147567182779312e-05,0.0,243.855,0.276,-1.136
127,1607610000,2023-12-21,10:26:47.610,41.21406429,1.7247855,54.56100000000001,243.855,0.278,-1.137,1703154407609999.0,1703154407612738,-0.0041915811016224325,6.147567182779312e-05,0.0,243.855,0.278,-1.137
128,1607620000,2023-12-21,10:26:47.620,41.21406429,1.7247855,54.56100000000001,243.855,0.275,-1.138,1703154407619999.0,1703154407622799,-0.0041915811016224325,6.147567182779312e-05,0.0,243.855,0.275,-1.138
129,1607630000,2023-12-21,10:26:47.630,41.21406429,1.7247855,54.56100000000001,243.856,0.272,-1.138,1703154407630000.0,1703154407632954,-0.0041915811016224325,6.147567182779312e-05,0.0,243.856,0.272,-1.138
130,1607640000,2023-12-21,10:26:47.640,41.21406429,1.7247855,54.56100000000001,243.855,0.273,-1.137,1703154407640000.0,1703154407642777,-0.0041915811016224325,6.147567182779312e-05,0.0,243.855,0.273,-1.137
131,1607650000,2023-12-21,10:26:47.650,41.21406429,1.7247855,54.56100000000001,243.855,0.275,-1.137,1703154407649999.0,1703154407652707,-0.0041915811016224325,6.147567182779312e-05,0.0,243.855,0.275,-1.137
132,1607660000,2023-12-21,10:26:47.660,41.21406429,1.7247855,54.56100000000001,243.856,0.27399999999999997,-1.137,1703154407659999.0,1703154407662736,-0.0041915811016224325,6.147567182779312e-05,0.0,243.856,0.27399999999999997,-1.137
133,1607670000,2023-12-21,10:26:47.670,41.21406429,1.7247855,54.56100000000001,243.856,0.272,-1.137,1703154407670000.0,1703154407672877,-0.0041915811016224325,6.147567182779312e-05,0.0,243.856,0.272,-1.137
134,1607680000,2023-12-21,10:26:47.680,41.21406429,1.7247855,54.56100000000001,243.855,0.273,-1.137,1703154407679999.0,1703154407682709,-0.0041915811016224325,6.147567182779312e-05,0.0,243.855,0.273,-1.137
135,1607690000,2023-12-21,10:26:47.690,41.21406429,1.7247855,54.56100000000001,243.856,0.276,-1.137,1703154407689999.0,1703154407692750,-0.0041915811016224325,6.147567182779312e-05,0.0,243.856,0.276,-1.137
136,1607700000,2023-12-21,10:26:47.700,41.21406429,1.7247855,54.56100000000001,243.856,0.278,-1.136,1703154407700000.0,1703154407702677,-0.0041915811016224325,6.147567182779312e-05,0.0,243.856,0.278,-1.136
137,1607710000,2023-12-21,10:26:47.710,41.21406429,1.7247855,54.56100000000001,243.856,0.276,-1.136,1703154407710000.0,1703154407712703,-0.0041915811016224325,6.147567182779312e-05,0.0,243.856,0.276,-1.136
138,1607720000,2023-12-21,10:26:47.720,41.21406429,1.7247855,54.56100000000001,243.857,0.273,-1.136,1703154407719999.0,1703154407722700,-0.0041915811016224325,6.147567182779312e-05,0.0,243.857,0.273,-1.136
139,1607730000,2023-12-21,10:26:47.730,41.21406429,1.7247855,54.56100000000001,243.857,0.273,-1.135,1703154407729999.0,1703154407732671,-0.0041915811016224325,6.147567182779312e-05,0.0,243.857,0.273,-1.135
140,1607740000,2023-12-21,10:26:47.740,41.21406429,1.7247855,54.56100000000001,243.856,0.27399999999999997,-1.1340000000000001,1703154407740000.0,1703154407742691,-0.0041915811016224325,6.147567182779312e-05,0.0,243.856,0.27399999999999997,-1.1340000000000001
141,1607750000,2023-12-21,10:26:47.750,41.21406429,1.7247855,54.56100000000001,243.857,0.273,-1.1340000000000001,1703154407750000.0,1703154407752817,-0.0041915811016224325,6.147567182779312e-05,0.0,243.857,0.273,-1.1340000000000001
142,1607760000,2023-12-21,10:26:47.760,41.21406429,1.7247855,54.56100000000001,243.857,0.272,-1.1340000000000001,1703154407759999.0,1703154407762751,-0.0041915811016224325,6.147567182779312e-05,0.0,243.857,0.272,-1.1340000000000001
143,1607770000,2023-12-21,10:26:47.770,41.21406429,1.72478549,54.56100000000001,243.857,0.272,-1.135,1703154407770000.0,1703154407772743,-0.00502989738015458,7.377192378044128e-05,0.0,243.857,0.272,-1.135
144,1607780000,2023-12-21,10:26:47.780,41.21406429,1.72478549,54.56100000000001,243.857,0.276,-1.135,1703154407780000.0,1703154407782872,-0.00502989738015458,7.377192378044128e-05,0.0,243.857,0.276,-1.135
145,1607790000,2023-12-21,10:26:47.790,41.21406429,1.72478549,54.56100000000001,243.857,0.275,-1.136,1703154407789999.0,1703154407792828,-0.00502989738015458,7.377192378044128e-05,0.0,243.857,0.275,-1.136
146,1607800000,2023-12-21,10:26:47.800,41.21406429,1.72478549,54.56100000000001,243.857,0.273,-1.136,1703154407799999.0,1703154407802932,-0.00502989738015458,7.377192378044128e-05,0.0,243.857,0.273,-1.136
147,1607810000,2023-12-21,10:26:47.810,41.21406429,1.72478549,54.56100000000001,243.857,0.273,-1.136,1703154407810000.0,1703154407812780,-0.00502989738015458,7.377192378044128e-05,0.0,243.857,0.273,-1.136
148,1607820000,2023-12-21,10:26:47.820,41.21406429,1.72478549,54.56100000000001,243.856,0.276,-1.135,1703154407820000.0,1703154407822994,-0.00502989738015458,7.377192378044128e-05,0.0,243.856,0.276,-1.135
149,1607830000,2023-12-21,10:26:47.830,41.21406429,1.72478549,54.562,243.856,0.276,-1.136,1703154407829999.0,1703154407832828,-0.00502989738015458,7.377192378044128e-05,0.000999999999990564,243.856,0.276,-1.136
150,1607840000,2023-12-21,10:26:47.840,41.21406429,1.72478549,54.562,243.857,0.272,-1.137,1703154407840000.0,1703154407842823,-0.00502989738015458,7.377192378044128e-05,0.000999999999990564,243.857,0.272,-1.137
151,1607850000,2023-12-21,10:26:47.850,41.21406429,1.72478549,54.562,243.857,0.26899999999999996,-1.137,1703154407850000.0,1703154407852802,-0.00502989738015458,7.377192378044128e-05,0.000999999999990564,243.857,0.26899999999999996,-1.137
152,1607860000,2023-12-21,10:26:47.860,41.21406429,1.72478549,54.562,243.856,0.271,-1.137,1703154407859999.0,1703154407862764,-0.00502989738015458,7.377192378044128e-05,0.000999999999990564,243.856,0.271,-1.137
153,1607870000,2023-12-21,10:26:47.870,41.21406429,1.72478549,54.562,243.856,0.273,-1.136,1703154407869999.0,1703154407872748,-0.00502989738015458,7.377192378044128e-05,0.000999999999990564,243.856,0.273,-1.136
154,1607880000,2023-12-21,10:26:47.880,41.2140643,1.72478549,54.562,243.856,0.271,-1.137,1703154407880000.0,1703154407882697,-0.005013614718336612,0.0011839428916573524,0.000999999999990564,243.856,0.271,-1.137
155,1607890000,2023-12-21,10:26:47.890,41.2140643,1.72478549,54.562,243.857,0.26899999999999996,-1.137,1703154407890000.0,1703154407892725,-0.005013614718336612,0.0011839428916573524,0.000999999999990564,243.857,0.26899999999999996,-1.137
156,1607900000,2023-12-21,10:26:47.900,41.2140643,1.72478549,54.562,243.856,0.271,-1.137,1703154407899999.0,1703154407902730,-0.005013614718336612,0.0011839428916573524,0.000999999999990564,243.856,0.271,-1.137
157,1607910000,2023-12-21,10:26:47.910,41.2140643,1.72478549,54.562,243.857,0.275,-1.137,1703154407909999.0,1703154407912735,-0.005013614718336612,0.0011839428916573524,0.000999999999990564,243.857,0.275,-1.137
158,1607920000,2023-12-21,10:26:47.920,41.2140643,1.72478549,54.562,243.857,0.275,-1.138,1703154407920000.0,1703154407922717,-0.005013614718336612,0.0011839428916573524,0.000999999999990564,243.857,0.275,-1.138
159,1607930000,2023-12-21,10:26:47.930,41.2140643,1.72478549,54.562,243.858,0.273,-1.138,1703154407929999.0,1703154407932718,-0.005013614718336612,0.0011839428916573524,0.000999999999990564,243.858,0.273,-1.138
160,1607940000,2023-12-21,10:26:47.940,41.2140643,1.72478549,54.562,243.858,0.27399999999999997,-1.138,1703154407939999.0,1703154407942733,-0.005013614718336612,0.0011839428916573524,0.000999999999990564,243.858,0.27399999999999997,-1.138
161,1607950000,2023-12-21,10:26:47.950,41.2140643,1.72478548,54.562,243.857,0.276,-1.138,1703154407950000.0,1703154407952706,-0.0058519309386610985,0.0011962391436100006,0.000999999999990564,243.857,0.276,-1.138
162,1607960000,2023-12-21,10:26:47.960,41.2140643,1.72478548,54.562,243.858,0.27399999999999997,-1.138,1703154407960000.0,1703154407962716,-0.0058519309386610985,0.0011962391436100006,0.000999999999990564,243.858,0.27399999999999997,-1.138
163,1607970000,2023-12-21,10:26:47.970,41.2140643,1.72478548,54.562,243.858,0.271,-1.139,1703154407969999.0,1703154407972678,-0.0058519309386610985,0.0011962391436100006,0.000999999999990564,243.858,0.271,-1.139
164,1607980000,2023-12-21,10:26:47.980,41.2140643,1.72478548,54.562,243.858,0.271,-1.139,1703154407979999.0,1703154407982694,-0.0058519309386610985,0.0011962391436100006,0.000999999999990564,243.858,0.271,-1.139
165,1607990000,2023-12-21,10:26:47.990,41.2140643,1.72478548,54.562,243.858,0.275,-1.138,1703154407990000.0,1703154407992704,-0.0058519309386610985,0.0011962391436100006,0.000999999999990564,243.858,0.275,-1.138
166,1608000000,2023-12-21,10:26:48.000,41.2140643,1.72478548,54.562,243.858,0.27699999999999997,-1.138,1703154408000000.0,1703154408002670,-0.0058519309386610985,0.0011962391436100006,0.000999999999990564,243.858,0.27699999999999997,-1.138
167,1608010000,2023-12-21,10:26:48.010,41.2140643,1.72478548,54.562,243.858,0.275,-1.139,1703154408009999.0,1703154408013822,-0.0058519309386610985,0.0011962391436100006,0.000999999999990564,243.858,0.275,-1.139
168,1608020000,2023-12-21,10:26:48.020,41.2140643,1.72478548,54.562,243.859,0.273,-1.138,1703154408020000.0,1703154408022892,-0.0058519309386610985,0.0011962391436100006,0.000999999999990564,243.859,0.273,-1.138
169,1608030000,2023-12-21,10:26:48.030,41.2140643,1.72478548,54.562,243.858,0.275,-1.137,1703154408030000.0,1703154408032904,-0.0058519309386610985,0.0011962391436100006,0.000999999999990564,243.858,0.275,-1.137
170,1608040000,2023-12-21,10:26:48.040,41.2140643,1.72478548,54.562,243.858,0.273,-1.138,1703154408039999.0,1703154408042813,-0.0058519309386610985,0.0011962391436100006,0.000999999999990564,243.858,0.273,-1.138
171,1608050000,2023-12-21,10:26:48.050,41.2140643,1.72478548,54.562,243.858,0.27,-1.138,1703154408049999.0,1703154408052957,-0.0058519309386610985,0.0011962391436100006,0.000999999999990564,243.858,0.27,-1.138
172,1608060000,2023-12-21,10:26:48.060,41.2140643,1.72478548,54.562,243.858,0.266,-1.138,1703154408060000.0,1703154408062843,-0.0058519309386610985,0.0011962391436100006,0.000999999999990564,243.858,0.266,-1.138
173,1608070000,2023-12-21,10:26:48.070,41.2140643,1.72478547,54.562,243.857,0.268,-1.139,1703154408070000.0,1703154408072813,-0.006690247100777924,0.0012085335329174995,0.000999999999990564,243.857,0.268,-1.139
174,1608080000,2023-12-21,10:26:48.080,41.2140643,1.72478548,54.562,243.856,0.271,-1.14,1703154408079999.0,1703154408083013,-0.0058519309386610985,0.0011962391436100006,0.000999999999990564,243.856,0.271,-1.14
175,1608090000,2023-12-21,10:26:48.090,41.2140643,1.72478547,54.562,243.856,0.271,-1.14,1703154408090000.0,1703154408093035,-0.006690247100777924,0.0012085335329174995,0.000999999999990564,243.856,0.271,-1.14
176,1608100000,2023-12-21,10:26:48.100,41.2140643,1.72478547,54.562,243.857,0.27,-1.14,1703154408100000.0,1703154408102853,-0.006690247100777924,0.0012085335329174995,0.000999999999990564,243.857,0.27,-1.14
177,1608110000,2023-12-21,10:26:48.110,41.2140643,1.72478547,54.562,243.857,0.272,-1.139,1703154408109999.0,1703154408112790,-0.006690247100777924,0.0012085335329174995,0.000999999999990564,243.857,0.272,-1.139
178,1608120000,2023-12-21,10:26:48.120,41.2140643,1.72478547,54.562,243.857,0.275,-1.139,1703154408119999.0,1703154408122715,-0.006690247100777924,0.0012085335329174995,0.000999999999990564,243.857,0.275,-1.139
179,1608130000,2023-12-21,10:26:48.130,41.21406431,1.72478547,54.562,243.857,0.27399999999999997,-1.139,1703154408130000.0,1703154408132701,-0.006673964438959956,0.002318708226084709,0.000999999999990564,243.857,0.27399999999999997,-1.139
180,1608140000,2023-12-21,10:26:48.140,41.21406431,1.72478547,54.562,243.857,0.26899999999999996,-1.139,1703154408140000.0,1703154408142698,-0.006673964438959956,0.002318708226084709,0.000999999999990564,243.857,0.26899999999999996,-1.139
181,1608150000,2023-12-21,10:26:48.150,41.21406431,1.72478547,54.562,243.857,0.26899999999999996,-1.138,1703154408149999.0,1703154408152738,-0.006673964438959956,0.002318708226084709,0.000999999999990564,243.857,0.26899999999999996,-1.138
182,1608160000,2023-12-21,10:26:48.160,41.21406431,1.72478547,54.562,243.857,0.273,-1.138,1703154408159999.0,1703154408162710,-0.006673964438959956,0.002318708226084709,0.000999999999990564,243.857,0.273,-1.138
183,1608170000,2023-12-21,10:26:48.170,41.21406431,1.72478547,54.562,243.856,0.276,-1.139,1703154408170000.0,1703154408172715,-0.006673964438959956,0.002318708226084709,0.000999999999990564,243.856,0.276,-1.139
184,1608180000,2023-12-21,10:26:48.180,41.21406431,1.72478547,54.562,243.857,0.275,-1.139,1703154408179999.0,1703154408182738,-0.006673964438959956,0.002318708226084709,0.000999999999990564,243.857,0.275,-1.139
185,1608190000,2023-12-21,10:26:48.190,41.21406431,1.72478547,54.562,243.858,0.275,-1.139,1703154408189999.0,1703154408192697,-0.006673964438959956,0.002318708226084709,0.000999999999990564,243.858,0.275,-1.139
186,1608200000,2023-12-21,10:26:48.200,41.21406431,1.72478547,54.562,243.858,0.27899999999999997,-1.139,1703154408200000.0,1703154408202695,-0.006673964438959956,0.002318708226084709,0.000999999999990564,243.858,0.27899999999999997,-1.139
187,1608210000,2023-12-21,10:26:48.210,41.21406431,1.72478547,54.562,243.858,0.282,-1.139,1703154408210000.0,1703154408212684,-0.006673964438959956,0.002318708226084709,0.000999999999990564,243.858,0.282,-1.139
188,1608220000,2023-12-21,10:26:48.220,41.21406431,1.72478547,54.562,243.858,0.27899999999999997,-1.14,1703154408219999.0,1703154408222762,-0.006673964438959956,0.002318708226084709,0.000999999999990564,243.858,0.27899999999999997,-1.14
189,1608230000,2023-12-21,10:26:48.230,41.21406431,1.72478546,54.562,243.858,0.275,-1.14,1703154408229999.0,1703154408232672,-0.007512280717492104,0.002331002615392208,0.000999999999990564,243.858,0.275,-1.14
190,1608240000,2023-12-21,10:26:48.240,41.21406431,1.72478546,54.562,243.858,0.276,-1.141,1703154408240000.0,1703154408242656,-0.007512280717492104,0.002331002615392208,0.000999999999990564,243.858,0.276,-1.141
191,1608250000,2023-12-21,10:26:48.250,41.21406431,1.72478546,54.562,243.858,0.276,-1.141,1703154408250000.0,1703154408252706,-0.007512280717492104,0.002331002615392208,0.000999999999990564,243.858,0.276,-1.141
192,1608260000,2023-12-21,10:26:48.260,41.21406431,1.72478546,54.562,243.858,0.275,-1.1420000000000001,1703154408259999.0,1703154408262693,-0.007512280717492104,0.002331002615392208,0.000999999999990564,243.858,0.275,-1.1420000000000001
193,1608270000,2023-12-21,10:26:48.270,41.21406431,1.72478546,54.562,243.858,0.272,-1.1420000000000001,1703154408270000.0,1703154408272726,-0.007512280717492104,0.002331002615392208,0.000999999999990564,243.858,0.272,-1.1420000000000001
194,1608280000,2023-12-21,10:26:48.280,41.21406431,1.72478546,54.562,243.858,0.27399999999999997,-1.1420000000000001,1703154408280000.0,1703154408282774,-0.007512280717492104,0.002331002615392208,0.000999999999990564,243.858,0.27399999999999997,-1.1420000000000001
195,1608290000,2023-12-21,10:26:48.290,41.21406431,1.72478546,54.562,243.858,0.27699999999999997,-1.143,1703154408289999.0,1703154408292799,-0.007512280717492104,0.002331002615392208,0.000999999999990564,243.858,0.27699999999999997,-1.143
196,1608300000,2023-12-21,10:26:48.300,41.21406431,1.72478546,54.562,243.858,0.27699999999999997,-1.1440000000000001,1703154408299999.0,1703154408302680,-0.007512280717492104,0.002331002615392208,0.000999999999990564,243.858,0.27699999999999997,-1.1440000000000001
197,1608310000,2023-12-21,10:26:48.310,41.21406432,1.72478546,54.562,243.858,0.275,-1.1440000000000001,1703154408310000.0,1703154408312687,-0.007495997997466475,0.003441176377236843,0.000999999999990564,243.858,0.275,-1.1440000000000001
198,1608320000,2023-12-21,10:26:48.320,41.21406432,1.72478546,54.562,243.858,0.275,-1.143,1703154408320000.0,1703154408322681,-0.007495997997466475,0.003441176377236843,0.000999999999990564,243.858,0.275,-1.143
199,1608330000,2023-12-21,10:26:48.330,41.21406432,1.72478546,54.562,243.858,0.278,-1.143,1703154408329999.0,1703154408332694,-0.007495997997466475,0.003441176377236843,0.000999999999990564,243.858,0.278,-1.143
200,1608340000,2023-12-21,10:26:48.340,41.21406432,1.72478546,54.562,243.858,0.27899999999999997,-1.143,1703154408340000.0,1703154408342654,-0.007495997997466475,0.003441176377236843,0.000999999999990564,243.858,0.27899999999999997,-1.143
201,1608350000,2023-12-21,10:26:48.350,41.21406432,1.72478546,54.562,243.858,0.27399999999999997,-1.1420000000000001,1703154408350000.0,1703154408352535,-0.007495997997466475,0.003441176377236843,0.000999999999990564,243.858,0.27399999999999997,-1.1420000000000001
202,1608360000,2023-12-21,10:26:48.360,41.21406432,1.72478546,54.562,243.859,0.272,-1.1420000000000001,1703154408359999.0,1703154408362628,-0.007495997997466475,0.003441176377236843,0.000999999999990564,243.859,0.272,-1.1420000000000001
203,1608370000,2023-12-21,10:26:48.370,41.21406432,1.72478546,54.562,243.858,0.275,-1.1420000000000001,1703154408369999.0,1703154408372670,-0.007495997997466475,0.003441176377236843,0.000999999999990564,243.858,0.275,-1.1420000000000001
204,1608380000,2023-12-21,10:26:48.380,41.21406432,1.72478546,54.562,243.858,0.278,-1.1420000000000001,1703154408380000.0,1703154408382618,-0.007495997997466475,0.003441176377236843,0.000999999999990564,243.858,0.278,-1.1420000000000001
205,1608390000,2023-12-21,10:26:48.390,41.21406432,1.72478546,54.562,243.858,0.276,-1.1420000000000001,1703154408390000.0,1703154408392633,-0.007495997997466475,0.003441176377236843,0.000999999999990564,243.858,0.276,-1.1420000000000001
206,1608400000,2023-12-21,10:26:48.400,41.21406432,1.72478546,54.562,243.859,0.27399999999999997,-1.1420000000000001,1703154408399999.0,1703154408402813,-0.007495997997466475,0.003441176377236843,0.000999999999990564,243.859,0.27399999999999997,-1.1420000000000001
207,1608410000,2023-12-21,10:26:48.410,41.21406432,1.72478546,54.562,243.859,0.276,-1.1420000000000001,1703154408409999.0,1703154408412718,-0.007495997997466475,0.003441176377236843,0.000999999999990564,243.859,0.276,-1.1420000000000001
208,1608420000,2023-12-21,10:26:48.420,41.21406432,1.72478546,54.562,243.859,0.27899999999999997,-1.1420000000000001,1703154408420000.0,1703154408422714,-0.007495997997466475,0.003441176377236843,0.000999999999990564,243.859,0.27899999999999997,-1.1420000000000001
209,1608430000,2023-12-21,10:26:48.430,41.21406432,1.72478546,54.562,243.859,0.27699999999999997,-1.143,1703154408429999.0,1703154408432699,-0.007495997997466475,0.003441176377236843,0.000999999999990564,243.859,0.27699999999999997,-1.143
210,1608440000,2023-12-21,10:26:48.440,41.21406432,1.72478546,54.562,243.859,0.275,-1.143,1703154408439999.0,1703154408442682,-0.007495997997466475,0.003441176377236843,0.000999999999990564,243.859,0.275,-1.143
211,1608450000,2023-12-21,10:26:48.450,41.21406432,1.72478546,54.562,243.859,0.275,-1.1420000000000001,1703154408450000.0,1703154408452654,-0.007495997997466475,0.003441176377236843,0.000999999999990564,243.859,0.275,-1.1420000000000001
212,1608460000,2023-12-21,10:26:48.460,41.21406432,1.72478545,54.562,243.859,0.27699999999999997,-1.1420000000000001,1703154408460000.0,1703154408462667,-0.008334314275998622,0.0034534726291894913,0.000999999999990564,243.859,0.27699999999999997,-1.1420000000000001
213,1608470000,2023-12-21,10:26:48.470,41.21406432,1.72478545,54.562,243.859,0.276,-1.143,1703154408469999.0,1703154408472865,-0.008334314275998622,0.0034534726291894913,0.000999999999990564,243.859,0.276,-1.143
214,1608480000,2023-12-21,10:26:48.480,41.21406433,1.72478545,54.562,243.859,0.273,-1.1420000000000001,1703154408479999.0,1703154408482741,-0.008318031555972993,0.004563645459711552,0.000999999999990564,243.859,0.273,-1.1420000000000001
215,1608490000,2023-12-21,10:26:48.490,41.21406433,1.72478545,54.562,243.859,0.271,-1.14,1703154408490000.0,1703154408492729,-0.008318031555972993,0.004563645459711552,0.000999999999990564,243.859,0.271,-1.14
216,1608500000,2023-12-21,10:26:48.500,41.21406433,1.72478545,54.562,243.859,0.276,-1.14,1703154408500000.0,1703154408502722,-0.008318031555972993,0.004563645459711552,0.000999999999990564,243.859,0.276,-1.14
217,1608510000,2023-12-21,10:26:48.510,41.21406433,1.72478545,54.562,243.859,0.278,-1.14,1703154408509999.0,1703154408512706,-0.008318031555972993,0.004563645459711552,0.000999999999990564,243.859,0.278,-1.14
218,1608520000,2023-12-21,10:26:48.520,41.21406433,1.72478545,54.562,243.859,0.27699999999999997,-1.14,1703154408520000.0,1703154408522786,-0.008318031555972993,0.004563645459711552,0.000999999999990564,243.859,0.27699999999999997,-1.14
219,1608530000,2023-12-21,10:26:48.530,41.21406433,1.72478545,54.562,243.859,0.273,-1.14,1703154408530000.0,1703154408532824,-0.008318031555972993,0.004563645459711552,0.000999999999990564,243.859,0.273,-1.14
220,1608540000,2023-12-21,10:26:48.540,41.21406433,1.72478545,54.562,243.859,0.27399999999999997,-1.139,1703154408539999.0,1703154408542868,-0.008318031555972993,0.004563645459711552,0.000999999999990564,243.859,0.27399999999999997,-1.139
221,1608550000,2023-12-21,10:26:48.550,41.21406433,1.72478545,54.562,243.86,0.27699999999999997,-1.139,1703154408549999.0,1703154408552791,-0.008318031555972993,0.004563645459711552,0.000999999999990564,243.86,0.27699999999999997,-1.139
222,1608560000,2023-12-21,10:26:48.560,41.21406433,1.72478545,54.562,243.86,0.27399999999999997,-1.14,1703154408560000.0,1703154408562847,-0.008318031555972993,0.004563645459711552,0.000999999999990564,243.86,0.27399999999999997,-1.14
223,1608570000,2023-12-21,10:26:48.570,41.21406433,1.72478545,54.562,243.86,0.271,-1.139,1703154408570000.0,1703154408572874,-0.008318031555972993,0.004563645459711552,0.000999999999990564,243.86,0.271,-1.139
224,1608580000,2023-12-21,10:26:48.580,41.21406433,1.72478545,54.562,243.86,0.272,-1.139,1703154408579999.0,1703154408582711,-0.008318031555972993,0.004563645459711552,0.000999999999990564,243.86,0.272,-1.139
225,1608590000,2023-12-21,10:26:48.590,41.21406433,1.72478545,54.562,243.86,0.27699999999999997,-1.138,1703154408590000.0,1703154408592554,-0.008318031555972993,0.004563645459711552,0.000999999999990564,243.86,0.27699999999999997,-1.138
226,1608600000,2023-12-21,10:26:48.600,41.21406433,1.72478545,54.562,243.86,0.278,-1.139,1703154408600000.0,1703154408602571,-0.008318031555972993,0.004563645459711552,0.000999999999990564,243.86,0.278,-1.139
227,1608610000,2023-12-21,10:26:48.610,41.21406433,1.72478545,54.562,243.861,0.276,-1.14,1703154408609999.0,1703154408612665,-0.008318031555972993,0.004563645459711552,0.000999999999990564,243.861,0.276,-1.14
228,1608620000,2023-12-21,10:26:48.620,41.21406433,1.72478545,54.562,243.861,0.27699999999999997,-1.139,1703154408619999.0,1703154408622843,-0.008318031555972993,0.004563645459711552,0.000999999999990564,243.861,0.27699999999999997,-1.139
229,1608630000,2023-12-21,10:26:48.630,41.21406433,1.72478545,54.562,243.862,0.28,-1.14,1703154408630000.0,1703154408632987,-0.008318031555972993,0.004563645459711552,0.000999999999990564,243.862,0.28,-1.14
230,1608640000,2023-12-21,10:26:48.640,41.21406433,1.72478545,54.562,243.862,0.27899999999999997,-1.141,1703154408640000.0,1703154408642694,-0.008318031555972993,0.004563645459711552,0.000999999999990564,243.862,0.27899999999999997,-1.141
231,1608650000,2023-12-21,10:26:48.650,41.21406433,1.72478545,54.562,243.863,0.276,-1.1420000000000001,1703154408649999.0,1703154408652700,-0.008318031555972993,0.004563645459711552,0.000999999999990564,243.863,0.276,-1.1420000000000001
232,1608660000,2023-12-21,10:26:48.660,41.21406433,1.72478544,54.562,243.864,0.275,-1.141,1703154408659999.0,1703154408662732,-0.00915634777629748,0.004575940780341625,0.000999999999990564,243.864,0.275,-1.141
233,1608670000,2023-12-21,10:26:48.670,41.21406433,1.72478544,54.562,243.865,0.27899999999999997,-1.141,1703154408670000.0,1703154408672692,-0.00915634777629748,0.004575940780341625,0.000999999999990564,243.865,0.27899999999999997,-1.141
234,1608680000,2023-12-21,10:26:48.680,41.21406434,1.72478544,54.56100000000001,243.86599999999999,0.28300000000000003,-1.141,1703154408679999.0,1703154408682824,-0.009140065056271851,0.005686113610863686,0.0,243.86599999999999,0.28300000000000003,-1.141
235,1608690000,2023-12-21,10:26:48.690,41.21406434,1.72478544,54.56100000000001,243.868,0.281,-1.14,1703154408689999.0,1703154408692811,-0.009140065056271851,0.005686113610863686,0.0,243.868,0.281,-1.14
236,1608700000,2023-12-21,10:26:48.700,41.21406434,1.72478544,54.56100000000001,243.86900000000003,0.27699999999999997,-1.138,1703154408700000.0,1703154408702757,-0.009140065056271851,0.005686113610863686,0.0,243.86900000000003,0.27699999999999997,-1.138
237,1608710000,2023-12-21,10:26:48.710,41.21406434,1.72478544,54.56100000000001,243.87,0.281,-1.136,1703154408710000.0,1703154408712758,-0.009140065056271851,0.005686113610863686,0.0,243.87,0.281,-1.136
238,1608720000,2023-12-21,10:26:48.720,41.21406434,1.72478544,54.56100000000001,243.87099999999998,0.289,-1.136,1703154408719999.0,1703154408722736,-0.009140065056271851,0.005686113610863686,0.0,243.87099999999998,0.289,-1.136
239,1608730000,2023-12-21,10:26:48.730,41.21406434,1.72478544,54.56100000000001,243.872,0.294,-1.135,1703154408729999.0,1703154408732719,-0.009140065056271851,0.005686113610863686,0.0,243.872,0.294,-1.135
240,1608740000,2023-12-21,10:26:48.740,41.21406434,1.72478544,54.56100000000001,243.873,0.28800000000000003,-1.131,1703154408740000.0,1703154408742727,-0.009140065056271851,0.005686113610863686,0.0,243.873,0.28800000000000003,-1.131
241,1608750000,2023-12-21,10:26:48.750,41.21406434,1.72478544,54.56100000000001,243.87400000000002,0.281,-1.128,1703154408750000.0,1703154408752690,-0.009140065056271851,0.005686113610863686,0.0,243.87400000000002,0.281,-1.128
242,1608760000,2023-12-21,10:26:48.760,41.21406434,1.72478543,54.56100000000001,243.87400000000002,0.281,-1.127,1703154408759999.0,1703154408762856,-0.009978381334803998,0.005698408931493759,0.0,243.87400000000002,0.281,-1.127
243,1608770000,2023-12-21,10:26:48.770,41.21406434,1.72478543,54.56100000000001,243.875,0.29,-1.125,1703154408770000.0,1703154408772726,-0.009978381334803998,0.005698408931493759,0.0,243.875,0.29,-1.125
244,1608780000,2023-12-21,10:26:48.780,41.21406434,1.72478543,54.56100000000001,243.87599999999998,0.299,-1.124,1703154408780000.0,1703154408782909,-0.009978381334803998,0.005698408931493759,0.0,243.87599999999998,0.299,-1.124
245,1608790000,2023-12-21,10:26:48.790,41.21406434,1.72478543,54.56100000000001,243.877,0.299,-1.122,1703154408789999.0,1703154408792919,-0.009978381334803998,0.005698408931493759,0.0,243.877,0.299,-1.122
246,1608800000,2023-12-21,10:26:48.800,41.21406434,1.72478543,54.56100000000001,243.877,0.293,-1.12,1703154408799999.0,1703154408802842,-0.009978381334803998,0.005698408931493759,0.0,243.877,0.293,-1.12
247,1608810000,2023-12-21,10:26:48.810,41.21406434,1.72478542,54.56100000000001,243.877,0.29100000000000004,-1.1179999999999999,1703154408810000.0,1703154408812931,-0.010816697555128485,0.005710705183446407,0.0,243.877,0.29100000000000004,-1.1179999999999999
248,1608820000,2023-12-21,10:26:48.820,41.21406434,1.72478542,54.56100000000001,243.878,0.298,-1.115,1703154408820000.0,1703154408822906,-0.010816697555128485,0.005710705183446407,0.0,243.878,0.298,-1.115
249,1608830000,2023-12-21,10:26:48.830,41.21406434,1.72478542,54.56100000000001,243.87900000000002,0.306,-1.114,1703154408829999.0,1703154408832861,-0.010816697555128485,0.005710705183446407,0.0,243.87900000000002,0.306,-1.114
250,1608840000,2023-12-21,10:26:48.840,41.21406434,1.72478542,54.56100000000001,243.87900000000002,0.306,-1.112,1703154408840000.0,1703154408842762,-0.010816697555128485,0.005710705183446407,0.0,243.87900000000002,0.306,-1.112
251,1608850000,2023-12-21,10:26:48.850,41.21406434,1.72478541,54.56100000000001,243.88,0.3,-1.109,1703154408850000.0,1703154408852731,-0.011655013775452971,0.005722999572753906,0.0,243.88,0.3,-1.109
252,1608860000,2023-12-21,10:26:48.860,41.21406434,1.72478541,54.56,243.88,0.297,-1.1079999999999999,1703154408859999.0,1703154408862847,-0.011655013775452971,0.005722999572753906,-0.0010000000000047748,243.88,0.297,-1.1079999999999999
253,1608870000,2023-12-21,10:26:48.870,41.21406434,1.72478541,54.56,243.87900000000002,0.3,-1.105,1703154408869999.0,1703154408872766,-0.011655013775452971,0.005722999572753906,-0.0010000000000047748,243.87900000000002,0.3,-1.105
254,1608880000,2023-12-21,10:26:48.880,41.21406434,1.7247854,54.56,243.87900000000002,0.306,-1.103,1703154408880000.0,1703154408882775,-0.012493329995777458,0.005735295824706554,-0.0010000000000047748,243.87900000000002,0.306,-1.103
255,1608890000,2023-12-21,10:26:48.890,41.21406434,1.7247854,54.56,243.88,0.308,-1.102,1703154408890000.0,1703154408892792,-0.012493329995777458,0.005735295824706554,-0.0010000000000047748,243.88,0.308,-1.102
256,1608900000,2023-12-21,10:26:48.900,41.21406434,1.7247854,54.56,243.88,0.309,-1.101,1703154408899999.0,1703154408902805,-0.012493329995777458,0.005735295824706554,-0.0010000000000047748,243.88,0.309,-1.101
257,1608910000,2023-12-21,10:26:48.910,41.21406434,1.72478539,54.56,243.88099999999997,0.308,-1.101,1703154408909999.0,1703154408912754,-0.013331646216101944,0.005747591145336628,-0.0010000000000047748,243.88099999999997,0.308,-1.101
258,1608920000,2023-12-21,10:26:48.920,41.21406434,1.72478539,54.56,243.88099999999997,0.308,-1.099,1703154408920000.0,1703154408922772,-0.013331646216101944,0.005747591145336628,-0.0010000000000047748,243.88099999999997,0.308,-1.099
259,1608930000,2023-12-21,10:26:48.930,41.21406434,1.72478538,54.56,243.882,0.309,-1.0979999999999999,1703154408929999.0,1703154408932734,-0.014169962436426431,0.0057598864659667015,-0.0010000000000047748,243.882,0.309,-1.0979999999999999
260,1608940000,2023-12-21,10:26:48.940,41.21406434,1.72478538,54.56,243.882,0.312,-1.0979999999999999,1703154408939999.0,1703154408942738,-0.014169962436426431,0.0057598864659667015,-0.0010000000000047748,243.882,0.312,-1.0979999999999999
261,1608950000,2023-12-21,10:26:48.950,41.21406434,1.72478537,54.56,243.88400000000001,0.315,-1.097,1703154408950000.0,1703154408952757,-0.015008278598543257,0.005772181786596775,-0.0010000000000047748,243.88400000000001,0.315,-1.097
262,1608960000,2023-12-21,10:26:48.960,41.21406433,1.72478537,54.56,243.88400000000001,0.313,-1.0959999999999999,1703154408960000.0,1703154408962729,-0.015024561318568885,0.00466200802475214,-0.0010000000000047748,243.88400000000001,0.313,-1.0959999999999999
263,1608970000,2023-12-21,10:26:48.970,41.21406433,1.72478537,54.56,243.885,0.311,-1.095,1703154408969999.0,1703154408972730,-0.015024561318568885,0.00466200802475214,-0.0010000000000047748,243.885,0.311,-1.095
264,1608980000,2023-12-21,10:26:48.980,41.21406433,1.72478536,54.56,243.886,0.311,-1.095,1703154408979999.0,1703154408982735,-0.015862877597101033,0.004674303345382214,-0.0010000000000047748,243.886,0.311,-1.095
265,1608990000,2023-12-21,10:26:48.990,41.21406433,1.72478535,54.56,243.887,0.317,-1.095,1703154408990000.0,1703154408992707,-0.01670119375921786,0.004686599597334862,-0.0010000000000047748,243.887,0.317,-1.095
266,1609000000,2023-12-21,10:26:49.000,41.21406433,1.72478535,54.56,243.888,0.32,-1.094,1703154409000000.0,1703154409002731,-0.01670119375921786,0.004686599597334862,-0.0010000000000047748,243.888,0.32,-1.094
267,1609010000,2023-12-21,10:26:49.010,41.21406433,1.72478534,54.56,243.889,0.322,-1.094,1703154409009999.0,1703154409013833,-0.017539510037750006,0.00469889584928751,-0.0010000000000047748,243.889,0.322,-1.094
268,1609020000,2023-12-21,10:26:49.020,41.21406432,1.72478534,54.56,243.89,0.319,-1.094,1703154409020000.0,1703154409022723,-0.017555792757775635,0.003588722087442875,-0.0010000000000047748,243.89,0.319,-1.094
269,1609030000,2023-12-21,10:26:49.030,41.21406432,1.72478533,54.56,243.891,0.318,-1.094,1703154409030000.0,1703154409032824,-0.01839410897810012,0.0036010174080729485,-0.0010000000000047748,243.891,0.318,-1.094
270,1609040000,2023-12-21,10:26:49.040,41.21406432,1.72478532,54.56,243.892,0.32,-1.094,1703154409039999.0,1703154409042821,-0.019232425198424608,0.003613312728703022,-0.0010000000000047748,243.892,0.32,-1.094
271,1609050000,2023-12-21,10:26:49.050,41.21406432,1.72478532,54.56,243.894,0.32299999999999995,-1.093,1703154409049999.0,1703154409052896,-0.019232425198424608,0.003613312728703022,-0.0010000000000047748,243.894,0.32299999999999995,-1.093
272,1609060000,2023-12-21,10:26:49.060,41.21406431,1.72478531,54.56,243.895,0.322,-1.094,1703154409060000.0,1703154409062741,-0.020087024138774723,0.002515433356165886,-0.0010000000000047748,243.895,0.322,-1.094
273,1609070000,2023-12-21,10:26:49.070,41.21406431,1.7247853,54.56,243.896,0.32,-1.0959999999999999,1703154409070000.0,1703154409073054,-0.02092534030089155,0.0025277305394411087,-0.0010000000000047748,243.896,0.32,-1.0959999999999999
274,1609080000,2023-12-21,10:26:49.080,41.21406431,1.7247853,54.56,243.896,0.319,-1.095,1703154409079999.0,1703154409082896,-0.02092534030089155,0.0025277305394411087,-0.0010000000000047748,243.896,0.319,-1.095
