, Time(), Date, Local Time, Latitude(deg), Longitude(deg), Altitude(m), Heading(deg), Pitch(deg), Roll(deg),TimestampGPS,TimestampHDF,x,y,z,heading,pitch,roll
0,1880150000,2023-07-07,10:31:20.150,41.22150682,1.72957374,61.685,162.47299999999998,-0.711,1.275,1688725880149999.0,1688725879149536,0.0,0.0,0.0,162.47299999999998,-0.711,1.275
1,1880160000,2023-07-07,10:31:20.160,41.22150679,1.72957375,61.685,162.455,-0.711,1.27,1688725880160000.0,1688725879159625,0.0007895490853115916,-0.0033427709713578224,0.0,162.455,-0.711,1.27
2,1880170000,2023-07-07,10:31:20.170,41.22150677,1.72957376,61.685,162.436,-0.7140000000000001,1.272,1688725880170000.0,1688725879169483,0.0015953221591189504,-0.0055753691121935844,0.0,162.436,-0.7140000000000001,1.272
3,1880180000,2023-07-07,10:31:20.180,41.22150675,1.72957377,61.685,162.42,-0.711,1.27,1688725880179999.0,1688725879179565,0.002401095232926309,-0.0078079672530293465,0.0,162.42,-0.711,1.27
4,1880190000,2023-07-07,10:31:20.190,41.22150672,1.72957379,61.685,162.399,-0.71,1.265,1688725880190000.0,1688725879189471,0.004028865252621472,-0.011162989772856236,0.0,162.399,-0.71,1.265
5,1880200000,2023-07-07,10:31:20.200,41.2215067,1.7295738,61.685,162.382,-0.7120000000000001,1.265,1688725880199999.0,1688725879199594,0.004834638326428831,-0.013395587913691998,0.0,162.382,-0.7120000000000001,1.265
6,1880210000,2023-07-07,10:31:20.210,41.22150667,1.72957381,61.685,162.368,-0.711,1.26,1688725880210000.0,1688725879209703,0.005624187411740422,-0.01673836074769497,0.0,162.368,-0.711,1.26
7,1880220000,2023-07-07,10:31:20.220,41.22150665,1.72957383,61.685,162.349,-0.71,1.253,1688725880219999.0,1688725879219583,0.007268181478139013,-0.0189832067117095,0.0,162.349,-0.71,1.253
8,1880230000,2023-07-07,10:31:20.230,41.22150662,1.72957384,61.684,162.329,-0.7120000000000001,1.255,1688725880230000.0,1688725879229496,0.008057730563450605,-0.02232597954571247,-0.0010000000000047748,162.329,-0.7120000000000001,1.255
9,1880240000,2023-07-07,10:31:20.240,41.2215066,1.72957385,61.684,162.308,-0.7120000000000001,1.252,1688725880239999.0,1688725879239460,0.008863503695465624,-0.02455857675522566,-0.0010000000000047748,162.308,-0.7120000000000001,1.252
10,1880250000,2023-07-07,10:31:20.250,41.22150657,1.72957387,61.684,162.286,-0.711,1.245,1688725880250000.0,1688725879249594,0.010491273715160787,-0.027913598343729973,-0.0010000000000047748,162.286,-0.711,1.245
11,1880260000,2023-07-07,10:31:20.260,41.22150654,1.72957388,61.684,162.268,-0.7120000000000001,1.245,1688725880260000.0,1688725879259479,0.011280822800472379,-0.031256371177732944,-0.0010000000000047748,162.268,-0.7120000000000001,1.245
12,1880270000,2023-07-07,10:31:20.270,41.22150651,1.72957389,61.684,162.252,-0.711,1.239,1688725880269999.0,1688725879269669,0.01207037188578397,-0.03459914308041334,-0.0010000000000047748,162.252,-0.711,1.239
13,1880280000,2023-07-07,10:31:20.280,41.22150649,1.72957391,61.684,162.23,-0.7090000000000001,1.23,1688725880280000.0,1688725879279448,0.013714365952182561,-0.036843989975750446,-0.0010000000000047748,162.23,-0.7090000000000001,1.23
14,1880290000,2023-07-07,10:31:20.290,41.22150646,1.72957393,61.684,162.207,-0.71,1.229,1688725880289999.0,1688725879289713,0.015342136030085385,-0.040199012495577335,-0.0010000000000047748,162.207,-0.71,1.229
15,1880300000,2023-07-07,10:31:20.300,41.22150643,1.72957394,61.684,162.184,-0.711,1.224,1688725880300000.0,1688725879299503,0.016131685173604637,-0.04354178439825773,-0.0010000000000047748,162.184,-0.711,1.224
16,1880310000,2023-07-07,10:31:20.310,41.2215064,1.72957396,61.684,162.161,-0.7090000000000001,1.215,1688725880309999.0,1688725879309492,0.01775945525150746,-0.04689680598676205,-0.0010000000000047748,162.161,-0.7090000000000001,1.215
17,1880320000,2023-07-07,10:31:20.320,41.22150637,1.72957397,61.684,162.141,-0.711,1.213,1688725880320000.0,1688725879319809,0.018549004336819053,-0.050239577889442444,-0.0010000000000047748,162.141,-0.711,1.213
18,1880330000,2023-07-07,10:31:20.330,41.22150634,1.72957399,61.684,162.12,-0.71,1.206,1688725880329999.0,1688725879329716,0.020176774414721876,-0.05359459947794676,-0.0010000000000047748,162.12,-0.71,1.206
19,1880340000,2023-07-07,10:31:20.340,41.22150631,1.72957401,61.684,162.095,-0.7090000000000001,1.195,1688725880339999.0,1688725879339590,0.02180454455083236,-0.05694962106645107,-0.0010000000000047748,162.095,-0.7090000000000001,1.195
20,1880350000,2023-07-07,10:31:20.350,41.22150628,1.72957402,61.684,162.069,-0.7090000000000001,1.193,1688725880350000.0,1688725879349641,0.022594093694351614,-0.060292393900454044,-0.0010000000000047748,162.069,-0.7090000000000001,1.193
21,1880360000,2023-07-07,10:31:20.360,41.22150625,1.72957404,61.684,162.04399999999998,-0.708,1.188,1688725880359999.0,1688725879359641,0.024221863714046776,-0.06364741642028093,-0.0010000000000047748,162.04399999999998,-0.708,1.188
22,1880370000,2023-07-07,10:31:20.370,41.22150622,1.72957406,61.684,162.019,-0.7070000000000001,1.179,1688725880370000.0,1688725879369524,0.0258496337919496,-0.0670024361461401,-0.0010000000000047748,162.019,-0.7070000000000001,1.179
23,1880380000,2023-07-07,10:31:20.380,41.22150618,1.72957407,61.684,161.994,-0.708,1.177,1688725880379999.0,1688725879379587,0.026622959063388407,-0.0714553827419877,-0.0010000000000047748,161.994,-0.708,1.177
24,1880390000,2023-07-07,10:31:20.390,41.22150615,1.72957408,61.684,161.969,-0.7070000000000001,1.171,1688725880390000.0,1688725879389604,0.0274125081487,-0.07479815557599068,-0.0010000000000047748,161.969,-0.7070000000000001,1.171
25,1880400000,2023-07-07,10:31:20.400,41.22150612,1.7295741,61.684,161.939,-0.706,1.163,1688725880399999.0,1688725879399645,0.029040278226602823,-0.07815317623317242,-0.0010000000000047748,161.939,-0.706,1.163
26,1880410000,2023-07-07,10:31:20.410,41.22150608,1.72957412,61.684,161.91,-0.7070000000000001,1.16,1688725880410000.0,1688725879409485,0.0306518244324252,-0.08261837344616652,-0.0010000000000047748,161.91,-0.7070000000000001,1.16
27,1880420000,2023-07-07,10:31:20.420,41.22150605,1.72957413,61.684,161.882,-0.7070000000000001,1.1520000000000001,1688725880420000.0,1688725879419693,0.03144137351773679,-0.08596114441752434,-0.0010000000000047748,161.882,-0.7070000000000001,1.1520000000000001
28,1880430000,2023-07-07,10:31:20.430,41.22150602,1.72957415,61.684,161.852,-0.7070000000000001,1.146,1688725880429999.0,1688725879429631,0.033069143595639616,-0.08931616600602865,-0.0010000000000047748,161.852,-0.7070000000000001,1.146
29,1880440000,2023-07-07,10:31:20.440,41.22150598,1.72957417,61.684,161.822,-0.7070000000000001,1.145,1688725880440000.0,1688725879439501,0.034680689801461995,-0.09378136228770018,-0.0010000000000047748,161.822,-0.7070000000000001,1.145
30,1880450000,2023-07-07,10:31:20.450,41.22150595,1.72957418,61.684,161.792,-0.7070000000000001,1.135,1688725880449999.0,1688725879449619,0.035470238886773586,-0.09712413419038057,-0.0010000000000047748,161.792,-0.7070000000000001,1.135
31,1880460000,2023-07-07,10:31:20.460,41.22150591,1.7295742,61.685,161.75799999999998,-0.705,1.125,1688725880460000.0,1688725879459493,0.037081785034388304,-0.10158933140337467,0.0,161.75799999999998,-0.705,1.125
32,1880470000,2023-07-07,10:31:20.470,41.22150588,1.72957421,61.685,161.725,-0.706,1.12,1688725880469999.0,1688725879469475,0.037871334177907556,-0.1049321023747325,0.0,161.725,-0.706,1.12
33,1880480000,2023-07-07,10:31:20.480,41.22150584,1.72957423,61.685,161.692,-0.705,1.111,1688725880480000.0,1688725879479462,0.039482880383729935,-0.10939729772508144,0.0,161.692,-0.705,1.111
34,1880490000,2023-07-07,10:31:20.490,41.22150581,1.72957425,61.685,161.656,-0.706,1.104,1688725880489999.0,1688725879489495,0.04111065051984042,-0.11275231931358576,0.0,161.656,-0.706,1.104
35,1880500000,2023-07-07,10:31:20.500,41.22150577,1.72957427,61.685,161.621,-0.708,1.0979999999999999,1688725880500000.0,1688725879499557,0.04272219666745514,-0.11721751652657986,0.0,161.621,-0.708,1.0979999999999999
36,1880510000,2023-07-07,10:31:20.510,41.22150573,1.72957428,61.685,161.58700000000002,-0.708,1.085,1688725880510000.0,1688725879509513,0.04349552182247862,-0.12167046219110489,0.0,161.58700000000002,-0.708,1.085
37,1880520000,2023-07-07,10:31:20.520,41.2215057,1.7295743,61.685,161.55,-0.708,1.078,1688725880519999.0,1688725879519691,0.04512329195858911,-0.1250254837796092,0.0,161.55,-0.708,1.078
38,1880530000,2023-07-07,10:31:20.530,41.22150566,1.72957432,61.685,161.514,-0.7090000000000001,1.068,1688725880530000.0,1688725879529543,0.046734838106203824,-0.12949068006128073,0.0,161.514,-0.7090000000000001,1.068
39,1880540000,2023-07-07,10:31:20.540,41.22150562,1.72957434,61.685,161.47799999999998,-0.708,1.056,1688725880539999.0,1688725879539452,0.0483463843120262,-0.1339558744803071,0.0,161.47799999999998,-0.708,1.056
40,1880550000,2023-07-07,10:31:20.550,41.22150558,1.72957436,61.68600000000001,161.439,-0.71,1.048,1688725880550000.0,1688725879549507,0.04995793045964092,-0.13842107076197863,0.0010000000000047748,161.439,-0.71,1.048
41,1880560000,2023-07-07,10:31:20.560,41.22150554,1.72957438,61.685,161.40200000000002,-0.7090000000000001,1.037,1688725880559999.0,1688725879559733,0.0515694766654633,-0.14288626611232758,0.0,161.40200000000002,-0.7090000000000001,1.037
42,1880570000,2023-07-07,10:31:20.570,41.2215055,1.7295744,61.685,161.365,-0.708,1.0270000000000001,1688725880570000.0,1688725879569655,0.053181022813078016,-0.14735146332532167,0.0,161.365,-0.708,1.0270000000000001
43,1880580000,2023-07-07,10:31:20.580,41.22150546,1.72957442,61.68600000000001,161.325,-0.7090000000000001,1.0170000000000001,1688725880579999.0,1688725879579585,0.054792569018900394,-0.15181665867567062,0.0010000000000047748,161.325,-0.7090000000000001,1.0170000000000001
44,1880590000,2023-07-07,10:31:20.590,41.22150542,1.72957444,61.68600000000001,161.286,-0.7070000000000001,1.004,1688725880589999.0,1688725879589601,0.056404115282930434,-0.15628185402601957,0.0010000000000047748,161.286,-0.7070000000000001,1.004
45,1880600000,2023-07-07,10:31:20.600,41.22150538,1.72957446,61.68600000000001,161.246,-0.706,0.996,1688725880600000.0,1688725879599521,0.05801566143054515,-0.16074704937636852,0.0010000000000047748,161.246,-0.706,0.996
46,1880610000,2023-07-07,10:31:20.610,41.22150534,1.72957448,61.68600000000001,161.20600000000002,-0.705,0.985,1688725880609999.0,1688725879609564,0.05962720757815987,-0.16521224472671747,0.0010000000000047748,161.20600000000002,-0.705,0.985
47,1880620000,2023-07-07,10:31:20.620,41.2215053,1.7295745,61.68600000000001,161.167,-0.703,0.973,1688725880620000.0,1688725879619608,0.06123875378398225,-0.16967744287103415,0.0010000000000047748,161.167,-0.703,0.973
48,1880630000,2023-07-07,10:31:20.630,41.22150526,1.72957452,61.68600000000001,161.126,-0.703,0.966,1688725880629999.0,1688725879629479,0.06285029998980463,-0.1741426382213831,0.0010000000000047748,161.126,-0.703,0.966
49,1880640000,2023-07-07,10:31:20.640,41.22150522,1.72957455,61.68600000000001,161.084,-0.7020000000000001,0.956,1688725880640000.0,1688725879639525,0.06530006713001058,-0.17862008325755596,0.0010000000000047748,161.084,-0.7020000000000001,0.956
50,1880650000,2023-07-07,10:31:20.650,41.22150517,1.72957457,61.68600000000001,161.043,-0.7,0.941,1688725880649999.0,1688725879649535,0.06689538940554485,-0.18419545236974955,0.0010000000000047748,161.043,-0.7,0.941
51,1880660000,2023-07-07,10:31:20.660,41.22150513,1.72957459,61.68600000000001,161.001,-0.6990000000000001,0.9309999999999999,1688725880660000.0,1688725879659660,0.06850693561136723,-0.18866064865142107,0.0010000000000047748,161.001,-0.6990000000000001,0.9309999999999999
52,1880670000,2023-07-07,10:31:20.670,41.22150508,1.72957462,61.687,160.961,-0.6990000000000001,0.917,1688725880670000.0,1688725879669483,0.07094047882128507,-0.19424826931208372,0.001999999999995339,160.961,-0.6990000000000001,0.917
53,1880680000,2023-07-07,10:31:20.680,41.22150503,1.72957464,61.687,160.92,-0.6990000000000001,0.904,1688725880679999.0,1688725879679472,0.07253580109681934,-0.1998236384242773,0.001999999999995339,160.92,-0.6990000000000001,0.904
54,1880690000,2023-07-07,10:31:20.690,41.22150499,1.72957466,61.687,160.878,-0.7,0.894,1688725880690000.0,1688725879689738,0.07414734736084938,-0.20428883470594883,0.001999999999995339,160.878,-0.7,0.894
55,1880700000,2023-07-07,10:31:20.700,41.22150493,1.72957469,61.688,160.835,-0.701,0.879,1688725880699999.0,1688725879699587,0.07656466664047912,-0.21098662726581097,0.0030000000000001137,160.835,-0.701,0.879
56,1880710000,2023-07-07,10:31:20.710,41.22150488,1.72957471,61.688,160.792,-0.7020000000000001,0.867,1688725880710000.0,1688725879709480,0.07815998891601339,-0.2165619982406497,0.0030000000000001137,160.792,-0.7020000000000001,0.867
57,1879720000,2023-07-07,10:31:19.720,41.22150484,1.72957473,61.688,160.748,-0.706,0.8540000000000001,1688725879719999.0,1688725879719484,0.07977153512183577,-0.22102719359099865,0.0030000000000001137,160.748,-0.706,0.8540000000000001
58,1879730000,2023-07-07,10:31:19.730,41.22150478,1.72957476,61.68899999999999,160.705,-0.7090000000000001,0.8390000000000001,1688725879730000.0,1688725879729501,0.08218885445967317,-0.22772498801350594,0.003999999999990678,160.705,-0.7090000000000001,0.8390000000000001
59,1879740000,2023-07-07,10:31:19.740,41.22150473,1.72957479,61.68899999999999,160.662,-0.711,0.8290000000000001,1688725879739999.0,1688725879739660,0.08462239778600633,-0.23331260681152344,0.003999999999990678,160.662,-0.711,0.8290000000000001
60,1879750000,2023-07-07,10:31:19.750,41.22150468,1.72957481,61.68899999999999,160.62,-0.7120000000000001,0.82,1688725879750000.0,1688725879749598,0.0862177200615406,-0.2388879768550396,0.003999999999990678,160.62,-0.7120000000000001,0.82
61,1879760000,2023-07-07,10:31:19.760,41.22150462,1.72957484,61.691,160.57399999999998,-0.716,0.816,1688725879760000.0,1688725879759526,0.08863503934117034,-0.24558577127754688,0.006000000000000227,160.57399999999998,-0.716,0.816
62,1879770000,2023-07-07,10:31:19.770,41.22150457,1.72957486,61.691,160.526,-0.7170000000000001,0.812,1688725879769999.0,1688725879769740,0.09023036173311993,-0.25116114132106304,0.006000000000000227,160.526,-0.7170000000000001,0.812
63,1879780000,2023-07-07,10:31:19.780,41.22150452,1.72957489,61.691,160.47899999999998,-0.7190000000000001,0.8059999999999999,1688725879780000.0,1688725879779655,0.09266390494303778,-0.25674876011908054,0.006000000000000227,160.47899999999998,-0.7190000000000001,0.8059999999999999
64,1879790000,2023-07-07,10:31:19.790,41.22150446,1.72957492,61.692,160.43200000000002,-0.722,0.8029999999999999,1688725879789999.0,1688725879789606,0.09508122428087518,-0.26344655454158783,0.006999999999997897,160.43200000000002,-0.722,0.8029999999999999
65,1879800000,2023-07-07,10:31:19.800,41.22150441,1.72957494,61.692,160.388,-0.723,0.8,1688725879800000.0,1688725879799691,0.09667654661461711,-0.26902192272245884,0.006999999999997897,160.388,-0.723,0.8
66,1879810000,2023-07-07,10:31:19.810,41.22150436,1.72957497,61.692,160.34,-0.725,0.8009999999999999,1688725879809999.0,1688725879809719,0.09911008982453495,-0.27460954431444407,0.006999999999997897,160.34,-0.725,0.8009999999999999
67,1879820000,2023-07-07,10:31:19.820,41.22150429,1.729575,61.693000000000005,160.287,-0.73,0.804,1688725879820000.0,1688725879819589,0.1015111852902919,-0.282417512498796,0.008000000000002672,160.287,-0.73,0.804
68,1879830000,2023-07-07,10:31:19.830,41.22150424,1.72957502,61.693000000000005,160.236,-0.73,0.804,1688725879829999.0,1688725879829683,0.10310650762403384,-0.28799288161098957,0.008000000000002672,160.236,-0.73,0.804
69,1879840000,2023-07-07,10:31:19.840,41.22150418,1.72957504,61.693000000000005,160.181,-0.732,0.81,1688725879839999.0,1688725879839730,0.10468560608569533,-0.29467842541635036,0.008000000000002672,160.181,-0.732,0.81
70,1879850000,2023-07-07,10:31:19.850,41.22150412,1.72957507,61.693999999999996,160.126,-0.735,0.816,1688725879850000.0,1688725879849702,0.10710292542353272,-0.3013762207701802,0.008999999999993236,160.126,-0.735,0.816
71,1879860000,2023-07-07,10:31:19.860,41.22150406,1.7295751,61.693999999999996,160.07399999999998,-0.736,0.821,1688725879859999.0,1688725879859577,0.10952024476137012,-0.30807401426136494,0.008999999999993236,160.07399999999998,-0.736,0.821
72,1879870000,2023-07-07,10:31:19.870,41.221504,1.72957512,61.693999999999996,160.02100000000002,-0.7390000000000001,0.83,1688725879870000.0,1688725879869640,0.11109934316482395,-0.31475955713540316,0.008999999999993236,160.02100000000002,-0.7390000000000001,0.83
73,1879880000,2023-07-07,10:31:19.880,41.22150394,1.72957515,61.695,159.965,-0.74,0.836,1688725879879999.0,1688725879879545,0.11351666261907667,-0.32145735062658787,0.00999999999999801,159.965,-0.74,0.836
74,1879890000,2023-07-07,10:31:19.890,41.22150388,1.72957517,61.695,159.907,-0.741,0.852,1688725879890000.0,1688725879889509,0.11509576096432284,-0.32814289536327124,0.00999999999999801,159.907,-0.741,0.852
75,1879900000,2023-07-07,10:31:19.900,41.22150382,1.7295752,61.695,159.849,-0.743,0.866,1688725879899999.0,1688725879899615,0.11751308041857556,-0.33484068885445595,0.00999999999999801,159.849,-0.743,0.866
76,1879910000,2023-07-07,10:31:19.910,41.22150376,1.72957523,61.695,159.79,-0.741,0.879,1688725879910000.0,1688725879909495,0.11993039981462061,-0.3415384814143181,0.00999999999999801,159.79,-0.741,0.879
77,1879920000,2023-07-07,10:31:19.920,41.2215037,1.72957525,61.695,159.733,-0.741,0.8959999999999999,1688725879920000.0,1688725879919542,0.12150949821807444,-0.34822402615100145,0.00999999999999801,159.733,-0.741,0.8959999999999999
78,1879930000,2023-07-07,10:31:19.930,41.22150364,1.72957528,61.695,159.67700000000002,-0.7390000000000001,0.91,1688725879929999.0,1688725879929589,0.12392681767232716,-0.35492182057350874,0.00999999999999801,159.67700000000002,-0.7390000000000001,0.91
79,1879940000,2023-07-07,10:31:19.940,41.22150358,1.72957531,61.695,159.619,-0.7340000000000001,0.922,1688725879940000.0,1688725879939482,0.12634413706837222,-0.361619614996016,0.00999999999999801,159.619,-0.7340000000000001,0.922
80,1879950000,2023-07-07,10:31:19.950,41.22150351,1.72957533,61.693999999999996,159.561,-0.732,0.934,1688725879949999.0,1688725879949481,0.1279070115997456,-0.3694153316318989,0.008999999999993236,159.561,-0.732,0.934
81,1879960000,2023-07-07,10:31:19.960,41.22150345,1.72957536,61.693999999999996,159.502,-0.727,0.946,1688725879960000.0,1688725879959475,0.13032433099579066,-0.37611312698572874,0.008999999999993236,159.502,-0.727,0.946
82,1879970000,2023-07-07,10:31:19.970,41.22150339,1.72957539,61.693999999999996,159.444,-0.7240000000000001,0.9570000000000001,1688725879969999.0,1688725879969488,0.13274165045004338,-0.3828109195455909,0.008999999999993236,159.444,-0.7240000000000001,0.9570000000000001
83,1879980000,2023-07-07,10:31:19.980,41.22150332,1.72957542,61.693999999999996,159.387,-0.7190000000000001,0.966,1688725879980000.0,1688725879979652,0.13514274591580033,-0.3906188877299428,0.008999999999993236,159.387,-0.7190000000000001,0.966
84,1879990000,2023-07-07,10:31:19.990,41.22150326,1.72957545,61.693999999999996,159.33,-0.713,0.9740000000000001,1688725879989999.0,1688725879989537,0.13756006537005305,-0.3973166812211275,0.008999999999993236,159.33,-0.713,0.9740000000000001
85,1880000000,2023-07-07,10:31:20.000,41.22150319,1.72957548,61.693999999999996,159.27200000000002,-0.706,0.98,1688725880000000.0,1688725879999511,0.139961161010433,-0.40512464940547943,0.008999999999993236,159.27200000000002,-0.706,0.98
86,1880010000,2023-07-07,10:31:20.010,41.22150313,1.72957552,61.693999999999996,159.214,-0.701,0.988,1688725880010000.0,1688725880010567,0.14321670134086162,-0.4118346916511655,0.008999999999993236,159.214,-0.701,0.988
87,1880020000,2023-07-07,10:31:20.020,41.22150306,1.72957555,61.693999999999996,159.157,-0.6940000000000001,0.9890000000000001,1688725880019999.0,1688725880019684,0.1456177969230339,-0.4196426598355174,0.008999999999993236,159.157,-0.6940000000000001,0.9890000000000001
88,1880030000,2023-07-07,10:31:20.030,41.221503,1.72957559,61.693000000000005,159.1,-0.687,0.992,1688725880030000.0,1688725880029847,0.14887333736987785,-0.42635270301252604,0.008000000000002672,159.1,-0.687,0.992
89,1880040000,2023-07-07,10:31:20.040,41.22150293,1.72957562,61.693000000000005,159.042,-0.6809999999999999,0.993,1688725880039999.0,1688725880039844,0.15127443295205012,-0.43416067119687796,0.008000000000002672,159.042,-0.6809999999999999,0.993
90,1880050000,2023-07-07,10:31:20.050,41.22150286,1.72957565,61.693000000000005,158.984,-0.675,0.991,1688725880050000.0,1688725880049730,0.15367552847601473,-0.4419686393812299,0.008000000000002672,158.984,-0.675,0.991
91,1880060000,2023-07-07,10:31:20.060,41.22150279,1.72957569,61.693000000000005,158.924,-0.6679999999999999,0.991,1688725880059999.0,1688725880059719,0.15691484505077824,-0.44978885632008314,0.008000000000002672,158.924,-0.6679999999999999,0.991
92,1880070000,2023-07-07,10:31:20.070,41.22150272,1.72957573,61.693000000000005,158.864,-0.6629999999999999,0.99,1688725880070000.0,1688725880069666,0.16015416162554175,-0.45760907512158155,0.008000000000002672,158.864,-0.6629999999999999,0.99
93,1880080000,2023-07-07,10:31:20.080,41.22150265,1.72957577,61.693000000000005,158.80100000000002,-0.6579999999999999,0.9890000000000001,1688725880079999.0,1688725880079783,0.1633934781420976,-0.4654292929917574,0.008000000000002672,158.80100000000002,-0.6579999999999999,0.9890000000000001
94,1880090000,2023-07-07,10:31:20.090,41.22150258,1.72957581,61.692,158.736,-0.652,0.986,1688725880089999.0,1688725880089577,0.16663279477506876,-0.4732495089992881,0.006999999999997897,158.736,-0.652,0.986
95,1880100000,2023-07-07,10:31:20.100,41.22150251,1.72957584,61.692,158.66899999999998,-0.6459999999999999,0.9890000000000001,1688725880100000.0,1688725880099453,0.16903389035724103,-0.48105747625231743,0.006999999999997897,158.66899999999998,-0.6459999999999999,0.9890000000000001
96,1880110000,2023-07-07,10:31:20.110,41.22150244,1.72957588,61.692,158.599,-0.64,0.987,1688725880109999.0,1688725880109558,0.17227320687379688,-0.48887769412249327,0.006999999999997897,158.599,-0.64,0.987
97,1880120000,2023-07-07,10:31:20.120,41.22150237,1.72957592,61.692,158.52700000000002,-0.635,0.988,1688725880120000.0,1688725880119764,0.17551252350676805,-0.49669791106134653,0.006999999999997897,158.52700000000002,-0.635,0.988
98,1880130000,2023-07-07,10:31:20.130,41.22150229,1.72957596,61.692,158.453,-0.631,0.9940000000000001,1688725880129999.0,1688725880129543,0.17873561626765877,-0.5056283036246896,0.006999999999997897,158.453,-0.631,0.9940000000000001
99,1880140000,2023-07-07,10:31:20.140,41.22150221,1.729576,61.692,158.379,-0.626,0.998,1688725880140000.0,1688725880139683,0.18195870891213417,-0.51455869525671,0.006999999999997897,158.379,-0.626,0.998
100,1880150000,2023-07-07,10:31:20.150,41.22150214,1.72957605,61.691,158.30100000000002,-0.623,1.006,1688725880149999.0,1688725880149578,0.1860362464794889,-0.5223911628127098,0.006000000000000227,158.30100000000002,-0.623,1.006
101,1880160000,2023-07-07,10:31:20.160,41.22150206,1.72957609,61.691,158.219,-0.62,1.018,1688725880160000.0,1688725880159644,0.18925933924037963,-0.5313215544447303,0.006000000000000227,158.219,-0.62,1.018
102,1880170000,2023-07-07,10:31:20.170,41.22150198,1.72957613,61.691,158.135,-0.617,1.031,1688725880170000.0,1688725880169647,0.19248243200127035,-0.5402519460767508,0.006000000000000227,158.135,-0.617,1.031
103,1880180000,2023-07-07,10:31:20.180,41.22150191,1.72957618,61.691,158.05,-0.615,1.044,1688725880179999.0,1688725880179531,0.19655996962683275,-0.5480844117701054,0.006000000000000227,158.05,-0.615,1.044
104,1880190000,2023-07-07,10:31:20.190,41.22150182,1.72957622,61.691,157.964,-0.615,1.057,1688725880190000.0,1688725880189508,0.19976683845743537,-0.558124978095293,0.006000000000000227,157.964,-0.615,1.057
105,1880200000,2023-07-07,10:31:20.200,41.22150174,1.72957626,61.69,157.881,-0.612,1.061,1688725880199999.0,1688725880199523,0.2029899312183261,-0.5670553697273135,0.0049999999999954525,157.881,-0.612,1.061
106,1880210000,2023-07-07,10:31:20.210,41.22150166,1.72957632,61.69,157.799,-0.61,1.069,1688725880210000.0,1688725880209579,0.20788946596439928,-0.5760102607309818,0.0049999999999954525,157.799,-0.61,1.069
107,1880220000,2023-07-07,10:31:20.220,41.22150158,1.72957636,61.69,157.717,-0.61,1.081,1688725880219999.0,1688725880219513,0.21111255872529,-0.5849406514316797,0.0049999999999954525,157.717,-0.61,1.081
108,1880230000,2023-07-07,10:31:20.230,41.22150149,1.7295764,61.69,157.634,-0.608,1.087,1688725880230000.0,1688725880229470,0.21431942761410028,-0.59498121868819,0.0049999999999954525,157.634,-0.608,1.087
109,1880240000,2023-07-07,10:31:20.240,41.22150141,1.72957646,61.69,157.55100000000002,-0.61,1.101,1688725880239999.0,1688725880239591,0.21921896247658879,-0.6039361078292131,0.0049999999999954525,157.55100000000002,-0.61,1.101
110,1880250000,2023-07-07,10:31:20.250,41.22150132,1.72957651,61.68899999999999,157.471,-0.609,1.111,1688725880250000.0,1688725880249506,0.2232640523579903,-0.6139889238402247,0.003999999999990678,157.471,-0.609,1.111
111,1880260000,2023-07-07,10:31:20.260,41.22150123,1.72957655,61.68899999999999,157.392,-0.612,1.127,1688725880260000.0,1688725880259657,0.22647092124680057,-0.6240294892340899,0.003999999999990678,157.392,-0.612,1.127
112,1880270000,2023-07-07,10:31:20.270,41.22150114,1.72957662,61.68899999999999,157.317,-0.614,1.137,1688725880269999.0,1688725880269680,0.23219245322979987,-0.6341068046167493,0.003999999999990678,157.317,-0.614,1.137
113,1880280000,2023-07-07,10:31:20.280,41.22150105,1.72957667,61.68899999999999,157.241,-0.617,1.1440000000000001,1688725880280000.0,1688725880279626,0.23623754316940904,-0.6441596196964383,0.003999999999990678,157.241,-0.617,1.1440000000000001
114,1880290000,2023-07-07,10:31:20.290,41.22150096,1.72957672,61.68899999999999,157.162,-0.616,1.1520000000000001,1688725880289999.0,1688725880289780,0.2402826331090182,-0.6542124347761273,0.003999999999990678,157.162,-0.616,1.1520000000000001
115,1880300000,2023-07-07,10:31:20.300,41.22150087,1.72957678,61.688,157.085,-0.619,1.16,1688725880300000.0,1688725880299525,0.24516594409942627,-0.6642775004729629,0.0030000000000001137,157.085,-0.619,1.16
116,1880310000,2023-07-07,10:31:20.310,41.22150077,1.72957684,61.688,157.007,-0.621,1.166,1688725880309999.0,1688725880309713,0.2500330311595462,-0.6754527390003204,0.0030000000000001137,157.007,-0.621,1.166
117,1880320000,2023-07-07,10:31:20.320,41.22150068,1.72957689,61.688,156.929,-0.624,1.171,1688725880320000.0,1688725880319582,0.25407812115736306,-0.685505555011332,0.0030000000000001137,156.929,-0.624,1.171
118,1880330000,2023-07-07,10:31:20.330,41.22150059,1.72957696,61.688,156.85399999999998,-0.628,1.179,1688725880329999.0,1688725880329728,0.25979965319857,-0.6955828685313463,0.0030000000000001137,156.85399999999998,-0.628,1.179
119,1880340000,2023-07-07,10:31:20.340,41.22150049,1.72957701,61.688,156.776,-0.631,1.185,1688725880339999.0,1688725880339593,0.2638285193243064,-0.7067458592355251,0.0030000000000001137,156.776,-0.631,1.185
120,1880350000,2023-07-07,10:31:20.350,41.22150039,1.72957707,61.688,156.695,-0.633,1.189,1688725880350000.0,1688725880349615,0.2686956065008417,-0.7179210959002376,0.0030000000000001137,156.695,-0.633,1.189
121,1880360000,2023-07-07,10:31:20.360,41.2215003,1.72957714,61.687,156.612,-0.636,1.193,1688725880359999.0,1688725880359539,0.2744171386002563,-0.727998411282897,0.001999999999995339,156.612,-0.636,1.193
122,1880370000,2023-07-07,10:31:20.370,41.2215002,1.72957719,61.687,156.52700000000002,-0.639,1.195,1688725880370000.0,1688725880369522,0.27844600478420034,-0.7391614010557532,0.001999999999995339,156.52700000000002,-0.639,1.195
123,1880380000,2023-07-07,10:31:20.380,41.2215001,1.72957725,61.687,156.44299999999998,-0.639,1.2,1688725880379999.0,1688725880379597,0.2833130919607356,-0.7503366405144334,0.001999999999995339,156.44299999999998,-0.639,1.2
124,1880390000,2023-07-07,10:31:20.390,41.2215,1.72957732,61.687,156.361,-0.639,1.2,1688725880390000.0,1688725880389515,0.2890184001880698,-0.7615241287276149,0.001999999999995339,156.361,-0.639,1.2
125,1880400000,2023-07-07,10:31:20.400,41.22149989,1.72957738,61.687,156.269,-0.6409999999999999,1.205,1688725880399999.0,1688725880399679,0.2938692635507323,-0.7738095438107848,0.001999999999995339,156.269,-0.6409999999999999,1.205
126,1880410000,2023-07-07,10:31:20.410,41.22149979,1.72957743,61.687,156.171,-0.6409999999999999,1.208,1688725880410000.0,1688725880409591,0.297898129792884,-0.7849725307896733,0.001999999999995339,156.171,-0.6409999999999999,1.208
127,1880420000,2023-07-07,10:31:20.420,41.22149969,1.72957751,61.68600000000001,156.07399999999998,-0.64,1.212,1688725880420000.0,1688725880419570,0.3044416591292247,-0.7961722696200013,0.0010000000000047748,156.07399999999998,-0.64,1.212
128,1880430000,2023-07-07,10:31:20.430,41.22149959,1.72957757,61.68600000000001,155.97799999999998,-0.635,1.21,1688725880429999.0,1688725880429518,0.3093087464221753,-0.8073475090786815,0.0010000000000047748,155.97799999999998,-0.635,1.21
129,1880440000,2023-07-07,10:31:20.440,41.22149948,1.72957763,61.68600000000001,155.879,-0.633,1.214,1688725880440000.0,1688725880439474,0.3141596098430455,-0.8196329213678837,0.0010000000000047748,155.879,-0.633,1.214
130,1880450000,2023-07-07,10:31:20.450,41.22149938,1.7295777,61.68600000000001,155.77700000000002,-0.632,1.2209999999999999,1688725880449999.0,1688725880449492,0.31986491818679497,-0.8308204105123878,0.0010000000000047748,155.77700000000002,-0.632,1.2209999999999999
131,1880460000,2023-07-07,10:31:20.460,41.22149927,1.72957777,61.68600000000001,155.674,-0.629,1.22,1688725880460000.0,1688725880459481,0.32555400260025635,-0.8431180734187365,0.0010000000000047748,155.674,-0.629,1.22
132,1880470000,2023-07-07,10:31:20.470,41.22149916,1.72957782,61.68600000000001,155.56799999999998,-0.627,1.2229999999999999,1688725880469999.0,1688725880469494,0.32956664508674294,-0.8553912360221148,0.0010000000000047748,155.56799999999998,-0.627,1.2229999999999999
133,1880480000,2023-07-07,10:31:20.480,41.22149906,1.7295779,61.685,155.463,-0.624,1.2229999999999999,1688725880480000.0,1688725880479488,0.336110174539499,-0.8665909757837653,0.0,155.463,-0.624,1.2229999999999999
134,1880490000,2023-07-07,10:31:20.490,41.22149894,1.72957797,61.68600000000001,155.358,-0.621,1.218,1688725880489999.0,1688725880489486,0.34178303519729525,-0.8799988124519587,0.0010000000000047748,155.358,-0.621,1.218
135,1880500000,2023-07-07,10:31:20.500,41.22149883,1.72957803,61.68600000000001,155.252,-0.621,1.217,1688725880500000.0,1688725880499557,0.3466338987345807,-0.8922842256724834,0.0010000000000047748,155.252,-0.621,1.217
136,1880510000,2023-07-07,10:31:20.510,41.22149873,1.72957811,61.685,155.151,-0.618,1.206,1688725880510000.0,1688725880509523,0.3531774281873368,-0.9034839626401663,0.0,155.151,-0.618,1.206
137,1880520000,2023-07-07,10:31:20.520,41.22149861,1.72957818,61.685,155.048,-0.615,1.199,1688725880519999.0,1688725880519539,0.35885028896154836,-0.9168918002396822,0.0,155.048,-0.615,1.199
138,1880530000,2023-07-07,10:31:20.530,41.2214985,1.72957825,61.68600000000001,154.944,-0.614,1.1909999999999998,1688725880530000.0,1688725880529843,0.36453937354963273,-0.9291894622147083,0.0010000000000047748,154.944,-0.614,1.1909999999999998
139,1880540000,2023-07-07,10:31:20.540,41.22149839,1.72957834,61.685,154.843,-0.614,1.182,1688725880539999.0,1688725880539663,0.37190490029752254,-0.9415116244927049,0.0,154.843,-0.614,1.182
140,1880550000,2023-07-07,10:31:20.550,41.22149828,1.72957841,61.68600000000001,154.74200000000002,-0.611,1.168,1688725880550000.0,1688725880549571,0.3775939849438146,-0.9538092883303761,0.0010000000000047748,154.74200000000002,-0.611,1.168
141,1880560000,2023-07-07,10:31:20.560,41.22149817,1.72957848,61.68600000000001,154.643,-0.611,1.155,1688725880559999.0,1688725880559697,0.38328306964831427,-0.9661069512367249,0.0010000000000047748,154.643,-0.611,1.155
142,1880570000,2023-07-07,10:31:20.570,41.22149805,1.72957857,61.68600000000001,154.548,-0.609,1.14,1688725880570000.0,1688725880569668,0.3906323725823313,-0.9795392863452435,0.0010000000000047748,154.548,-0.609,1.14
143,1880580000,2023-07-07,10:31:20.580,41.22149794,1.72957865,61.68600000000001,154.455,-0.609,1.122,1688725880579999.0,1688725880579622,0.39715967839583755,-0.9918491980060935,0.0010000000000047748,154.455,-0.609,1.122
144,1880590000,2023-07-07,10:31:20.590,41.22149782,1.72957873,61.68600000000001,154.359,-0.611,1.1079999999999999,1688725880589999.0,1688725880589538,0.4036707602790557,-1.0052692852914333,0.0010000000000047748,154.359,-0.611,1.1079999999999999
145,1880600000,2023-07-07,10:31:20.600,41.22149771,1.72957882,61.68600000000001,154.265,-0.612,1.088,1688725880600000.0,1688725880599685,0.4110362872015685,-1.0175914475694299,0.0010000000000047748,154.265,-0.612,1.088
146,1880610000,2023-07-07,10:31:20.610,41.2214976,1.7295789,61.68600000000001,154.17,-0.61,1.065,1688725880609999.0,1688725880609804,0.41756359301507473,-1.029901361092925,0.0010000000000047748,154.17,-0.61,1.065
147,1880620000,2023-07-07,10:31:20.620,41.22149748,1.72957898,61.68600000000001,154.075,-0.608,1.043,1688725880620000.0,1688725880619619,0.42407467507291585,-1.0433214455842972,0.0010000000000047748,154.075,-0.608,1.043
148,1880630000,2023-07-07,10:31:20.630,41.22149736,1.72957908,61.68600000000001,153.984,-0.608,1.0170000000000001,1688725880629999.0,1688725880629583,0.43226219923235476,-1.0567660322412848,0.0010000000000047748,153.984,-0.608,1.0170000000000001
149,1880640000,2023-07-07,10:31:20.640,41.22149724,1.72957916,61.687,153.891,-0.609,0.992,1688725880640000.0,1688725880639791,0.4387732812901959,-1.0701861176639795,0.001999999999995339,153.891,-0.609,0.992
150,1880650000,2023-07-07,10:31:20.650,41.22149713,1.72957924,61.687,153.798,-0.61,0.9690000000000001,1688725880649999.0,1688725880649834,0.4453005872783251,-1.0824960302561522,0.001999999999995339,153.798,-0.61,0.9690000000000001
151,1880660000,2023-07-07,10:31:20.660,41.22149701,1.72957934,61.687,153.705,-0.607,0.948,1688725880660000.0,1688725880659723,0.4534881114959717,-1.0959406159818172,0.001999999999995339,153.705,-0.607,0.948
152,1880670000,2023-07-07,10:31:20.670,41.22149688,1.72957943,61.687,153.606,-0.6,0.9259999999999999,1688725880670000.0,1688725880669597,0.46082119084894657,-1.1104831267148256,0.001999999999995339,153.606,-0.6,0.9259999999999999
153,1880680000,2023-07-07,10:31:20.680,41.22149676,1.72957951,61.687,153.501,-0.598,0.909,1688725880679999.0,1688725880679494,0.467332273023203,-1.1239032121375203,0.001999999999995339,153.501,-0.598,0.909
154,1880690000,2023-07-07,10:31:20.690,41.22149664,1.72957961,61.687,153.4,-0.591,0.889,1688725880690000.0,1688725880689663,0.4755197973572649,-1.1373477978631854,0.001999999999995339,153.4,-0.591,0.889
155,1880700000,2023-07-07,10:31:20.700,41.22149651,1.7295797,61.687,153.304,-0.583,0.872,1688725880699999.0,1688725880699510,0.48285287676844746,-1.1518903076648712,0.001999999999995339,153.304,-0.583,0.872
156,1880710000,2023-07-07,10:31:20.710,41.22149639,1.72957978,61.687,153.203,-0.574,0.861,1688725880710000.0,1688725880709504,0.4893639590591192,-1.165310394950211,0.001999999999995339,153.203,-0.574,0.861
157,1880720000,2023-07-07,10:31:20.720,41.22149627,1.72957988,61.68600000000001,153.096,-0.564,0.85,1688725880719999.0,1688725880719660,0.4975514834513888,-1.1787549806758761,0.0010000000000047748,153.096,-0.564,0.85
158,1880730000,2023-07-07,10:31:20.730,41.22149614,1.72957997,61.68600000000001,152.983,-0.5529999999999999,0.8420000000000001,1688725880730000.0,1688725880729525,0.504884562920779,-1.193297490477562,0.0010000000000047748,152.983,-0.5529999999999999,0.8420000000000001
159,1880740000,2023-07-07,10:31:20.740,41.22149601,1.72958005,61.68600000000001,152.87,-0.54,0.835,1688725880739999.0,1688725880739483,0.5113794214557856,-1.2078277505934238,0.0010000000000047748,152.87,-0.54,0.835
160,1880750000,2023-07-07,10:31:20.750,41.22149588,1.72958015,61.685,152.766,-0.523,0.8190000000000001,1688725880750000.0,1688725880749511,0.5195507220923901,-1.2223825100809336,0.0,152.766,-0.523,0.8190000000000001
161,1880760000,2023-07-07,10:31:20.760,41.22149575,1.72958024,61.685,152.66,-0.505,0.807,1688725880760000.0,1688725880759639,0.5268838016781956,-1.2369250198826194,0.0,152.66,-0.505,0.807
162,1880770000,2023-07-07,10:31:20.770,41.22149562,1.72958033,61.685,152.553,-0.49,0.8,1688725880769999.0,1688725880769841,0.5342168813222088,-1.2514675296843052,0.0,152.553,-0.49,0.8
163,1880780000,2023-07-07,10:31:20.780,41.22149549,1.72958043,61.684,152.445,-0.474,0.7879999999999999,1688725880780000.0,1688725880779835,0.5423881820752285,-1.266022289171815,-0.0010000000000047748,152.445,-0.474,0.7879999999999999
164,1880790000,2023-07-07,10:31:20.790,41.22149536,1.72958052,61.683,152.332,-0.457,0.787,1688725880789999.0,1688725880789723,0.5497212618356571,-1.2805648008361459,-0.0020000000000024443,152.332,-0.457,0.787
165,1880800000,2023-07-07,10:31:20.800,41.22149522,1.72958061,61.683,152.218,-0.444,0.7879999999999999,1688725880800000.0,1688725880799823,0.5570381176657975,-1.2962174834683537,-0.0020000000000024443,152.218,-0.444,0.7879999999999999
166,1880810000,2023-07-07,10:31:20.810,41.22149509,1.72958072,61.681999999999995,152.108,-0.429,0.784,1688725880809999.0,1688725880809757,0.5660476395860314,-1.31078449357301,-0.003000000000007219,152.108,-0.429,0.784
167,1880820000,2023-07-07,10:31:20.820,41.22149496,1.72958082,61.681999999999995,152.002,-0.41200000000000003,0.775,1688725880820000.0,1688725880819831,0.5742189405718818,-1.3253392511978745,-0.003000000000007219,152.002,-0.41200000000000003,0.775
168,1880830000,2023-07-07,10:31:20.830,41.22149482,1.72958091,61.681000000000004,151.9,-0.397,0.764,1688725880829999.0,1688725880829770,0.5815357964602299,-1.3409919384866953,-0.003999999999997783,151.9,-0.397,0.764
169,1880840000,2023-07-07,10:31:20.840,41.22149469,1.72958102,61.681000000000004,151.8,-0.38299999999999995,0.758,1688725880839999.0,1688725880839634,0.5905453185550869,-1.3555589457973838,-0.003999999999997783,151.8,-0.38299999999999995,0.758
170,1880850000,2023-07-07,10:31:20.850,41.22149455,1.72958112,61.68,151.7,-0.371,0.752,1688725880850000.0,1688725880849540,0.5987003957852721,-1.3712238799780607,-0.005000000000002558,151.7,-0.371,0.752
171,1880860000,2023-07-07,10:31:20.860,41.22149441,1.72958121,61.68,151.59799999999998,-0.36,0.745,1688725880859999.0,1688725880859499,0.6060172518482432,-1.3868765644729137,-0.005000000000002558,151.59799999999998,-0.36,0.745
172,1880870000,2023-07-07,10:31:20.870,41.22149428,1.72958133,61.68,151.498,-0.349,0.74,1688725880870000.0,1688725880869724,0.6158649951103143,-1.4014558214694262,-0.005000000000002558,151.498,-0.349,0.74
173,1880880000,2023-07-07,10:31:20.880,41.22149414,1.72958143,61.678999999999995,151.395,-0.341,0.735,1688725880879999.0,1688725880879533,0.624020072282292,-1.4171207565814257,-0.006000000000007333,151.395,-0.341,0.735
174,1880890000,2023-07-07,10:31:20.890,41.221494,1.72958153,61.678999999999995,151.293,-0.336,0.727,1688725880890000.0,1688725880889836,0.6321751495706849,-1.43278568983078,-0.006000000000007333,151.293,-0.336,0.727
175,1880900000,2023-07-07,10:31:20.900,41.22149387,1.72958166,61.678999999999995,151.19799999999998,-0.331,0.7170000000000001,1688725880899999.0,1688725880899461,0.6428611141163856,-1.447377197444439,-0.006000000000007333,151.19799999999998,-0.331,0.7170000000000001
176,1880910000,2023-07-07,10:31:20.910,41.22149373,1.72958176,61.678999999999995,151.108,-0.326,0.708,1688725880910000.0,1688725880909581,0.6510161914629862,-1.4630421316251159,-0.006000000000007333,151.108,-0.326,0.708
177,1880920000,2023-07-07,10:31:20.920,41.22149359,1.72958187,61.678999999999995,151.02100000000002,-0.324,0.6990000000000001,1688725880920000.0,1688725880919638,0.6600094900350086,-1.4787193154916167,-0.006000000000007333,151.02100000000002,-0.324,0.6990000000000001
178,1880930000,2023-07-07,10:31:20.930,41.22149346,1.729582,61.678000000000004,150.931,-0.322,0.688,1688725880929999.0,1688725880929518,0.670695454638917,-1.4933108231052756,-0.006999999999997897,150.931,-0.322,0.688
179,1880940000,2023-07-07,10:31:20.940,41.22149332,1.72958211,61.678000000000004,150.83700000000002,-0.322,0.675,1688725880940000.0,1688725880939500,0.6796887532109395,-1.508988006040454,-0.006999999999997897,150.83700000000002,-0.322,0.675
180,1880950000,2023-07-07,10:31:20.950,41.22149318,1.72958221,61.678999999999995,150.744,-0.32299999999999995,0.6629999999999999,1688725880949999.0,1688725880949488,0.6878438307903707,-1.5246529392898083,-0.006000000000007333,150.744,-0.32299999999999995,0.6629999999999999
181,1880960000,2023-07-07,10:31:20.960,41.22149305,1.72958234,61.678000000000004,150.651,-0.325,0.6559999999999999,1688725880960000.0,1688725880959607,0.6985297955106944,-1.5392444478347898,-0.006999999999997897,150.651,-0.325,0.6559999999999999
182,1880970000,2023-07-07,10:31:20.970,41.2214929,1.72958245,61.678999999999995,150.559,-0.32899999999999996,0.647,1688725880969999.0,1688725880969694,0.707506870443467,-1.5560318054631352,-0.006000000000007333,150.559,-0.32899999999999996,0.647
183,1880980000,2023-07-07,10:31:20.980,41.22149276,1.72958256,61.678999999999995,150.467,-0.33399999999999996,0.633,1688725880980000.0,1688725880979666,0.7165001692483202,-1.5717089883983135,-0.006000000000007333,150.467,-0.33399999999999996,0.633
184,1880990000,2023-07-07,10:31:20.990,41.22149262,1.72958269,61.678999999999995,150.375,-0.341,0.621,1688725880989999.0,1688725880989597,0.7271699102129787,-1.5874106707051396,-0.006000000000007333,150.375,-0.341,0.621
185,1881000000,2023-07-07,10:31:21.000,41.22149248,1.72958281,61.678999999999995,150.287,-0.345,0.604,1688725881000000.0,1688725880999458,0.7370014302432537,-1.6031001033261418,-0.006000000000007333,150.287,-0.345,0.604
186,1881010000,2023-07-07,10:31:21.010,41.22149233,1.72958292,61.678999999999995,150.197,-0.34700000000000003,0.589,1688725881010000.0,1688725881010594,0.745978505234234,-1.6198874609544873,-0.006000000000007333,150.197,-0.34700000000000003,0.589
187,1881020000,2023-07-07,10:31:21.020,41.22149219,1.72958306,61.678999999999995,150.105,-0.35200000000000004,0.5770000000000001,1688725881019999.0,1688725881019634,0.7574864675989375,-1.6356013910844922,-0.006000000000007333,150.105,-0.35200000000000004,0.5770000000000001
188,1881030000,2023-07-07,10:31:21.030,41.22149204,1.72958317,61.678999999999995,150.01,-0.363,0.569,1688725881030000.0,1688725881029735,0.7664635427645408,-1.6523887487128377,-0.006000000000007333,150.01,-0.363,0.569
189,1881040000,2023-07-07,10:31:21.040,41.2214919,1.72958328,61.68,149.916,-0.371,0.562,1688725881039999.0,1688725881039675,0.7754568418022245,-1.6680659325793386,-0.005000000000002558,149.916,-0.371,0.562
190,1881050000,2023-07-07,10:31:21.050,41.22149176,1.72958342,61.678999999999995,149.81799999999998,-0.379,0.563,1688725881050000.0,1688725881049849,0.7869648042833433,-1.683779863640666,-0.006000000000007333,149.81799999999998,-0.379,0.563
191,1881060000,2023-07-07,10:31:21.060,41.22149161,1.72958354,61.68,149.718,-0.384,0.5589999999999999,1688725881059999.0,1688725881059777,0.7967801006743684,-1.700579471886158,-0.005000000000002558,149.718,-0.384,0.5589999999999999
192,1881070000,2023-07-07,10:31:21.070,41.22149145,1.72958365,61.68,149.61700000000002,-0.39,0.5529999999999999,1688725881070000.0,1688725881069526,0.805740952200722,-1.718477001413703,-0.005000000000002558,149.61700000000002,-0.39,0.5529999999999999
193,1881080000,2023-07-07,10:31:21.080,41.22149131,1.72958379,61.68,149.52200000000002,-0.39399999999999996,0.537,1688725881079999.0,1688725881079653,0.8172489148564637,-1.7341909343376756,-0.005000000000002558,149.52200000000002,-0.39399999999999996,0.537
194,1881090000,2023-07-07,10:31:21.090,41.22149116,1.72958391,61.68,149.431,-0.401,0.527,1688725881089999.0,1688725881089615,0.8270642114221118,-1.7509905397891998,-0.005000000000002558,149.431,-0.401,0.527
195,1881100000,2023-07-07,10:31:21.100,41.22149101,1.72958402,61.68,149.343,-0.408,0.515,1688725881100000.0,1688725881099744,0.8360412868787535,-1.7677778974175453,-0.005000000000002558,149.343,-0.408,0.515
196,1881110000,2023-07-07,10:31:21.110,41.22149087,1.72958416,61.68,149.254,-0.41600000000000004,0.502,1688725881109999.0,1688725881109593,0.8475492496509105,-1.7834918294101954,-0.005000000000002558,149.254,-0.41600000000000004,0.502
197,1881120000,2023-07-07,10:31:21.120,41.22149071,1.72958429,61.681000000000004,149.161,-0.425,0.488,1688725881120000.0,1688725881119578,0.8581865436863154,-1.8014138583093882,-0.003999999999997783,149.161,-0.425,0.488
198,1881130000,2023-07-07,10:31:21.130,41.22149056,1.72958441,61.681000000000004,149.067,-0.433,0.474,1688725881129999.0,1688725881129641,0.8680018404847942,-1.8182134656235576,-0.003999999999997783,149.067,-0.433,0.474
199,1881140000,2023-07-07,10:31:21.140,41.22149042,1.72958455,61.681000000000004,148.971,-0.444,0.47,1688725881140000.0,1688725881139538,0.8795098034315743,-1.833927396684885,-0.003999999999997783,148.971,-0.444,0.47
200,1881150000,2023-07-07,10:31:21.150,41.22149026,1.72958467,61.681000000000004,148.881,-0.45799999999999996,0.465,1688725881149999.0,1688725881149568,0.8893088764743879,-1.8518371786922216,-0.003999999999997783,148.881,-0.45799999999999996,0.465
201,1881160000,2023-07-07,10:31:21.160,41.22149011,1.7295848,61.681000000000004,148.79399999999998,-0.47,0.461,1688725881160000.0,1688725881159650,0.8999623944982886,-1.8686490347608924,-0.003999999999997783,148.79399999999998,-0.47,0.461
202,1881170000,2023-07-07,10:31:21.170,41.22148997,1.72958495,61.681999999999995,148.71,-0.48200000000000004,0.45899999999999996,1688725881170000.0,1688725881169528,0.9123085787286982,-1.8843752136453986,-0.003000000000007219,148.71,-0.48200000000000004,0.45899999999999996
203,1881180000,2023-07-07,10:31:21.180,41.22148981,1.72958508,61.681999999999995,148.629,-0.491,0.44799999999999995,1688725881179999.0,1688725881179548,0.9229458731133491,-1.9022972444072366,-0.003000000000007219,148.629,-0.491,0.44799999999999995
204,1881190000,2023-07-07,10:31:21.190,41.22148966,1.7295852,61.681999999999995,148.548,-0.49700000000000005,0.43799999999999994,1688725881190000.0,1688725881189496,0.9327611701446585,-1.919096851721406,-0.003000000000007219,148.548,-0.49700000000000005,0.43799999999999994
205,1881200000,2023-07-07,10:31:21.200,41.22148951,1.72958536,61.683,148.47,-0.503,0.429,1688725881199999.0,1688725881199511,0.9459293519030325,-1.9359454568475485,-0.0020000000000024443,148.47,-0.503,0.429
206,1881210000,2023-07-07,10:31:21.210,41.22148935,1.72958549,61.683,148.392,-0.511,0.428,1688725881210000.0,1688725881209515,0.9565666464623064,-1.9538674857467413,-0.0020000000000024443,148.392,-0.511,0.428
207,1881220000,2023-07-07,10:31:21.220,41.2214892,1.72958562,61.683,148.314,-0.517,0.426,1688725881219999.0,1688725881219642,0.967220164835453,-1.9706793436780572,-0.0020000000000024443,148.314,-0.517,0.426
208,1881230000,2023-07-07,10:31:21.230,41.22148905,1.72958577,61.684,148.234,-0.523,0.424,1688725881230000.0,1688725881229577,0.9795501255430281,-1.9875156972557306,-0.0010000000000047748,148.234,-0.523,0.424
209,1881240000,2023-07-07,10:31:21.240,41.2214889,1.72958591,61.684,148.15,-0.532,0.429,1688725881239999.0,1688725881239603,0.991041865258012,-2.0043398020789027,-0.0010000000000047748,148.15,-0.532,0.429
210,1881250000,2023-07-07,10:31:21.250,41.22148873,1.72958604,61.684,148.069,-0.539,0.425,1688725881250000.0,1688725881249805,1.001662936178036,-2.0233720066025853,-0.0010000000000047748,148.069,-0.539,0.425
211,1881260000,2023-07-07,10:31:21.260,41.22148859,1.7295862,61.684,147.994,-0.54,0.413,1688725881260000.0,1688725881259502,1.0148473420995288,-2.039110437966883,-0.0010000000000047748,147.994,-0.54,0.413
212,1881270000,2023-07-07,10:31:21.270,41.22148843,1.72958633,61.684,147.928,-0.541,0.40299999999999997,1688725881269999.0,1688725881269710,1.025484636949841,-2.0570324677973986,-0.0010000000000047748,147.928,-0.541,0.40299999999999997
213,1881280000,2023-07-07,10:31:21.280,41.22148827,1.72958647,61.684,147.863,-0.539,0.397,1688725881280000.0,1688725881279703,1.036960153025575,-2.0749667463824153,-0.0010000000000047748,147.863,-0.539,0.397
214,1881290000,2023-07-07,10:31:21.290,41.22148812,1.72958662,61.684,147.785,-0.541,0.401,1688725881289999.0,1688725881289843,1.0492901141988114,-2.0918031027540565,-0.0010000000000047748,147.785,-0.541,0.401
215,1881300000,2023-07-07,10:31:21.300,41.22148795,1.72958676,61.684,147.707,-0.546,0.401,1688725881300000.0,1688725881299558,1.0607494066352956,-2.110847555100918,-0.0010000000000047748,147.707,-0.546,0.401
216,1881310000,2023-07-07,10:31:21.310,41.22148779,1.7295869,61.684,147.626,-0.5479999999999999,0.401,1688725881309999.0,1688725881309648,1.0722249228856526,-2.128781834617257,-0.0010000000000047748,147.626,-0.5479999999999999,0.401
217,1881320000,2023-07-07,10:31:21.320,41.22148764,1.72958706,61.684,147.546,-0.546,0.397,1688725881320000.0,1688725881319743,1.0853931053425185,-2.145630438812077,-0.0010000000000047748,147.546,-0.546,0.397
218,1881330000,2023-07-07,10:31:21.330,41.22148748,1.7295872,61.684,147.47799999999998,-0.544,0.39399999999999996,1688725881329999.0,1688725881329707,1.0968686217674986,-2.163564719259739,-0.0010000000000047748,147.47799999999998,-0.544,0.39399999999999996
219,1881340000,2023-07-07,10:31:21.340,41.22148731,1.72958734,61.684,147.414,-0.54,0.38,1688725881339999.0,1688725881339637,1.1083279144368134,-2.1826091716066003,-0.0010000000000047748,147.414,-0.54,0.38
220,1881350000,2023-07-07,10:31:21.350,41.22148716,1.7295875,61.684,147.345,-0.5379999999999999,0.365,1688725881350000.0,1688725881349571,1.12149609712651,-2.19945777580142,-0.0010000000000047748,147.345,-0.5379999999999999,0.365
221,1881360000,2023-07-07,10:31:21.360,41.22148699,1.72958765,61.684,147.27700000000002,-0.534,0.359,1688725881359999.0,1688725881359556,1.133793611137662,-2.2185144796967506,-0.0010000000000047748,147.27700000000002,-0.534,0.359
222,1881370000,2023-07-07,10:31:21.370,41.22148683,1.72958779,61.684,147.208,-0.529,0.35700000000000004,1688725881370000.0,1688725881369810,1.145269127737265,-2.2364487582817674,-0.0010000000000047748,147.208,-0.529,0.35700000000000004
223,1881380000,2023-07-07,10:31:21.380,41.22148668,1.72958796,61.683,147.131,-0.522,0.355,1688725881379999.0,1688725881379636,1.1592755317687988,-2.253309613093734,-0.0020000000000024443,147.131,-0.522,0.355
224,1881390000,2023-07-07,10:31:21.390,41.22148651,1.7295881,61.683,147.061,-0.516,0.348,1688725881390000.0,1688725881389676,1.1707348247873597,-2.272354065440595,-0.0020000000000024443,147.061,-0.516,0.348
225,1881400000,2023-07-07,10:31:21.400,41.22148634,1.72958825,61.683,146.99200000000002,-0.508,0.342,1688725881399999.0,1688725881399780,1.1830323390313424,-2.2914107693359256,-0.0020000000000024443,146.99200000000002,-0.508,0.342
226,1881410000,2023-07-07,10:31:21.410,41.22148619,1.72958842,61.681999999999995,146.922,-0.499,0.341,1688725881410000.0,1688725881409624,1.1970387432957068,-2.308271622285247,-0.003000000000007219,146.922,-0.499,0.341
227,1881420000,2023-07-07,10:31:21.420,41.22148602,1.72958857,61.681000000000004,146.85399999999998,-0.494,0.341,1688725881420000.0,1688725881419567,1.2093362576561049,-2.3273283252492547,-0.003999999999997783,146.85399999999998,-0.494,0.341
228,1881430000,2023-07-07,10:31:21.430,41.22148585,1.72958872,61.681000000000004,146.79,-0.484,0.33399999999999996,1688725881429999.0,1688725881429531,1.221633772191126,-2.3463850282132626,-0.003999999999997783,146.79,-0.484,0.33399999999999996
229,1881440000,2023-07-07,10:31:21.440,41.22148569,1.72958889,61.68,146.72299999999998,-0.47100000000000003,0.32799999999999996,1688725881440000.0,1688725881439547,1.2356239528162405,-2.364356055855751,-0.005000000000002558,146.72299999999998,-0.47100000000000003,0.32799999999999996
230,1881450000,2023-07-07,10:31:21.450,41.22148552,1.72958904,61.68,146.661,-0.462,0.33399999999999996,1688725881449999.0,1688725881449520,1.2479214674676768,-2.3834127578884363,-0.005000000000002558,146.661,-0.462,0.33399999999999996
231,1881460000,2023-07-07,10:31:21.460,41.22148535,1.72958919,61.678999999999995,146.596,-0.449,0.332,1688725881460000.0,1688725881459507,1.2602189821191132,-2.402469460852444,-0.006000000000007333,146.596,-0.449,0.332
232,1881470000,2023-07-07,10:31:21.470,41.22148519,1.72958937,61.678999999999995,146.523,-0.44,0.33899999999999997,1688725881469999.0,1688725881469583,1.275047384260688,-2.420452737249434,-0.006000000000007333,146.523,-0.44,0.33899999999999997
233,1881480000,2023-07-07,10:31:21.480,41.22148502,1.72958952,61.678000000000004,146.459,-0.425,0.337,1688725881480000.0,1688725881479574,1.2873448990285397,-2.4395094411447644,-0.006999999999997897,146.459,-0.425,0.337
234,1881490000,2023-07-07,10:31:21.490,41.22148485,1.72958968,61.678000000000004,146.403,-0.41200000000000003,0.335,1688725881489999.0,1688725881489608,1.3004806351382285,-2.4585783928632736,-0.006999999999997897,146.403,-0.41200000000000003,0.335
235,1881500000,2023-07-07,10:31:21.500,41.22148469,1.72958986,61.677,146.34799999999998,-0.397,0.33299999999999996,1688725881500000.0,1688725881499485,1.315309037512634,-2.476561670191586,-0.008000000000002672,146.34799999999998,-0.397,0.33299999999999996
236,1881510000,2023-07-07,10:31:21.510,41.22148451,1.72959002,61.677,146.29399999999998,-0.391,0.34,1688725881510000.0,1688725881509678,1.3284285500412807,-2.4967407966032624,-0.008000000000002672,146.29399999999998,-0.391,0.34
237,1881520000,2023-07-07,10:31:21.520,41.22148434,1.72959017,61.676,146.232,-0.385,0.342,1688725881519999.0,1688725881519537,1.3407260651001707,-2.515797497704625,-0.009000000000000341,146.232,-0.385,0.342
238,1881530000,2023-07-07,10:31:21.530,41.22148417,1.72959035,61.676,146.159,-0.37799999999999995,0.34600000000000003,1688725881530000.0,1688725881529489,1.355538243893534,-2.53489095158875,-0.009000000000000341,146.159,-0.37799999999999995,0.34600000000000003
239,1881540000,2023-07-07,10:31:21.540,41.221484,1.72959051,61.675,146.099,-0.368,0.341,1688725881539999.0,1688725881539784,1.3686739803524688,-2.5539599023759365,-0.010000000000005116,146.099,-0.368,0.341
240,1881550000,2023-07-07,10:31:21.550,41.22148382,1.72959068,61.675,146.053,-0.348,0.315,1688725881550000.0,1688725881549754,1.3826317143975757,-2.5741512775421143,-0.010000000000005116,146.053,-0.348,0.315
241,1881560000,2023-07-07,10:31:21.560,41.22148365,1.72959086,61.675,146.0,-0.33899999999999997,0.309,1688725881559999.0,1688725881559800,1.3974438934819773,-2.593244729563594,-0.010000000000005116,146.0,-0.33899999999999997,0.309
242,1881570000,2023-07-07,10:31:21.570,41.22148347,1.72959103,61.674,145.957,-0.32899999999999996,0.3,1688725881570000.0,1688725881569728,1.4114016276434995,-2.6134361047297716,-0.011000000000002785,145.957,-0.32899999999999996,0.3
243,1881580000,2023-07-07,10:31:21.580,41.22148329,1.72959119,61.674,145.908,-0.317,0.295,1688725881579999.0,1688725881579692,1.4245211406960152,-2.6336152302101254,-0.011000000000002785,145.908,-0.317,0.295
244,1881590000,2023-07-07,10:31:21.590,41.22148312,1.72959138,61.673,145.844,-0.304,0.292,1688725881589999.0,1688725881589658,1.440171541296877,-2.652720931917429,-0.012000000000000455,145.844,-0.304,0.292
245,1881600000,2023-07-07,10:31:21.600,41.22148294,1.72959155,61.672,145.78799999999998,-0.29,0.282,1688725881600000.0,1688725881599643,1.4541292756912299,-2.672912306152284,-0.01300000000000523,145.78799999999998,-0.29,0.282
246,1881610000,2023-07-07,10:31:21.610,41.22148276,1.72959172,61.672,145.738,-0.272,0.267,1688725881609999.0,1688725881609713,1.468087010201998,-2.6931036822497845,-0.01300000000000523,145.738,-0.272,0.267
247,1881620000,2023-07-07,10:31:21.620,41.22148259,1.72959191,61.67100000000001,145.688,-0.254,0.266,1688725881620000.0,1688725881619530,1.4837374109774828,-2.712209382094443,-0.013999999999995794,145.688,-0.254,0.266
248,1881630000,2023-07-07,10:31:21.630,41.2214824,1.72959208,61.669,145.654,-0.226,0.259,1688725881629999.0,1688725881629544,1.4976789219654165,-2.733510931953788,-0.016000000000005343,145.654,-0.226,0.259
249,1881640000,2023-07-07,10:31:21.640,41.22148221,1.72959225,61.668,145.62,-0.19699999999999998,0.265,1688725881640000.0,1688725881639662,1.511620433011558,-2.7548124818131328,-0.017000000000003013,145.62,-0.19699999999999998,0.265
250,1881650000,2023-07-07,10:31:21.650,41.22148205,1.72959248,61.668,145.569,-0.171,0.285,1688725881649999.0,1688725881649654,1.5306399427936412,-2.772857006639242,-0.017000000000003013,145.569,-0.171,0.285
251,1881660000,2023-07-07,10:31:21.660,41.22148186,1.72959266,61.667,145.513,-0.135,0.311,1688725881660000.0,1688725881659686,1.5454196752980351,-2.7941708052530885,-0.018000000000000682,145.513,-0.135,0.311
252,1881670000,2023-07-07,10:31:21.670,41.22148166,1.72959282,61.665,145.44,-0.10800000000000001,0.344,1688725881670000.0,1688725881669516,1.5585067416541278,-2.8165702782571316,-0.020000000000003126,145.44,-0.10800000000000001,0.344
253,1881680000,2023-07-07,10:31:21.680,41.22148149,1.72959304,61.665,145.363,-0.096,0.37,1688725881679999.0,1688725881679775,1.5766718067461625,-2.835712726227939,-0.020000000000003126,145.363,-0.096,0.37
254,1881690000,2023-07-07,10:31:21.690,41.2214813,1.72959322,61.663999999999994,145.326,-0.062,0.349,1688725881690000.0,1688725881689511,1.5914515395415947,-2.857026525773108,-0.0210000000000079,145.326,-0.062,0.349
255,1881700000,2023-07-07,10:31:21.700,41.2214811,1.7295934,61.662,145.303,-0.036000000000000004,0.35,1688725881699999.0,1688725881699530,1.6062150486395694,-2.8794504990801215,-0.02300000000000324,145.303,-0.036000000000000004,0.35
256,1881710000,2023-07-07,10:31:21.710,41.22148093,1.72959362,61.662,145.267,-0.015,0.37200000000000005,1688725881710000.0,1688725881709530,1.62438011408085,-2.898592947050929,-0.02300000000000324,145.267,-0.015,0.37200000000000005
257,1881720000,2023-07-07,10:31:21.720,41.22148073,1.72959381,61.661,145.218,-0.001,0.409,1688725881719999.0,1688725881719635,1.6399818447534926,-2.9210291672497988,-0.02400000000000091,145.218,-0.001,0.409
258,1881730000,2023-07-07,10:31:21.730,41.22148053,1.72959398,61.66,145.154,0.02,0.41100000000000003,1688725881730000.0,1688725881729792,1.6539071329170838,-2.943440891802311,-0.025000000000005684,145.154,0.02,0.41100000000000003
259,1881740000,2023-07-07,10:31:21.740,41.22148035,1.72959421,61.658,145.082,0.032,0.406,1688725881739999.0,1688725881739631,1.6728941961773671,-2.963705765083432,-0.027000000000001023,145.082,0.032,0.406
260,1881750000,2023-07-07,10:31:21.750,41.22148015,1.72959439,61.657,145.029,0.04,0.418,1688725881750000.0,1688725881749586,1.6876577057410032,-2.9861297383904457,-0.028000000000005798,145.029,0.04,0.418
261,1881760000,2023-07-07,10:31:21.760,41.22147995,1.72959458,61.657,145.013,0.05,0.408,1688725881760000.0,1688725881759595,1.703259436879307,-3.008565959520638,-0.028000000000005798,145.013,0.05,0.408
262,1881770000,2023-07-07,10:31:21.770,41.22147977,1.72959481,61.655,145.001,0.054000000000000006,0.402,1688725881769999.0,1688725881769845,1.7222465004306287,-3.028830830939114,-0.030000000000001137,145.001,0.054000000000000006,0.402
263,1881780000,2023-07-07,10:31:21.780,41.22147957,1.72959501,61.655,144.97899999999998,0.047,0.408,1688725881780000.0,1688725881779748,1.7386864529689774,-3.051279302686453,-0.030000000000001137,144.97899999999998,0.047,0.408
264,1881790000,2023-07-07,10:31:21.790,41.22147937,1.72959519,61.655,144.939,0.042,0.413,1688725881789999.0,1688725881789746,1.7534499629982747,-3.073703275062144,-0.030000000000001137,144.939,0.042,0.413
