, Time(), Date, Local Time, Latitude(deg), Longitude(deg), Altitude(m), Heading(deg), Pitch(deg), Roll(deg),TimestampGPS,TimestampHDF,x,y,z,heading,pitch,roll
0,2079250000,2023-07-07,10:34:39.250,41.22070849,1.73106458,59.9,340.43199999999996,-0.08199999999999999,-0.237,1688726079250000.0,1688726078252038,0.0,0.0,0.0,340.43199999999996,-0.08199999999999999,-0.237
1,2079260000,2023-07-07,10:34:39.260,41.22070852,1.73106456,59.9,340.421,-0.079,-0.235,1688726079259999.0,1688726078262051,-0.0016278482507914305,0.0033549917861819267,0.0,340.421,-0.079,-0.235
2,2079270000,2023-07-07,10:34:39.270,41.22070856,1.73106455,59.9,340.411,-0.078,-0.228,1688726079270000.0,1688726078272053,-0.002401260833721608,0.0078079234808683395,0.0,340.411,-0.078,-0.228
3,2079280000,2023-07-07,10:34:39.280,41.22070859,1.73106454,59.9,340.402,-0.077,-0.22399999999999998,1688726079280000.0,1688726078282245,-0.0031908779055811465,0.011150679551064968,0.0,340.402,-0.077,-0.22399999999999998
4,2079290000,2023-07-07,10:34:39.290,41.22070862,1.73106452,59.9,340.394,-0.075,-0.221,1688726079289999.0,1688726078292355,-0.004818726098164916,0.01450567226856947,0.0,340.394,-0.075,-0.221
5,2079300000,2023-07-07,10:34:39.300,41.22070866,1.73106451,59.898999999999994,340.384,-0.076,-0.214,1688726079299999.0,1688726078302193,-0.0055921386810950935,0.018958603031933308,-0.0010000000000047748,340.384,-0.076,-0.214
6,2079310000,2023-07-07,10:34:39.310,41.22070869,1.73106449,59.898999999999994,340.37199999999996,-0.07200000000000001,-0.21100000000000002,1688726079310000.0,1688726078312200,-0.007219986931886524,0.02231359574943781,-0.0010000000000047748,340.37199999999996,-0.07200000000000001,-0.21100000000000002
7,2079320000,2023-07-07,10:34:39.320,41.22070872,1.73106448,59.898999999999994,340.36199999999997,-0.068,-0.205,1688726079320000.0,1688726078322220,-0.008009604120161384,0.025656351819634438,-0.0010000000000047748,340.36199999999997,-0.068,-0.205
8,2079330000,2023-07-07,10:34:39.330,41.22070876,1.73106446,59.898999999999994,340.352,-0.067,-0.198,1688726079329999.0,1688726078332188,-0.009621247707400471,0.030121517367661,-0.0010000000000047748,340.352,-0.067,-0.198
9,2079340000,2023-07-07,10:34:39.340,41.2207088,1.73106444,59.898999999999994,340.341,-0.065,-0.19699999999999998,1688726079340000.0,1688726078342151,-0.011232891294639558,0.034586683847010136,-0.0010000000000047748,340.341,-0.065,-0.19699999999999998
10,2079350000,2023-07-07,10:34:39.350,41.22070883,1.73106443,59.898999999999994,340.33,-0.061,-0.192,1688726079350000.0,1688726078352216,-0.012022508424706757,0.03792944084852934,-0.0010000000000047748,340.33,-0.061,-0.192
11,2079360000,2023-07-07,10:34:39.360,41.22070887,1.73106441,59.898,340.32099999999997,-0.059000000000000004,-0.188,1688726079359999.0,1688726078362103,-0.013634152011945844,0.04239460825920105,-0.001999999999995339,340.32099999999997,-0.059000000000000004,-0.188
12,2079370000,2023-07-07,10:34:39.370,41.2207089,1.7310644,59.898,340.309,-0.054000000000000006,-0.187,1688726079369999.0,1688726078372047,-0.014423769142013043,0.04573736432939768,-0.001999999999995339,340.309,-0.054000000000000006,-0.187
13,2079380000,2023-07-07,10:34:39.380,41.22070894,1.73106438,59.898,340.295,-0.052000000000000005,-0.18,1688726079380000.0,1688726078382018,-0.01603541272925213,0.05020252987742424,-0.001999999999995339,340.295,-0.052000000000000005,-0.18
14,2079390000,2023-07-07,10:34:39.390,41.22070898,1.73106436,59.898,340.282,-0.05,-0.179,1688726079390000.0,1688726078392300,-0.017647056374698877,0.054667696356773376,-0.001999999999995339,340.282,-0.05,-0.179
15,2079400000,2023-07-07,10:34:39.400,41.22070902,1.73106435,59.898,340.26800000000003,-0.045,-0.179,1688726079399999.0,1688726078402054,-0.018420468841213733,0.05912062618881464,-0.001999999999995339,340.26800000000003,-0.045,-0.179
16,2079410000,2023-07-07,10:34:39.410,41.22070905,1.73106433,59.897,340.25199999999995,-0.043,-0.17300000000000001,1688726079409999.0,1688726078412163,-0.020048317092005163,0.062475619837641716,-0.0030000000000001137,340.25199999999995,-0.043,-0.17300000000000001
17,2079420000,2023-07-07,10:34:39.420,41.22070909,1.73106431,59.897,340.23800000000006,-0.04,-0.174,1688726079420000.0,1688726078422054,-0.02165996062103659,0.06694078538566828,-0.0030000000000001137,340.23800000000006,-0.04,-0.174
18,2079430000,2023-07-07,10:34:39.430,41.22070913,1.7310643,59.897,340.221,-0.039,-0.172,1688726079429999.0,1688726078432068,-0.022433373145759106,0.07139371614903212,-0.0030000000000001137,340.221,-0.039,-0.172
19,2079440000,2023-07-07,10:34:39.440,41.22070917,1.73106428,59.897,340.20300000000003,-0.039,-0.17,1688726079439999.0,1688726078441985,-0.02404501667479053,0.07585888262838125,-0.0030000000000001137,340.20300000000003,-0.039,-0.17
20,2079450000,2023-07-07,10:34:39.450,41.22070921,1.73106426,59.897,340.186,-0.036000000000000004,-0.17,1688726079450000.0,1688726078452043,-0.02565666032023728,0.08032404817640781,-0.0030000000000001137,340.186,-0.036000000000000004,-0.17
21,2079460000,2023-07-07,10:34:39.460,41.22070925,1.73106425,59.897,340.165,-0.036000000000000004,-0.166,1688726079460000.0,1688726078462058,-0.026430072844959795,0.08477697893977165,-0.0030000000000001137,340.165,-0.036000000000000004,-0.166
22,2079470000,2023-07-07,10:34:39.470,41.22070929,1.73106423,59.897,340.144,-0.032,-0.16699999999999998,1688726079469999.0,1688726078472146,-0.02804171637399122,0.08924214541912079,-0.0030000000000001137,340.144,-0.032,-0.16699999999999998
23,2079480000,2023-07-07,10:34:39.480,41.22070933,1.73106421,59.896,340.125,-0.03,-0.168,1688726079479999.0,1688726078482037,-0.029653359961230308,0.09370731096714735,-0.003999999999997783,340.125,-0.03,-0.168
24,2079490000,2023-07-07,10:34:39.490,41.22070937,1.73106419,59.896,340.105,-0.027000000000000003,-0.16399999999999998,1688726079490000.0,1688726078492040,-0.031265003548469394,0.09817247837781906,-0.003999999999997783,340.105,-0.027000000000000003,-0.16399999999999998
25,2079500000,2023-07-07,10:34:39.500,41.22070941,1.73106418,59.896,340.084,-0.025,-0.162,1688726079500000.0,1688726078502160,-0.03203841595677659,0.10262540727853775,-0.003999999999997783,340.084,-0.025,-0.162
26,2079510000,2023-07-07,10:34:39.510,41.22070946,1.73106416,59.896,340.06199999999995,-0.025,-0.157,1688726079509999.0,1688726078512026,-0.03363385488046333,0.1082007484510541,-0.003999999999997783,340.06199999999995,-0.025,-0.157
27,2079520000,2023-07-07,10:34:39.520,41.2207095,1.73106414,59.896,340.038,-0.022000000000000002,-0.155,1688726079520000.0,1688726078521905,-0.03524549846770242,0.11266591493040323,-0.003999999999997783,340.038,-0.022000000000000002,-0.155
28,2079530000,2023-07-07,10:34:39.530,41.22070954,1.73106412,59.896,340.015,-0.02,-0.153,1688726079530000.0,1688726078532130,-0.036857141996733844,0.1171310804784298,-0.003999999999997783,340.015,-0.02,-0.153
29,2079540000,2023-07-07,10:34:39.540,41.22070959,1.73106411,59.896,339.994,-0.019,-0.147,1688726079539999.0,1688726078542154,-0.03761434991611168,0.12269418407231569,-0.003999999999997783,339.994,-0.019,-0.147
30,2079550000,2023-07-07,10:34:39.550,41.22070963,1.73106409,59.896,339.973,-0.016,-0.145,1688726079549999.0,1688726078552194,-0.03922599338693544,0.12715935055166483,-0.003999999999997783,339.973,-0.016,-0.145
31,2079560000,2023-07-07,10:34:39.560,41.22070967,1.73106407,59.896,339.95,-0.013999999999999999,-0.139,1688726079560000.0,1688726078562231,-0.04083763697417453,0.13162451796233654,-0.003999999999997783,339.95,-0.013999999999999999,-0.139
32,2079570000,2023-07-07,10:34:39.570,41.22070972,1.73106405,59.896,339.92800000000005,-0.013000000000000001,-0.135,1688726079570000.0,1688726078572166,-0.04243307589786127,0.13719985727220774,-0.003999999999997783,339.92800000000005,-0.013000000000000001,-0.135
33,2079580000,2023-07-07,10:34:39.580,41.22070976,1.73106403,59.896,339.905,-0.01,-0.131,1688726079579999.0,1688726078582146,-0.0440447194268927,0.14166502375155687,-0.003999999999997783,339.905,-0.01,-0.131
34,2079590000,2023-07-07,10:34:39.590,41.22070981,1.73106401,59.896,339.88199999999995,-0.01,-0.126,1688726079590000.0,1688726078592340,-0.04564015829237178,0.14724036306142807,-0.003999999999997783,339.88199999999995,-0.01,-0.126
35,2079600000,2023-07-07,10:34:39.600,41.22070986,1.73106399,59.896,339.86199999999997,-0.009000000000000001,-0.124,1688726079600000.0,1688726078602145,-0.04723559721605852,0.15281570330262184,-0.003999999999997783,339.86199999999997,-0.009000000000000001,-0.124
36,2079610000,2023-07-07,10:34:39.610,41.2207099,1.73106397,59.896,339.84,-0.006999999999999999,-0.12300000000000001,1688726079609999.0,1688726078612097,-0.04884724074508995,0.15728086978197098,-0.003999999999997783,339.84,-0.006999999999999999,-0.12300000000000001
37,2079620000,2023-07-07,10:34:39.620,41.22070994,1.73106395,59.895,339.816,-0.006,-0.11900000000000001,1688726079619999.0,1688726078622174,-0.050458884274121374,0.16174603532999754,-0.0049999999999954525,339.816,-0.006,-0.11900000000000001
38,2079630000,2023-07-07,10:34:39.630,41.22071,1.73106393,59.895,339.796,-0.001,-0.12,1688726079630000.0,1688726078632335,-0.052038118592463434,0.16843154840171337,-0.0049999999999954525,339.796,-0.001,-0.12
39,2079640000,2023-07-07,10:34:39.640,41.22071004,1.7310639,59.895,339.774,0.001,-0.122,1688726079640000.0,1688726078642086,-0.05448799312580377,0.1729089505970478,-0.0049999999999954525,339.774,0.001,-0.122
40,2079650000,2023-07-07,10:34:39.650,41.22071009,1.73106388,59.895,339.751,0.002,-0.121,1688726079649999.0,1688726078652229,-0.05608343204949051,0.178484289906919,-0.0049999999999954525,339.751,0.002,-0.121
41,2079660000,2023-07-07,10:34:39.660,41.22071014,1.73106386,59.895,339.72900000000004,0.003,-0.121,1688726079659999.0,1688726078662051,-0.05767887091496959,0.18405963201075792,-0.0049999999999954525,339.72900000000004,0.003,-0.121
42,2079670000,2023-07-07,10:34:39.670,41.22071019,1.73106383,59.895,339.70599999999996,0.006,-0.121,1688726079670000.0,1688726078672045,-0.060112540784757584,0.18964720610529184,-0.0049999999999954525,339.70599999999996,0.006,-0.121
43,2079680000,2023-07-07,10:34:39.680,41.22071023,1.73106381,59.895,339.68199999999996,0.008,-0.122,1688726079679999.0,1688726078682013,-0.06172418431378901,0.1941123716533184,-0.0049999999999954525,339.68199999999996,0.008,-0.122
44,2079690000,2023-07-07,10:34:39.690,41.22071029,1.73106379,59.895,339.658,0.006999999999999999,-0.125,1688726079689999.0,1688726078692030,-0.06330341851571575,0.2007978856563568,-0.0049999999999954525,339.658,0.006999999999999999,-0.125
45,2079700000,2023-07-07,10:34:39.700,41.22071034,1.73106376,59.895,339.63199999999995,0.009000000000000001,-0.122,1688726079700000.0,1688726078702103,-0.06573708850191906,0.2063854606822133,-0.0049999999999954525,339.63199999999995,0.009000000000000001,-0.122
46,2079710000,2023-07-07,10:34:39.710,41.22071038,1.73106374,59.895,339.608,0.011000000000000001,-0.121,1688726079710000.0,1688726078712174,-0.06734873197274283,0.21085062716156244,-0.0049999999999954525,339.608,0.011000000000000001,-0.121
47,2078720000,2023-07-07,10:34:38.720,41.22071044,1.73106371,59.895,339.58099999999996,0.013000000000000001,-0.121,1688726078719999.0,1688726078722110,-0.0697661972953938,0.21754837688058615,-0.0049999999999954525,339.58099999999996,0.013000000000000001,-0.121
48,2078730000,2023-07-07,10:34:38.730,41.22071049,1.73106369,59.895,339.55,0.017,-0.121,1688726078729999.0,1688726078732059,-0.07136163610266522,0.22312371712177992,-0.0049999999999954525,339.55,0.017,-0.121
49,2078740000,2023-07-07,10:34:38.740,41.22071054,1.73106367,59.895,339.51800000000003,0.02,-0.122,1688726078740000.0,1688726078742023,-0.0729570749681443,0.22869905643165112,-0.0049999999999954525,339.51800000000003,0.02,-0.122
50,2078750000,2023-07-07,10:34:38.750,41.2207106,1.73106364,59.894,339.48699999999997,0.023,-0.11900000000000001,1688726078750000.0,1688726078752041,-0.0753745402325876,0.23539680521935225,-0.006000000000000227,339.48699999999997,0.023,-0.11900000000000001
51,2078760000,2023-07-07,10:34:38.760,41.22071065,1.73106362,59.894,339.454,0.027000000000000003,-0.12,1688726078759999.0,1688726078762145,-0.07696997903985903,0.24097214546054602,-0.006000000000000227,339.454,0.027000000000000003,-0.12
52,2078770000,2023-07-07,10:34:38.770,41.2207107,1.73106359,59.894,339.41900000000004,0.033,-0.12,1688726078770000.0,1688726078772266,-0.07940364896785468,0.2465597204864025,-0.006000000000000227,339.41900000000004,0.033,-0.12
53,2078780000,2023-07-07,10:34:38.780,41.22071076,1.73106357,59.895,339.38,0.038,-0.12,1688726078780000.0,1688726078782283,-0.08098288316978142,0.2532452344894409,-0.0049999999999954525,339.38,0.038,-0.12
54,2078790000,2023-07-07,10:34:38.790,41.22071081,1.73106354,59.894,339.339,0.045,-0.11800000000000001,1688726078789999.0,1688726078792161,-0.08341655303956941,0.2588328095152974,-0.006000000000000227,339.339,0.045,-0.11800000000000001
55,2078800000,2023-07-07,10:34:38.800,41.22071087,1.73106352,59.894,339.29699999999997,0.052000000000000005,-0.11900000000000001,1688726078799999.0,1688726078801988,-0.08499578724149615,0.26551832258701324,-0.006000000000000227,339.29699999999997,0.052000000000000005,-0.11900000000000001
56,2078810000,2023-07-07,10:34:38.810,41.22071093,1.73106349,59.894,339.25699999999995,0.057999999999999996,-0.12,1688726078810000.0,1688726078812208,-0.08741325250593945,0.2722160732373595,-0.006000000000000227,339.25699999999995,0.057999999999999996,-0.12
57,2078820000,2023-07-07,10:34:38.820,41.22071099,1.73106347,59.894,339.218,0.068,-0.11699999999999999,1688726078820000.0,1688726078822237,-0.08899248664965853,0.27890158630907536,-0.006000000000000227,339.218,0.068,-0.11699999999999999
58,2078830000,2023-07-07,10:34:38.830,41.22071104,1.73106344,59.894,339.17699999999996,0.076,-0.115,1688726078829999.0,1688726078832222,-0.09142615651944652,0.28448916133493185,-0.006000000000000227,339.17699999999996,0.076,-0.115
59,2078840000,2023-07-07,10:34:38.840,41.22071111,1.73106342,59.894,339.13599999999997,0.086,-0.114,1688726078840000.0,1688726078842248,-0.09298918605782092,0.29228485096246004,-0.006000000000000227,339.13599999999997,0.086,-0.114
60,2078850000,2023-07-07,10:34:38.850,41.22071117,1.73106339,59.894,339.094,0.094,-0.109,1688726078850000.0,1688726078852166,-0.09540665126405656,0.2989825988188386,-0.006000000000000227,339.094,0.094,-0.109
61,2078860000,2023-07-07,10:34:38.860,41.22071122,1.73106336,59.893,339.05199999999996,0.102,-0.099,1688726078859999.0,1688726078862047,-0.09784032119205222,0.3045701729133725,-0.006999999999997897,339.05199999999996,0.102,-0.099
62,2078870000,2023-07-07,10:34:38.870,41.22071129,1.73106333,59.893,339.014,0.113,-0.092,1688726078869999.0,1688726078872261,-0.10024158167652786,0.31237809639424086,-0.006999999999997897,339.014,0.113,-0.092
63,2078880000,2023-07-07,10:34:38.880,41.22071135,1.7310633,59.893,338.974,0.124,-0.08199999999999999,1688726078880000.0,1688726078882051,-0.1026590468827635,0.31907584704458714,-0.006999999999997897,338.974,0.124,-0.08199999999999999
64,2078890000,2023-07-07,10:34:38.890,41.22071141,1.73106328,59.893,338.93300000000005,0.134,-0.073,1688726078890000.0,1688726078892254,-0.10423828102648258,0.32576136011630297,-0.006999999999997897,338.93300000000005,0.134,-0.073
65,2078900000,2023-07-07,10:34:38.900,41.22071147,1.73106325,59.893,338.89099999999996,0.14300000000000002,-0.064,1688726078899999.0,1688726078902130,-0.10665574623271823,0.3324591089040041,-0.006999999999997897,338.89099999999996,0.14300000000000002,-0.064
66,2078910000,2023-07-07,10:34:38.910,41.22071154,1.73106322,59.891999999999996,338.851,0.154,-0.054000000000000006,1688726078909999.0,1688726078912220,-0.10905700671719387,0.340267033316195,-0.008000000000002672,338.851,0.154,-0.054000000000000006
67,2078920000,2023-07-07,10:34:38.920,41.2207116,1.73106319,59.891999999999996,338.811,0.16399999999999998,-0.045,1688726078920000.0,1688726078922028,-0.11147447192342952,0.346964780241251,-0.008000000000002672,338.811,0.16399999999999998,-0.045
68,2078930000,2023-07-07,10:34:38.930,41.22071166,1.73106316,59.891999999999996,338.77,0.174,-0.035,1688726078929999.0,1688726078932234,-0.11389193712966517,0.3536625299602747,-0.008000000000002672,338.77,0.174,-0.035
69,2078940000,2023-07-07,10:34:38.940,41.22071173,1.73106313,59.891000000000005,338.726,0.18600000000000003,-0.026000000000000002,1688726078939999.0,1688726078942114,-0.11629319761414081,0.36147045344114304,-0.008999999999993236,338.726,0.18600000000000003,-0.026000000000000002
70,2078950000,2023-07-07,10:34:38.950,41.22071179,1.7310631,59.891000000000005,338.68199999999996,0.19699999999999998,-0.018000000000000002,1688726078950000.0,1688726078952145,-0.1187106627621688,0.36816820316016674,-0.008999999999993236,338.68199999999996,0.19699999999999998,-0.018000000000000002
71,2078960000,2023-07-07,10:34:38.960,41.22071186,1.73106307,59.891000000000005,338.63699999999994,0.209,-0.011000000000000001,1688726078960000.0,1688726078962033,-0.1211119233048521,0.3759761257097125,-0.008999999999993236,338.63699999999994,0.209,-0.011000000000000001
72,2078970000,2023-07-07,10:34:38.970,41.22071193,1.73106304,59.89,338.588,0.21899999999999997,0.001,1688726078969999.0,1688726078972197,-0.12351318378932774,0.38378404919058084,-0.00999999999999801,338.588,0.21899999999999997,0.001
73,2078980000,2023-07-07,10:34:38.980,41.220712,1.73106301,59.89,338.539,0.22899999999999998,0.011000000000000001,1688726078979999.0,1688726078982181,-0.12591444427380338,0.3915919717401266,-0.00999999999999801,338.539,0.22899999999999998,0.011000000000000001
74,2078990000,2023-07-07,10:34:38.990,41.22071207,1.73106298,59.89,338.491,0.24100000000000002,0.019,1688726078990000.0,1688726078992215,-0.12831570475827903,0.3993998942896724,-0.00999999999999801,338.491,0.24100000000000002,0.019
75,2079000000,2023-07-07,10:34:39.000,41.22071214,1.73106295,59.888999999999996,338.44199999999995,0.254,0.03,1688726079000000.0,1688726079002137,-0.13071696524275467,0.4072078187018633,-0.011000000000002785,338.44199999999995,0.254,0.03
76,2079010000,2023-07-07,10:34:39.010,41.22071221,1.73106291,59.888999999999996,338.39099999999996,0.265,0.040999999999999995,1688726079009999.0,1688726079013230,-0.13395645673153922,0.4150279760360718,-0.011000000000002785,338.39099999999996,0.265,0.040999999999999995
77,2079020000,2023-07-07,10:34:39.020,41.22071228,1.73106288,59.888000000000005,338.335,0.275,0.053,1688726079020000.0,1688726079022115,-0.1363577171578072,0.4228358995169401,-0.01199999999999335,338.335,0.275,0.053
78,2079030000,2023-07-07,10:34:39.030,41.22071236,1.73106285,59.888000000000005,338.284,0.285,0.064,1688726079030000.0,1688726079032201,-0.13874277303693816,0.4317539967596531,-0.01199999999999335,338.284,0.285,0.064
79,2079040000,2023-07-07,10:34:39.040,41.22071243,1.73106281,59.888000000000005,338.233,0.293,0.08199999999999999,1688726079039999.0,1688726079042234,-0.1419822645257227,0.4395741540938616,-0.01199999999999335,338.233,0.293,0.08199999999999999
80,2079050000,2023-07-07,10:34:39.050,41.22071251,1.73106278,59.887,338.17800000000005,0.301,0.102,1688726079049999.0,1688726079052166,-0.14436732028843835,0.44849225133657455,-0.012999999999998124,338.17800000000005,0.301,0.102
81,2079060000,2023-07-07,10:34:39.060,41.22071258,1.73106274,59.887,338.12300000000005,0.304,0.12,1688726079060000.0,1688726079062147,-0.1476068117772229,0.4563124105334282,-0.012999999999998124,338.12300000000005,0.304,0.12
82,2079070000,2023-07-07,10:34:39.070,41.22071266,1.7310627,59.887,338.06800000000004,0.309,0.133,1688726079070000.0,1688726079072390,-0.15083009854424745,0.4652427416294813,-0.012999999999998124,338.06800000000004,0.309,0.133
83,2079080000,2023-07-07,10:34:39.080,41.22071274,1.73106266,59.887,338.01,0.315,0.145,1688726079079999.0,1688726079082322,-0.15405338536947966,0.4741730745881796,-0.012999999999998124,338.01,0.315,0.145
84,2079090000,2023-07-07,10:34:39.090,41.22071282,1.73106263,59.886,337.95599999999996,0.319,0.158,1688726079090000.0,1688726079092195,-0.15643844107398763,0.48309117089957,-0.013999999999995794,337.95599999999996,0.319,0.158
85,2079100000,2023-07-07,10:34:39.100,41.22071289,1.73106259,59.886,337.903,0.32299999999999995,0.166,1688726079100000.0,1688726079102035,-0.15967793256277218,0.49091132916510105,-0.013999999999995794,337.903,0.32299999999999995,0.166
86,2079110000,2023-07-07,10:34:39.110,41.22071297,1.73106255,59.886,337.846,0.327,0.17300000000000001,1688726079109999.0,1688726079112144,-0.16290121932979673,0.4998416621237993,-0.013999999999995794,337.846,0.327,0.17300000000000001
87,2079120000,2023-07-07,10:34:39.120,41.22071306,1.7310625,59.886,337.791,0.33,0.179,1688726079119999.0,1688726079122295,-0.1669465324957855,0.509894403629005,-0.013999999999995794,337.791,0.33,0.179
88,2079130000,2023-07-07,10:34:39.130,41.22071313,1.73106246,59.886,337.735,0.332,0.185,1688726079130000.0,1688726079132119,-0.17018602386815473,0.5177145609632134,-0.013999999999995794,337.735,0.332,0.185
89,2079140000,2023-07-07,10:34:39.140,41.22071322,1.73106242,59.886,337.67400000000004,0.335,0.188,1688726079140000.0,1688726079142061,-0.17339310591341928,0.5277550667524338,-0.013999999999995794,337.67400000000004,0.335,0.188
90,2079150000,2023-07-07,10:34:39.150,41.2207133,1.73106237,59.886,337.615,0.33399999999999996,0.19,1688726079149999.0,1688726079152246,-0.17745462368475273,0.5366976354271173,-0.013999999999995794,337.615,0.33399999999999996,0.19
91,2079160000,2023-07-07,10:34:39.160,41.22071338,1.73106233,59.886,337.556,0.332,0.184,1688726079159999.0,1688726079162166,-0.18067791039356962,0.5456279683858156,-0.013999999999995794,337.556,0.332,0.184
92,2079170000,2023-07-07,10:34:39.170,41.22071347,1.73106228,59.886,337.496,0.331,0.18,1688726079170000.0,1688726079172039,-0.18472322350135073,0.5556807089596987,-0.013999999999995794,337.496,0.331,0.18
93,2079180000,2023-07-07,10:34:39.180,41.22071355,1.73106224,59.886,337.44,0.327,0.171,1688726079179999.0,1688726079182177,-0.18794651021016762,0.5646110409870744,-0.013999999999995794,337.44,0.327,0.171
94,2079190000,2023-07-07,10:34:39.190,41.22071363,1.73106219,59.887,337.38199999999995,0.324,0.165,1688726079189999.0,1688726079192082,-0.19200802786508575,0.5735536077991128,-0.012999999999998124,337.38199999999995,0.324,0.165
95,2079200000,2023-07-07,10:34:39.200,41.22071372,1.73106214,59.887,337.315,0.319,0.162,1688726079200000.0,1688726079202173,-0.19605334097286686,0.5836063493043184,-0.012999999999998124,337.315,0.319,0.162
96,2079210000,2023-07-07,10:34:39.210,41.22071381,1.73106209,59.887,337.249,0.315,0.156,1688726079210000.0,1688726079212037,-0.20009865396423265,0.5936590898782015,-0.012999999999998124,337.249,0.315,0.156
97,2079220000,2023-07-07,10:34:39.220,41.22071389,1.73106205,59.887,337.181,0.311,0.151,1688726079219999.0,1688726079222036,-0.20332194061484188,0.6025894237682223,-0.012999999999998124,337.181,0.311,0.151
98,2079230000,2023-07-07,10:34:39.230,41.22071399,1.731062,59.888000000000005,337.11,0.305,0.149,1688726079229999.0,1688726079232175,-0.20735104894265532,0.6137523390352726,-0.01199999999999335,337.11,0.305,0.149
99,2079240000,2023-07-07,10:34:39.240,41.22071408,1.73106195,59.888000000000005,337.043,0.299,0.14400000000000002,1688726079240000.0,1688726079242220,-0.21139636187581345,0.6238050814718008,-0.01199999999999335,337.043,0.299,0.14400000000000002
100,2079250000,2023-07-07,10:34:39.250,41.22071416,1.7310619,59.888000000000005,336.976,0.293,0.135,1688726079250000.0,1688726079251907,-0.2154578795307316,0.6327476482838392,-0.01199999999999335,336.976,0.293,0.135
101,2079260000,2023-07-07,10:34:39.260,41.22071426,1.73106185,59.888999999999996,336.904,0.287,0.13,1688726079259999.0,1688726079262132,-0.21948698785854504,0.6439105626195669,-0.011000000000002785,336.904,0.287,0.13
102,2079270000,2023-07-07,10:34:39.270,41.22071435,1.7310618,59.888999999999996,336.829,0.27899999999999997,0.128,1688726079270000.0,1688726079271983,-0.22353230079170316,0.6539633059874177,-0.011000000000002785,336.829,0.27899999999999997,0.128
103,2079280000,2023-07-07,10:34:39.280,41.22071444,1.73106175,59.89,336.75300000000004,0.273,0.126,1688726079280000.0,1688726079282301,-0.2275776137248613,0.6640160456299782,-0.00999999999999801,336.75300000000004,0.273,0.126
104,2079290000,2023-07-07,10:34:39.290,41.22071453,1.7310617,59.89,336.67199999999997,0.265,0.12300000000000001,1688726079289999.0,1688726079292348,-0.23162292665801942,0.6740687871351838,-0.00999999999999801,336.67199999999997,0.265,0.12300000000000001
105,2079300000,2023-07-07,10:34:39.300,41.22071463,1.73106165,59.89,336.598,0.26,0.12300000000000001,1688726079299999.0,1688726079302318,-0.23565203486941755,0.6852317033335567,-0.00999999999999801,336.598,0.26,0.12300000000000001
106,2079310000,2023-07-07,10:34:39.310,41.22071472,1.73106159,59.891000000000005,336.526,0.255,0.12300000000000001,1688726079310000.0,1688726079312098,-0.24053557886509225,0.6952966786921024,-0.008999999999993236,336.526,0.255,0.12300000000000001
107,2079320000,2023-07-07,10:34:39.320,41.22071482,1.73106154,59.891000000000005,336.44699999999995,0.247,0.125,1688726079320000.0,1688726079322194,-0.2445646870182827,0.7064595939591527,-0.008999999999993236,336.44699999999995,0.247,0.125
108,2079330000,2023-07-07,10:34:39.330,41.22071491,1.73106148,59.891000000000005,336.37,0.244,0.126,1688726079329999.0,1688726079332233,-0.2494482308975421,0.716524570249021,-0.008999999999993236,336.37,0.244,0.126
109,2079340000,2023-07-07,10:34:39.340,41.220715,1.73106143,59.891999999999996,336.289,0.24100000000000002,0.127,1688726079340000.0,1688726079342190,-0.2534935437142849,0.7265773126855493,-0.008000000000002672,336.289,0.24100000000000002,0.127
110,2079350000,2023-07-07,10:34:39.350,41.2207151,1.73106137,59.891999999999996,336.205,0.239,0.122,1688726079350000.0,1688726079352293,-0.25836088292999193,0.7377524627372622,-0.008000000000002672,336.205,0.239,0.122
111,2079360000,2023-07-07,10:34:39.360,41.2207152,1.73106131,59.891999999999996,336.13,0.237,0.115,1688726079359999.0,1688726079362239,-0.2632282220874913,0.7489276137202978,-0.008000000000002672,336.13,0.237,0.115
112,2079370000,2023-07-07,10:34:39.370,41.2207153,1.73106126,59.893,336.056,0.23600000000000002,0.10400000000000001,1688726079369999.0,1688726079372032,-0.2672573301824741,0.7600905289873481,-0.006999999999997897,336.056,0.23600000000000002,0.10400000000000001
113,2079380000,2023-07-07,10:34:39.380,41.2207154,1.7310612,59.893,335.976,0.23199999999999998,0.1,1688726079380000.0,1688726079382041,-0.2721246693399735,0.7712656799703836,-0.006999999999997897,335.976,0.23199999999999998,0.1
114,2079390000,2023-07-07,10:34:39.390,41.2207155,1.73106114,59.893,335.898,0.233,0.094,1688726079390000.0,1688726079392057,-0.2769920084392652,0.7824408300220966,-0.006999999999997897,335.898,0.233,0.094
115,2079400000,2023-07-07,10:34:39.400,41.2207156,1.73106108,59.893,335.819,0.23199999999999998,0.084,1688726079399999.0,1688726079402170,-0.2818593475385569,0.7936159810051322,-0.006999999999997897,335.819,0.23199999999999998,0.084
116,2079410000,2023-07-07,10:34:39.410,41.2207157,1.73106101,59.894,335.73199999999997,0.22899999999999998,0.075,1688726079409999.0,1688726079412077,-0.28756491758394986,0.8048033658415079,-0.006000000000000227,335.73199999999997,0.22899999999999998,0.075
117,2079420000,2023-07-07,10:34:39.420,41.2207158,1.73106095,59.894,335.656,0.226,0.063,1688726079420000.0,1688726079422145,-0.2924322566832416,0.8159785168245435,-0.006000000000000227,335.656,0.226,0.063
118,2079430000,2023-07-07,10:34:39.430,41.2207159,1.73106089,59.894,335.584,0.226,0.048,1688726079429999.0,1688726079432161,-0.29729959566611797,0.827153667807579,-0.006000000000000227,335.584,0.226,0.048
119,2079440000,2023-07-07,10:34:39.440,41.22071601,1.73106082,59.894,335.504,0.226,0.034,1688726079439999.0,1688726079442112,-0.3029889609897509,0.839451227337122,-0.006000000000000227,335.504,0.226,0.034
120,2079450000,2023-07-07,10:34:39.450,41.22071611,1.73106076,59.894,335.42199999999997,0.226,0.022000000000000002,1688726079450000.0,1688726079452050,-0.3078562999726273,0.8506263783201575,-0.006000000000000227,335.42199999999997,0.226,0.022000000000000002
121,2079460000,2023-07-07,10:34:39.460,41.22071621,1.73106069,59.894,335.338,0.228,0.006999999999999999,1688726079460000.0,1688726079462160,-0.3135618699598126,0.8618137631565332,-0.006000000000000227,335.338,0.228,0.006999999999999999
122,2079470000,2023-07-07,10:34:39.470,41.22071632,1.73106062,59.894,335.25300000000004,0.22899999999999998,-0.01,1688726079469999.0,1688726079472129,-0.3192512352252379,0.8741113236173987,-0.006000000000000227,335.25300000000004,0.22899999999999998,-0.01
123,2079480000,2023-07-07,10:34:39.480,41.22071643,1.73106056,59.894,335.17900000000003,0.23199999999999998,-0.024,1688726079479999.0,1688726079482027,-0.32410236954456195,0.8863966483622789,-0.006000000000000227,335.17900000000003,0.23199999999999998,-0.024
124,2079490000,2023-07-07,10:34:39.490,41.22071653,1.73106049,59.895,335.102,0.233,-0.036000000000000004,1688726079490000.0,1688726079491997,-0.32980793941533193,0.8975840341299772,-0.0049999999999954525,335.102,0.233,-0.036000000000000004
125,2079500000,2023-07-07,10:34:39.500,41.22071664,1.73106042,59.895,335.01300000000003,0.22899999999999998,-0.042,1688726079500000.0,1688726079502035,-0.33549730462254956,0.9098815927281976,-0.0049999999999954525,335.01300000000003,0.22899999999999998,-0.042
126,2079510000,2023-07-07,10:34:39.510,41.22071675,1.73106035,59.895,334.92400000000004,0.231,-0.054000000000000006,1688726079509999.0,1688726079512199,-0.3411866698297672,0.9221791541203856,-0.0049999999999954525,334.92400000000004,0.231,-0.054000000000000006
127,2079520000,2023-07-07,10:34:39.520,41.22071685,1.73106028,59.895,334.835,0.233,-0.062,1688726079520000.0,1688726079521982,-0.3468922396423295,0.9333665408194065,-0.0049999999999954525,334.835,0.233,-0.062
128,2079530000,2023-07-07,10:34:39.530,41.22071697,1.7310602,59.895,334.745,0.23399999999999999,-0.076,1688726079530000.0,1688726079532210,-0.35340363113209605,0.9467865098267794,-0.0049999999999954525,334.745,0.23399999999999999,-0.076
129,2079540000,2023-07-07,10:34:39.540,41.22071708,1.73106013,59.895,334.663,0.233,-0.085,1688726079539999.0,1688726079542207,-0.3590929961646907,0.9590840693563223,-0.0049999999999954525,334.663,0.233,-0.085
130,2079550000,2023-07-07,10:34:39.550,41.22071718,1.73106007,59.895,334.579,0.233,-0.098,1688726079549999.0,1688726079552170,-0.36396033503115177,0.9702592203393579,-0.0049999999999954525,334.579,0.233,-0.098
131,2079560000,2023-07-07,10:34:39.560,41.2207173,1.73105998,59.895,334.48400000000004,0.23199999999999998,-0.105,1688726079560000.0,1688726079562090,-0.3713099574088119,0.9836914232000709,-0.0049999999999954525,334.48400000000004,0.23199999999999998,-0.105
132,2079570000,2023-07-07,10:34:39.570,41.22071741,1.73105991,59.895,334.38800000000003,0.233,-0.105,1688726079570000.0,1688726079572246,-0.37699932244140655,0.9959889836609364,-0.0049999999999954525,334.38800000000003,0.233,-0.105
133,2079580000,2023-07-07,10:34:39.580,41.22071752,1.73105984,59.895,334.291,0.23399999999999999,-0.111,1688726079579999.0,1688726079582256,-0.3826886874740012,1.0082865441218019,-0.0049999999999954525,334.291,0.23399999999999999,-0.111
134,2079590000,2023-07-07,10:34:39.590,41.22071764,1.73105976,59.896,334.195,0.235,-0.11900000000000001,1688726079590000.0,1688726079592086,-0.3892000787309371,1.0217065112665296,-0.003999999999997783,334.195,0.235,-0.11900000000000001
135,2079600000,2023-07-07,10:34:39.600,41.22071775,1.73105969,59.896,334.105,0.23199999999999998,-0.121,1688726079600000.0,1688726079602343,-0.3948894437053241,1.0340040726587176,-0.003999999999997783,334.105,0.23199999999999998,-0.121
136,2079610000,2023-07-07,10:34:39.610,41.22071786,1.73105962,59.896,334.01300000000003,0.231,-0.122,1688726079609999.0,1688726079612096,-0.40057880873791873,1.0463016340509057,-0.003999999999997783,334.01300000000003,0.231,-0.122
137,2079620000,2023-07-07,10:34:39.620,41.22071798,1.73105954,59.896,333.913,0.231,-0.12300000000000001,1688726079619999.0,1688726079622122,-0.40709019993664697,1.059721602126956,-0.003999999999997783,333.913,0.231,-0.12300000000000001
138,2079630000,2023-07-07,10:34:39.630,41.2207181,1.73105946,59.896,333.81199999999995,0.23199999999999998,-0.129,1688726079630000.0,1688726079632064,-0.41360159107716754,1.0731415702030063,-0.003999999999997783,333.81199999999995,0.23199999999999998,-0.129
139,2079640000,2023-07-07,10:34:39.640,41.22071822,1.73105939,59.896,333.711,0.23199999999999998,-0.132,1688726079640000.0,1688726079642245,-0.4192747513880022,1.0865493044257164,-0.003999999999997783,333.711,0.23199999999999998,-0.132
140,2079650000,2023-07-07,10:34:39.650,41.22071834,1.7310593,59.896,333.611,0.233,-0.135,1688726079649999.0,1688726079652082,-0.42662437341641635,1.099981508217752,-0.003999999999997783,333.611,0.233,-0.135
141,2079660000,2023-07-07,10:34:39.660,41.22071846,1.73105923,59.896,333.519,0.233,-0.13699999999999998,1688726079659999.0,1688726079662180,-0.432297533552628,1.1133892415091395,-0.003999999999997783,333.519,0.233,-0.13699999999999998
142,2079670000,2023-07-07,10:34:39.670,41.22071857,1.73105916,59.896,333.42400000000004,0.23399999999999999,-0.134,1688726079670000.0,1688726079672111,-0.4379868984105997,1.1256868029013276,-0.003999999999997783,333.42400000000004,0.23399999999999999,-0.134
143,2079680000,2023-07-07,10:34:39.680,41.2207187,1.73105907,59.897,333.319,0.233,-0.129,1688726079679999.0,1688726079682035,-0.44532031571725383,1.1402291804552078,-0.0030000000000001137,333.319,0.233,-0.129
144,2079690000,2023-07-07,10:34:39.690,41.22071882,1.73105899,59.897,333.214,0.233,-0.125,1688726079689999.0,1688726079692152,-0.4518317067413591,1.1536491503939033,-0.0030000000000001137,333.214,0.233,-0.125
145,2079700000,2023-07-07,10:34:39.700,41.22071894,1.73105891,59.896,333.11,0.231,-0.12,1688726079700000.0,1688726079702052,-0.45834309776546434,1.1670691184699535,-0.003999999999997783,333.11,0.231,-0.12
146,2079710000,2023-07-07,10:34:39.710,41.22071906,1.73105882,59.897,333.01300000000003,0.23399999999999999,-0.124,1688726079710000.0,1688726079712031,-0.46569271973567083,1.1805013231933117,-0.0030000000000001137,333.01300000000003,0.23399999999999999,-0.124
147,2079720000,2023-07-07,10:34:39.720,41.22071918,1.73105874,59.897,332.921,0.23600000000000002,-0.13,1688726079719999.0,1688726079722060,-0.4722041107015684,1.1939212931320071,-0.0030000000000001137,332.921,0.23600000000000002,-0.13
148,2079730000,2023-07-07,10:34:39.730,41.22071931,1.73105866,59.897,332.82599999999996,0.237,-0.13,1688726079729999.0,1688726079732025,-0.47869929688749835,1.2084514359012246,-0.0030000000000001137,332.82599999999996,0.237,-0.13
149,2079740000,2023-07-07,10:34:39.740,41.22071943,1.73105857,59.897,332.724,0.237,-0.128,1688726079740000.0,1688726079742183,-0.4860489187412895,1.2218836415559053,-0.0030000000000001137,332.724,0.237,-0.128
150,2079750000,2023-07-07,10:34:39.750,41.22071956,1.73105849,59.897,332.624,0.23399999999999999,-0.12300000000000001,1688726079750000.0,1688726079752220,-0.4925441048690118,1.2364137833938003,-0.0030000000000001137,332.624,0.23399999999999999,-0.12300000000000001
151,2079760000,2023-07-07,10:34:39.760,41.22071968,1.7310584,59.897,332.522,0.23199999999999998,-0.121,1688726079759999.0,1688726079762145,-0.49989372672280297,1.2498459871858358,-0.0030000000000001137,332.522,0.23199999999999998,-0.121
152,2079770000,2023-07-07,10:34:39.770,41.22071981,1.73105831,59.897,332.413,0.231,-0.113,1688726079770000.0,1688726079772081,-0.5072271437384188,1.2643883656710386,-0.0030000000000001137,332.413,0.231,-0.113
153,2079780000,2023-07-07,10:34:39.780,41.22071994,1.73105822,59.897,332.31199999999995,0.231,-0.10800000000000001,1688726079780000.0,1688726079782147,-0.5145605607540347,1.2789307441562414,-0.0030000000000001137,332.31199999999995,0.231,-0.10800000000000001
154,2079790000,2023-07-07,10:34:39.790,41.22072006,1.73105814,59.897,332.209,0.228,-0.11199999999999999,1688726079789999.0,1688726079792190,-0.5210719515453093,1.2923507131636143,-0.0030000000000001137,332.209,0.228,-0.11199999999999999
155,2079800000,2023-07-07,10:34:39.800,41.22072019,1.73105804,59.897,332.101,0.225,-0.113,1688726079799999.0,1688726079802308,-0.5292435994488187,1.3069053273648024,-0.0030000000000001137,332.101,0.225,-0.113
156,2079810000,2023-07-07,10:34:39.810,41.22072032,1.73105795,59.897,332.001,0.22,-0.11,1688726079810000.0,1688726079812206,-0.5365770163480192,1.3214477049186826,-0.0030000000000001137,332.001,0.22,-0.11
157,2079820000,2023-07-07,10:34:39.820,41.22072045,1.73105787,59.897,331.903,0.221,-0.11599999999999999,1688726079820000.0,1688726079822401,-0.5430722023011185,1.3359778495505452,-0.0030000000000001137,331.903,0.221,-0.11599999999999999
158,2079830000,2023-07-07,10:34:39.830,41.22072058,1.73105777,59.897,331.791,0.214,-0.114,1688726079829999.0,1688726079832281,-0.5512438500882126,1.3505324628204107,-0.0030000000000001137,331.791,0.214,-0.114
159,2079840000,2023-07-07,10:34:39.840,41.22072071,1.73105768,59.897,331.67800000000005,0.207,-0.11699999999999999,1688726079840000.0,1688726079842218,-0.5585772669292055,1.365074840374291,-0.0030000000000001137,331.67800000000005,0.207,-0.11699999999999999
160,2079850000,2023-07-07,10:34:39.850,41.22072084,1.73105759,59.897,331.565,0.20199999999999999,-0.11599999999999999,1688726079850000.0,1688726079852147,-0.5659106837119907,1.3796172188594937,-0.0030000000000001137,331.565,0.20199999999999999,-0.11599999999999999
161,2079860000,2023-07-07,10:34:39.860,41.22072098,1.73105749,59.898,331.45,0.196,-0.11699999999999999,1688726079859999.0,1688726079862206,-0.5740661267191172,1.3952820068225265,-0.001999999999995339,331.45,0.196,-0.11699999999999999
162,2079870000,2023-07-07,10:34:39.870,41.22072111,1.73105739,59.898,331.341,0.18899999999999997,-0.121,1688726079869999.0,1688726079872106,-0.582237774389796,1.4098366210237145,-0.001999999999995339,331.341,0.18899999999999997,-0.121
163,2079880000,2023-07-07,10:34:39.880,41.22072124,1.7310573,59.898,331.231,0.185,-0.131,1688726079880000.0,1688726079882181,-0.5895711910561658,1.4243789995089173,-0.001999999999995339,331.231,0.185,-0.131
164,2079890000,2023-07-07,10:34:39.890,41.22072138,1.7310572,59.898,331.119,0.18100000000000002,-0.14400000000000002,1688726079890000.0,1688726079892076,-0.597726633946877,1.44004378747195,-0.001999999999995339,331.119,0.18100000000000002,-0.14400000000000002
165,2079900000,2023-07-07,10:34:39.900,41.22072151,1.7310571,59.898,331.009,0.17600000000000002,-0.149,1688726079899999.0,1688726079902107,-0.6058982815011404,1.4545983988791704,-0.001999999999995339,331.009,0.17600000000000002,-0.149
166,2079910000,2023-07-07,10:34:39.910,41.22072165,1.73105701,59.898,330.897,0.17,-0.152,1688726079909999.0,1688726079912271,-0.6132154933875427,1.4702509520575404,-0.001999999999995339,330.897,0.17,-0.152
167,2079920000,2023-07-07,10:34:39.920,41.22072178,1.7310569,59.898,330.777,0.16399999999999998,-0.158,1688726079920000.0,1688726079922069,-0.6222253717132844,1.4848178029060364,-0.001999999999995339,330.777,0.16399999999999998,-0.158
168,2079930000,2023-07-07,10:34:39.930,41.22072192,1.7310568,59.898,330.657,0.155,-0.157,1688726079929999.0,1688726079932061,-0.6303808144875802,1.5004825899377465,-0.001999999999995339,330.657,0.155,-0.157
169,2079940000,2023-07-07,10:34:39.940,41.22072205,1.73105671,59.898,330.539,0.15,-0.161,1688726079939999.0,1688726079942042,-0.6377142309793271,1.5150249674916267,-0.001999999999995339,330.539,0.15,-0.161
170,2079950000,2023-07-07,10:34:39.950,41.22072219,1.7310566,59.898,330.42199999999997,0.14800000000000002,-0.165,1688726079950000.0,1688726079952289,-0.6467079045251012,1.5307019902393222,-0.001999999999995339,330.42199999999997,0.14800000000000002,-0.165
171,2079960000,2023-07-07,10:34:39.960,41.22072233,1.7310565,59.898,330.314,0.146,-0.168,1688726079960000.0,1688726079962232,-0.654863347124774,1.5463667791336775,-0.001999999999995339,330.314,0.146,-0.168
172,2079970000,2023-07-07,10:34:39.970,41.22072246,1.7310564,59.898,330.20599999999996,0.14,-0.166,1688726079969999.0,1688726079972027,-0.6630349944462068,1.5609213914722204,-0.001999999999995339,330.20599999999996,0.14,-0.166
173,2079980000,2023-07-07,10:34:39.980,41.2207226,1.73105629,59.898,330.091,0.136,-0.16,1688726079979999.0,1688726079982040,-0.6720286678755656,1.576598416082561,-0.001999999999995339,330.091,0.136,-0.16
174,2079990000,2023-07-07,10:34:39.990,41.22072274,1.73105619,59.897,329.98,0.136,-0.161,1688726079990000.0,1688726079992279,-0.6801841103588231,1.5922632031142712,-0.0030000000000001137,329.98,0.136,-0.161
175,2080000000,2023-07-07,10:34:40.000,41.22072288,1.73105608,59.897,329.86199999999997,0.136,-0.152,1688726080000000.0,1688726080002051,-0.6891777837299742,1.6079402258619666,-0.0030000000000001137,329.86199999999997,0.136,-0.152
176,2080010000,2023-07-07,10:34:40.010,41.22072302,1.73105597,59.897,329.73900000000003,0.134,-0.141,1688726080009999.0,1688726080013111,-0.6981714570429176,1.6236172504723072,-0.0030000000000001137,329.73900000000003,0.134,-0.141
177,2080020000,2023-07-07,10:34:40.020,41.22072316,1.73105587,59.897,329.626,0.131,-0.131,1688726080020000.0,1688726080022256,-0.7063268994097598,1.6392820375040174,-0.0030000000000001137,329.626,0.131,-0.131
178,2080030000,2023-07-07,10:34:40.030,41.2207233,1.73105576,59.897,329.519,0.129,-0.12,1688726080030000.0,1688726080032132,-0.7153205726644956,1.6549590611830354,-0.0030000000000001137,329.519,0.129,-0.12
179,2080040000,2023-07-07,10:34:40.040,41.22072344,1.73105565,59.897,329.406,0.128,-0.107,1688726080039999.0,1688726080042219,-0.724314245802816,1.6706360848620534,-0.0030000000000001137,329.406,0.128,-0.107
180,2080050000,2023-07-07,10:34:40.050,41.22072358,1.73105554,59.897,329.296,0.131,-0.107,1688726080049999.0,1688726080052462,-0.7333079189993441,1.6863131066784263,-0.0030000000000001137,329.296,0.131,-0.107
181,2080060000,2023-07-07,10:34:40.060,41.22072372,1.73105543,59.896,329.17900000000003,0.129,-0.106,1688726080060000.0,1688726080062217,-0.7423015921376646,1.7019901294261217,-0.003999999999997783,329.17900000000003,0.129,-0.106
182,2080070000,2023-07-07,10:34:40.070,41.22072386,1.73105532,59.896,329.05699999999996,0.128,-0.1,1688726080070000.0,1688726080072470,-0.7512952652177773,1.7176671521738172,-0.003999999999997783,329.05699999999996,0.128,-0.1
183,2080080000,2023-07-07,10:34:40.080,41.22072401,1.73105521,59.896,328.949,0.127,-0.09300000000000001,1688726080079999.0,1688726080082129,-0.7602727334597148,1.7344543505460024,-0.003999999999997783,328.949,0.127,-0.09300000000000001
184,2080090000,2023-07-07,10:34:40.090,41.22072415,1.7310551,59.896,328.842,0.127,-0.085,1688726080090000.0,1688726080092367,-0.7692664064816199,1.7501313732936978,-0.003999999999997783,328.842,0.127,-0.085
185,2080100000,2023-07-07,10:34:40.100,41.22072429,1.73105498,59.896,328.723,0.12300000000000001,-0.08,1688726080100000.0,1688726080102190,-0.779098310333211,1.765820630826056,-0.003999999999997783,328.723,0.12300000000000001,-0.08
186,2080110000,2023-07-07,10:34:40.110,41.22072443,1.73105486,59.896,328.606,0.12300000000000001,-0.083,1688726080109999.0,1688726080112272,-0.7889302140683867,1.7815098902210593,-0.003999999999997783,328.606,0.12300000000000001,-0.083
187,2080120000,2023-07-07,10:34:40.120,41.22072458,1.73105475,59.896,328.48800000000006,0.124,-0.078,1688726080119999.0,1688726080122098,-0.7979076821939088,1.7982970885932446,-0.003999999999997783,328.48800000000006,0.124,-0.078
188,2080130000,2023-07-07,10:34:40.130,41.22072472,1.73105463,59.896,328.37,0.124,-0.07200000000000001,1688726080130000.0,1688726080132181,-0.8077395859290846,1.8139863451942801,-0.003999999999997783,328.37,0.124,-0.07200000000000001
189,2080140000,2023-07-07,10:34:40.140,41.22072487,1.73105452,59.896,328.26,0.122,-0.069,1688726080140000.0,1688726080142099,-0.8167170538799837,1.8307735426351428,-0.003999999999997783,328.26,0.122,-0.069
190,2080150000,2023-07-07,10:34:40.150,41.22072501,1.7310544,59.896,328.149,0.114,-0.061,1688726080149999.0,1688726080152215,-0.8265489574987441,1.8464628029614687,-0.003999999999997783,328.149,0.114,-0.061
191,2080160000,2023-07-07,10:34:40.160,41.22072515,1.73105428,59.896,328.029,0.105,-0.052000000000000005,1688726080159999.0,1688726080162218,-0.8363808611175045,1.8621520595625043,-0.003999999999997783,328.029,0.105,-0.052000000000000005
192,2080170000,2023-07-07,10:34:40.170,41.2207253,1.73105416,59.897,327.908,0.096,-0.040999999999999995,1688726080170000.0,1688726080172095,-0.846196559839882,1.8789514927193522,-0.0030000000000001137,327.908,0.096,-0.040999999999999995
193,2080180000,2023-07-07,10:34:40.180,41.22072544,1.73105404,59.897,327.785,0.087,-0.038,1688726080179999.0,1688726080182146,-0.8560284632840194,1.8946407530456781,-0.0030000000000001137,327.785,0.087,-0.038
194,2080190000,2023-07-07,10:34:40.190,41.22072559,1.73105392,59.897,327.659,0.076,-0.038,1688726080189999.0,1688726080192224,-0.8658441620063968,1.911440184339881,-0.0030000000000001137,327.659,0.076,-0.038
195,2080200000,2023-07-07,10:34:40.200,41.22072574,1.7310538,59.898,327.545,0.063,-0.04,1688726080200000.0,1688726080202107,-0.8756598606123589,1.9282396156340837,-0.001999999999995339,327.545,0.063,-0.04
196,2080210000,2023-07-07,10:34:40.210,41.22072588,1.73105368,59.898,327.435,0.048,-0.042,1688726080210000.0,1688726080212035,-0.8854917639982887,1.943928875029087,-0.001999999999995339,327.435,0.048,-0.042
197,2080220000,2023-07-07,10:34:40.220,41.22072603,1.73105356,59.898999999999994,327.317,0.032,-0.044000000000000004,1688726080219999.0,1688726080222177,-0.8953074624296278,1.9607283100485802,-0.0010000000000047748,327.317,0.032,-0.044000000000000004
198,2080230000,2023-07-07,10:34:40.230,41.22072617,1.73105343,59.898999999999994,327.194,0.016,-0.054000000000000006,1688726080229999.0,1688726080232070,-0.9059775965870358,1.976429802365601,-0.0010000000000047748,327.194,0.016,-0.054000000000000006
199,2080240000,2023-07-07,10:34:40.240,41.22072632,1.73105331,59.9,327.065,-0.002,-0.066,1688726080240000.0,1688726080242164,-0.9157932950183749,1.9932292345911264,0.0,327.065,-0.002,-0.066
200,2080250000,2023-07-07,10:34:40.250,41.22072647,1.73105318,59.9,326.942,-0.013999999999999999,-0.086,1688726080250000.0,1688726080252180,-0.9264472242794,2.0100409034639597,0.0,326.942,-0.013999999999999999,-0.086
201,2080260000,2023-07-07,10:34:40.260,41.22072661,1.73105305,59.901,326.83299999999997,-0.031,-0.1,1688726080259999.0,1688726080262131,-0.9371173582039773,2.025742396712303,0.0010000000000047748,326.83299999999997,-0.031,-0.1
202,2080270000,2023-07-07,10:34:40.270,41.22072676,1.73105293,59.902,326.725,-0.048,-0.11599999999999999,1688726080270000.0,1688726080272079,-0.9469330565189011,2.042541829869151,0.0020000000000024443,326.725,-0.048,-0.11599999999999999
203,2080280000,2023-07-07,10:34:40.280,41.2207269,1.7310528,59.902,326.60900000000004,-0.069,-0.13,1688726080280000.0,1688726080282260,-0.9576031903852709,2.0582433249801397,0.0020000000000024443,326.60900000000004,-0.069,-0.13
204,2080290000,2023-07-07,10:34:40.290,41.22072705,1.73105266,59.903,326.494,-0.083,-0.15,1688726080289999.0,1688726080292136,-0.9690953503013588,2.0750672267749906,0.0030000000000001137,326.494,-0.083,-0.15
205,2080300000,2023-07-07,10:34:40.300,41.2207272,1.73105253,59.903,326.374,-0.098,-0.17,1688726080299999.0,1688726080302334,-0.9797492792131379,2.0918788947165012,0.0030000000000001137,326.374,-0.098,-0.17
206,2080310000,2023-07-07,10:34:40.310,41.22072734,1.73105239,59.903999999999996,326.249,-0.113,-0.18100000000000002,1688726080310000.0,1688726080312055,-0.9912576437345706,2.107592625543475,0.003999999999997783,326.249,-0.113,-0.18100000000000002
207,2080320000,2023-07-07,10:34:40.320,41.22072749,1.73105226,59.903999999999996,326.14,-0.128,-0.20199999999999999,1688726080320000.0,1688726080322173,-1.0019115727045573,2.1244042916223407,0.003999999999997783,326.14,-0.128,-0.20199999999999999
208,2080330000,2023-07-07,10:34:40.330,41.22072764,1.73105212,59.905,326.038,-0.142,-0.231,1688726080329999.0,1688726080332197,-1.0134037323878147,2.141228197142482,0.005000000000002558,326.038,-0.142,-0.231
209,2080340000,2023-07-07,10:34:40.340,41.22072778,1.73105198,59.905,325.934,-0.154,-0.255,1688726080340000.0,1688726080342023,-1.024912096792832,2.1569419242441654,0.005000000000002558,325.934,-0.154,-0.255
210,2080350000,2023-07-07,10:34:40.350,41.22072793,1.73105184,59.905,325.82599999999996,-0.16699999999999998,-0.28,1688726080350000.0,1688726080352261,-1.0364042563014664,2.1737658297643065,0.005000000000002558,325.82599999999996,-0.16699999999999998,-0.28
211,2080360000,2023-07-07,10:34:40.360,41.22072808,1.73105171,59.906000000000006,325.711,-0.17600000000000002,-0.301,1688726080359999.0,1688726080362167,-1.0470581849804148,2.1905774967744946,0.006000000000007333,325.711,-0.17600000000000002,-0.301
212,2080370000,2023-07-07,10:34:40.370,41.22072822,1.73105157,59.906000000000006,325.586,-0.191,-0.314,1688726080369999.0,1688726080372112,-1.0585665492690168,2.206291228532791,0.006000000000007333,325.586,-0.191,-0.314
213,2080380000,2023-07-07,10:34:40.380,41.22072837,1.73105143,59.907,325.472,-0.203,-0.33899999999999997,1688726080380000.0,1688726080382121,-1.0700587086612359,2.2231151312589645,0.006999999999997897,325.472,-0.203,-0.33899999999999997
214,2080390000,2023-07-07,10:34:40.390,41.22072852,1.73105128,59.907,325.37,-0.214,-0.366,1688726080390000.0,1688726080392074,-1.0823890988249332,2.2399512697011232,0.006999999999997897,325.37,-0.214,-0.366
215,2080400000,2023-07-07,10:34:40.400,41.22072867,1.73105114,59.907,325.268,-0.223,-0.38799999999999996,1688726080399999.0,1688726080402061,-1.0938812581589445,2.256775174289942,0.006999999999997897,325.268,-0.223,-0.38799999999999996
216,2080410000,2023-07-07,10:34:40.410,41.22072881,1.731051,59.908,325.164,-0.22899999999999998,-0.418,1688726080409999.0,1688726080412050,-1.105389622214716,2.2724889032542706,0.008000000000002672,325.164,-0.22899999999999998,-0.418
217,2080420000,2023-07-07,10:34:40.420,41.22072896,1.73105086,59.908,325.048,-0.23800000000000002,-0.44799999999999995,1688726080420000.0,1688726080422105,-1.1168817813158967,2.289312807843089,0.008000000000002672,325.048,-0.23800000000000002,-0.44799999999999995
218,2080430000,2023-07-07,10:34:40.430,41.22072911,1.73105071,59.908,324.928,-0.244,-0.47600000000000003,1688726080429999.0,1688726080432279,-1.1292121712467633,2.3061489453539252,0.008000000000002672,324.928,-0.244,-0.47600000000000003
219,2080440000,2023-07-07,10:34:40.440,41.22072926,1.73105057,59.909,324.818,-0.25,-0.502,1688726080439999.0,1688726080442093,-1.1407043304061517,2.322972849942744,0.009000000000000341,324.818,-0.25,-0.502
220,2080450000,2023-07-07,10:34:40.450,41.22072941,1.73105042,59.909,324.72,-0.25,-0.5379999999999999,1688726080450000.0,1688726080452054,-1.1530347201623954,2.3398089883849025,0.009000000000000341,324.72,-0.25,-0.5379999999999999
221,2080460000,2023-07-07,10:34:40.460,41.22072956,1.73105027,59.909,324.615,-0.253,-0.5660000000000001,1688726080460000.0,1688726080462135,-1.1653651099768467,2.3566451277583838,0.009000000000000341,324.615,-0.253,-0.5660000000000001
222,2080470000,2023-07-07,10:34:40.470,41.22072971,1.73105013,59.909,324.507,-0.258,-0.591,1688726080469999.0,1688726080472215,-1.1768572689034045,2.3734690323472023,0.009000000000000341,324.507,-0.258,-0.591
223,2080480000,2023-07-07,10:34:40.480,41.22072986,1.73104998,59.909,324.39599999999996,-0.26,-0.617,1688726080479999.0,1688726080482044,-1.1891876584850252,2.390305170789361,0.009000000000000341,324.39599999999996,-0.26,-0.617
224,2080490000,2023-07-07,10:34:40.490,41.22073001,1.73104983,59.91,324.279,-0.259,-0.637,1688726080490000.0,1688726080492180,-1.2015180481248535,2.4071413101628423,0.00999999999999801,324.279,-0.259,-0.637
225,2080500000,2023-07-07,10:34:40.500,41.22073016,1.73104969,59.91,324.17,-0.261,-0.654,1688726080500000.0,1688726080502093,-1.2130102068767883,2.4239652138203382,0.00999999999999801,324.17,-0.261,-0.654
226,2080510000,2023-07-07,10:34:40.510,41.22073031,1.73104954,59.91,324.07,-0.263,-0.664,1688726080509999.0,1688726080512251,-1.2253405963419937,2.440801352262497,0.00999999999999801,324.07,-0.263,-0.664
227,2080520000,2023-07-07,10:34:40.520,41.22073046,1.73104939,59.91,323.974,-0.264,-0.6809999999999999,1688726080520000.0,1688726080522103,-1.2376709857489914,2.4576374934986234,0.00999999999999801,323.974,-0.264,-0.6809999999999999
228,2080530000,2023-07-07,10:34:40.530,41.22073061,1.73104923,59.91,323.879,-0.261,-0.695,1688726080530000.0,1688726080532203,-1.2508396059274673,2.474485866725445,0.00999999999999801,323.879,-0.261,-0.695
229,2080540000,2023-07-07,10:34:40.540,41.22073076,1.73104908,59.91,323.77099999999996,-0.264,-0.691,1688726080539999.0,1688726080542118,-1.2631699952180497,2.4913220070302486,0.00999999999999801,323.77099999999996,-0.264,-0.691
230,2080550000,2023-07-07,10:34:40.550,41.22073091,1.73104893,59.91,323.657,-0.263,-0.695,1688726080549999.0,1688726080552118,-1.2755003845086321,2.5081581445410848,0.00999999999999801,323.657,-0.263,-0.695
231,2080560000,2023-07-07,10:34:40.560,41.22073107,1.73104878,59.91,323.54900000000004,-0.262,-0.7020000000000001,1688726080560000.0,1688726080562329,-1.2878145688446239,2.5261044586077332,0.00999999999999801,323.54900000000004,-0.262,-0.7020000000000001
232,2080570000,2023-07-07,10:34:40.570,41.22073122,1.73104862,59.91,323.452,-0.266,-0.71,1688726080570000.0,1688726080572424,-1.3009831887320615,2.5429528327658772,0.00999999999999801,323.452,-0.266,-0.71
233,2080580000,2023-07-07,10:34:40.580,41.22073137,1.73104847,59.91,323.362,-0.266,-0.723,1688726080579999.0,1688726080582160,-1.313313577848021,2.5597889740020037,0.00999999999999801,323.362,-0.266,-0.723
234,2080590000,2023-07-07,10:34:40.590,41.22073153,1.73104831,59.911,323.27099999999996,-0.271,-0.725,1688726080590000.0,1688726080592248,-1.326465992780868,2.5777475209906697,0.011000000000002785,323.27099999999996,-0.271,-0.725
235,2080600000,2023-07-07,10:34:40.600,41.22073168,1.73104816,59.911,323.175,-0.278,-0.7240000000000001,1688726080600000.0,1688726080602111,-1.3387963816639967,2.594583660364151,0.011000000000002785,323.175,-0.278,-0.7240000000000001
236,2080610000,2023-07-07,10:34:40.610,41.22073184,1.731048,59.911,323.069,-0.28600000000000003,-0.726,1688726080609999.0,1688726080612212,-1.351948796538636,2.612542210146785,0.011000000000002785,323.069,-0.28600000000000003,-0.726
237,2080620000,2023-07-07,10:34:40.620,41.22073199,1.73104785,59.911,322.966,-0.292,-0.733,1688726080619999.0,1688726080622263,-1.3642791853635572,2.6293783485889435,0.011000000000002785,322.966,-0.292,-0.733
238,2080630000,2023-07-07,10:34:40.630,41.22073215,1.73104769,59.912,322.869,-0.303,-0.731,1688726080630000.0,1688726080632320,-1.3774316000635736,2.6473368983715773,0.012000000000000455,322.869,-0.303,-0.731
239,2080640000,2023-07-07,10:34:40.640,41.22073231,1.73104753,59.912,322.782,-0.311,-0.737,1688726080640000.0,1688726080642206,-1.3905840147053823,2.665295446291566,0.012000000000000455,322.782,-0.311,-0.737
240,2080650000,2023-07-07,10:34:40.650,41.22073247,1.73104737,59.912,322.699,-0.321,-0.741,1688726080649999.0,1688726080652150,-1.4037364292307757,2.6832539960741997,0.012000000000000455,322.699,-0.321,-0.741
241,2080660000,2023-07-07,10:34:40.660,41.22073262,1.73104722,59.913000000000004,322.608,-0.336,-0.7340000000000001,1688726080659999.0,1688726080662240,-1.4160668178228661,2.700090135447681,0.01300000000000523,322.608,-0.336,-0.7340000000000001
242,2080670000,2023-07-07,10:34:40.670,41.22073278,1.73104705,59.913000000000004,322.507,-0.349,-0.723,1688726080670000.0,1688726080672293,-1.4300574630033225,2.7180609200149775,0.01300000000000523,322.507,-0.349,-0.723
243,2080680000,2023-07-07,10:34:40.680,41.22073294,1.73104689,59.913000000000004,322.411,-0.358,-0.7120000000000001,1688726080679999.0,1688726080682103,-1.4432098774123006,2.736019467934966,0.01300000000000523,322.411,-0.358,-0.7120000000000001
244,2080690000,2023-07-07,10:34:40.690,41.2207331,1.73104673,59.913999999999994,322.323,-0.368,-0.703,1688726080689999.0,1688726080692214,-1.4563622916466556,2.7539780158549547,0.013999999999995794,322.323,-0.368,-0.703
245,2080700000,2023-07-07,10:34:40.700,41.22073326,1.73104657,59.913999999999994,322.236,-0.385,-0.685,1688726080700000.0,1688726080702192,-1.4695147058810107,2.771936566568911,0.013999999999995794,322.236,-0.385,-0.685
246,2080710000,2023-07-07,10:34:40.710,41.22073342,1.73104641,59.915,322.156,-0.40399999999999997,-0.6659999999999999,1688726080710000.0,1688726080712174,-1.4826671200571582,2.789895116351545,0.015000000000000568,322.156,-0.40399999999999997,-0.6659999999999999
247,2080720000,2023-07-07,10:34:40.720,41.22073358,1.73104625,59.915,322.077,-0.418,-0.648,1688726080719999.0,1688726080722063,-1.4958195341168903,2.807853663340211,0.015000000000000568,322.077,-0.418,-0.648
248,2080730000,2023-07-07,10:34:40.730,41.22073373,1.73104608,59.915,321.987,-0.429,-0.627,1688726080729999.0,1688726080732048,-1.5098263838444836,2.824714274145663,0.015000000000000568,321.987,-0.429,-0.627
249,2080740000,2023-07-07,10:34:40.740,41.2207339,1.73104592,59.915,321.893,-0.442,-0.61,1688726080740000.0,1688726080742228,-1.5229625928914174,2.843782997690141,0.015000000000000568,321.893,-0.442,-0.61
250,2080750000,2023-07-07,10:34:40.750,41.22073406,1.73104575,59.916000000000004,321.805,-0.457,-0.588,1688726080750000.0,1688726080752035,-1.5369532375480048,2.8617537822574377,0.016000000000005343,321.805,-0.457,-0.588
251,2080760000,2023-07-07,10:34:40.760,41.22073422,1.73104558,59.916000000000004,321.726,-0.467,-0.578,1688726080759999.0,1688726080762206,-1.5509438821463846,2.879724567756057,0.016000000000005343,321.726,-0.467,-0.578
252,2080770000,2023-07-07,10:34:40.770,41.22073438,1.73104542,59.917,321.65,-0.48,-0.5660000000000001,1688726080770000.0,1688726080772187,-1.5640962958568707,2.8976831156760454,0.017000000000003013,321.65,-0.48,-0.5660000000000001
253,2080780000,2023-07-07,10:34:40.780,41.22073454,1.73104525,59.917,321.566,-0.49200000000000005,-0.5529999999999999,1688726080780000.0,1688726080782101,-1.5780869403970428,2.9156539011746645,0.017000000000003013,321.566,-0.49200000000000005,-0.5529999999999999
254,2080790000,2023-07-07,10:34:40.790,41.2207347,1.73104508,59.917,321.476,-0.501,-0.546,1688726080789999.0,1688726080792005,-1.5920775847043842,2.933624685741961,0.017000000000003013,321.476,-0.501,-0.546
255,2080800000,2023-07-07,10:34:40.800,41.22073487,1.73104491,59.917,321.39099999999996,-0.503,-0.5489999999999999,1688726080799999.0,1688726080802305,-1.6060520241153426,2.952705644071102,0.017000000000003013,321.39099999999996,-0.503,-0.5489999999999999
256,2080810000,2023-07-07,10:34:40.810,41.22073503,1.73104474,59.918,321.309,-0.511,-0.5429999999999999,1688726080810000.0,1688726080812220,-1.6200426683062688,2.9706764286383986,0.018000000000000682,321.309,-0.511,-0.5429999999999999
257,2080820000,2023-07-07,10:34:40.820,41.22073519,1.73104457,59.918,321.232,-0.519,-0.535,1688726080820000.0,1688726080822221,-1.6340333124971949,2.9886472122743726,0.018000000000000682,321.232,-0.519,-0.535
258,2080830000,2023-07-07,10:34:40.830,41.22073535,1.73104439,59.918,321.16,-0.524,-0.534,1688726080829999.0,1688726080832236,-1.648862187343184,3.006630233488977,0.018000000000000682,321.16,-0.524,-0.534
259,2080840000,2023-07-07,10:34:40.840,41.22073552,1.73104422,59.918,321.07599999999996,-0.529,-0.528,1688726080840000.0,1688726080842235,-1.6628366264048964,3.025711191818118,0.018000000000000682,321.07599999999996,-0.529,-0.528
260,2080850000,2023-07-07,10:34:40.850,41.22073567,1.73104405,59.918,320.98,-0.53,-0.517,1688726080850000.0,1688726080852100,-1.6768434752593748,3.04257180262357,0.018000000000000682,320.98,-0.53,-0.517
